PID,SalePrice,Neighborhood,Prop_Addr,latitude,longitude,street_name,Neighborhood_st
909176150,126000,SWISU,"436 HAYWARD AVE, AMES, USA",42.01856448979592,-93.65161918367347,HAYWARD_AVE,SWISU_HAYWARD_AVE
905476230,139500,Edwards,"3416 WEST ST, AMES, USA",42.02485531593042,-93.66367099341755,WEST_ST,Edwards_WEST_ST
905476230,139500,Edwards,"3416 WEST ST, AMES, USA",42.02485531593042,-93.66367099341755,WEST_ST,Edwards_WEST_ST
911128020,124900,IDOTRR,"320 S 2ND ST, AMES, USA",42.021547615297024,-93.61406809992512,S_2ND_ST,IDOTRR_S_2ND_ST
535377150,114000,OldTown,"1524 DOUGLAS AVE, AMES, USA",42.03739146938776,-93.61220695918368,DOUGLAS_AVE,OldTown_DOUGLAS_AVE
534177230,227000,NWAmes,"2304 FILLMORE AVE, AMES, USA",42.04455376067282,-93.63181831620726,FILLMORE_AVE,NWAmes_FILLMORE_AVE
908128060,198500,Edwards,"4003 MARIGOLD DR, AMES, USA",42.018988,-93.6715721070941,MARIGOLD_DR,Edwards_MARIGOLD_DR
902135020,93000,OldTown,"212 10TH ST 210, AMES, USA",42.031162,-93.61256091846626,10TH_ST,OldTown_10TH_ST
528228540,187687,Blmngtn,"2431 LAKESIDE DR, AMES, USA",42.063308,-93.64230583853364,LAKESIDE_DR,Blmngtn_LAKESIDE_DR
923426010,137500,Mitchel,"602 KEN MARIL RD, AMES, USA",41.98649573595674,-93.6036188257733,KEN_MARIL_RD,Mitchel_KEN_MARIL_RD
908186050,140000,Edwards,"3901 MARIGOLD DR, AMES, USA",42.018963681474496,-93.67006654263754,MARIGOLD_DR,Edwards_MARIGOLD_DR
528186170,219500,NridgHt,"3629 CHILTON AVE, AMES, USA",42.057112,-93.6514196,CHILTON_AVE,NridgHt_CHILTON_AVE
923426070,136000,Mitchel,"700 KEN MARIL RD, AMES, USA",41.98649987838884,-93.60213991860324,KEN_MARIL_RD,Mitchel_KEN_MARIL_RD
902204080,80000,OldTown,"1102 CARROLL AVE, AMES, USA",42.039218,-93.609681,CARROLL_AVE,OldTown_CARROLL_AVE
535105100,159000,NAmes,"2519 KELLOGG AVE, AMES, USA",42.04690161396658,-93.61572103026556,KELLOGG_AVE,NAmes_KELLOGG_AVE
907405020,214000,CollgCr,"812 TENNYSON AVE, AMES, USA",42.01590809090909,-93.6876522121212,TENNYSON_AVE,CollgCr_TENNYSON_AVE
531382110,163000,SawyerW,"5220 MARYLAND ST, AMES, USA",42.03586941394644,-93.68920687419867,MARYLAND_ST,SawyerW_MARYLAND_ST
906380120,203000,CollgCr,"319 HARTFORD DR, AMES, USA",42.02481975297594,-93.68911130789051,HARTFORD_DR,CollgCr_HARTFORD_DR
909101060,67000,Edwards,"2910 WOOD ST, AMES, USA",42.02208247765018,-93.65692684113984,WOOD_ST,Edwards_WOOD_ST
534152050,205000,NWAmes,"2102 PRAIRIE VIEW EAST, AMES, USA",42.04331646337044,-93.63727919577092,PRAIRIE_VIEW_EAST,NWAmes_PRAIRIE_VIEW_EAST
923252075,131250,Mitchel,"424 TEAGARDEN DR, AMES, USA",41.98752773737374,-93.6061805959596,TEAGARDEN_DR,Mitchel_TEAGARDEN_DR
531376060,181000,SawyerW,"1514 CALIFORNIA AVE, AMES, USA",42.03717083511299,-93.69121204722514,CALIFORNIA_AVE,SawyerW_CALIFORNIA_AVE
902201120,115000,OldTown,"1216 CARROLL AVE, AMES, USA",42.039218,-93.609681,CARROLL_AVE,OldTown_CARROLL_AVE
923228080,98000,MeadowV,"626 MEADOW PL, AMES, USA",41.99215551070729,-93.6030863886634,MEADOW_PL,MeadowV_MEADOW_PL
902326030,265979,OldTown,"829 DOUGLAS AVE, AMES, USA",42.02935814285714,-93.61228857142856,DOUGLAS_AVE,OldTown_DOUGLAS_AVE
527451330,105500,BrDale,"1342 BARKLEY CT, AMES, USA",42.051676299375686,-93.62760442259348,BARKLEY_CT,BrDale_BARKLEY_CT
528218100,168165,Gilbert,"4205 CRESTMOOR AVE, AMES, USA",42.06219190471016,-93.64570992596713,CRESTMOOR_AVE,Gilbert_CRESTMOOR_AVE
916386140,201000,Timber,"3028 COTTONTAIL LN, AMES, USA",41.994931209457846,-93.650374,COTTONTAIL_LN,Timber_COTTONTAIL_LN
533221090,177500,Somerst,"2711 HAMPTON ST, AMES, USA",42.046150735023375,-93.6457721435571,HAMPTON_ST,Somerst_HAMPTON_ST
534128010,200000,NWAmes,"1636 JOHNSON ST, AMES, USA",42.04903420384354,-93.63264578650906,JOHNSON_ST,NWAmes_JOHNSON_ST
528106110,450000,NridgHt,"3331 WESTON DR, AMES, USA",42.06129117942748,-93.65753648637376,WESTON_DR,NridgHt_WESTON_DR
902206260,91300,OldTown,"926 DUFF AVE, AMES, USA",42.03109366137248,-93.61045453926472,DUFF_AVE,OldTown_DUFF_AVE
528222090,173500,Gilbert,"4302 WELBECK DR, AMES, USA",42.06322648533865,-93.64433362330249,WELBECK_DR,Gilbert_WELBECK_DR
528218150,199500,Gilbert,"4103 CRESTMOOR AVE, AMES, USA",42.06188691068189,-93.64448387960196,CRESTMOOR_AVE,Gilbert_CRESTMOOR_AVE
903400180,207000,BrkSide,"816 BROOKRIDGE AVE, AMES, USA",42.02954372815348,-93.62737676136398,BROOKRIDGE_AVE,BrkSide_BROOKRIDGE_AVE
535453210,155000,NAmes,"1522 MAXWELL AVE, AMES, USA",42.037273779743664,-93.60675880919582,MAXWELL_AVE,NAmes_MAXWELL_AVE
916386010,220000,Timber,"3005 CEDAR LN, AMES, USA",41.99523381632653,-93.64923497959184,CEDAR_LN,Timber_CEDAR_LN
907181090,196000,CollgCr,"5408 CERVANTES DR, AMES, USA",42.017335540535086,-93.69270120197211,CERVANTES_DR,CollgCr_CERVANTES_DR
902206020,61500,OldTown,"118 E 11TH ST, AMES, USA",42.03195016326531,-93.61018020408164,E_11TH_ST,OldTown_E_11TH_ST
902206020,61500,OldTown,"118 E 11TH ST, AMES, USA",42.03195016326531,-93.61018020408164,E_11TH_ST,OldTown_E_11TH_ST
527327050,195000,NWAmes,"3323 BUCHANAN CT, AMES, USA",42.05450581967213,-93.6315601147541,BUCHANAN_CT,NWAmes_BUCHANAN_CT
527455250,129250,NAmes,"1115 28TH ST, AMES, USA",42.048851159119046,-93.6253976305988,28TH_ST,NAmes_28TH_ST
527455250,129250,NAmes,"1115 28TH ST, AMES, USA",42.048851159119046,-93.6253976305988,28TH_ST,NAmes_28TH_ST
528326110,291000,NoRidge,"3013 ALMOND RD, AMES, USA",42.05578479212245,-93.65110150218392,ALMOND_RD,NoRidge_ALMOND_RD
914452190,134000,Mitchel,"302 OPAL CIR, AMES, USA",41.99419902380953,-93.60742948809524,OPAL_CIR,Mitchel_OPAL_CIR
914452190,134000,Mitchel,"302 OPAL CIR, AMES, USA",41.99419902380953,-93.60742948809524,OPAL_CIR,Mitchel_OPAL_CIR
535425060,186000,NAmes,"1903 MEADOWLANE AVE, AMES, USA",42.04129604081633,-93.6052156734694,MEADOWLANE_AVE,NAmes_MEADOWLANE_AVE
532376250,133500,Sawyer,"4015 TORONTO ST, AMES, USA",42.035861571428576,-93.672579,TORONTO_ST,Sawyer_TORONTO_ST
532376250,133500,Sawyer,"4015 TORONTO ST, AMES, USA",42.035861571428576,-93.672579,TORONTO_ST,Sawyer_TORONTO_ST
535379110,148000,OldTown,"1412 KELLOGG AVE, AMES, USA",42.03594679591837,-93.6138648979592,KELLOGG_AVE,OldTown_KELLOGG_AVE
528118010,325300,NridgHt,"3335 PRESTON CIR, AMES, USA",42.06042873469387,-93.65768375510204,PRESTON_CIR,NridgHt_PRESTON_CIR
528235160,215000,Gilbert,"3908 WELBECK DR, AMES, USA",42.05971268357939,-93.64377151492386,WELBECK_DR,Gilbert_WELBECK_DR
905478030,131000,Edwards,"3218 WEST ST, AMES, USA",42.02486103224607,-93.66069363575488,WEST_ST,Edwards_WEST_ST
902106130,109500,OldTown,"1010 GRAND AVE, AMES, USA",42.03146246938776,-93.6202082244898,GRAND_AVE,OldTown_GRAND_AVE
902102080,110000,OldTown,"1203 BURNETT AVE, AMES, USA",42.03339248979592,-93.61561781632652,BURNETT_AVE,OldTown_BURNETT_AVE
909176170,150000,SWISU,"426 HAYWARD AVE 428, AMES, USA",42.01869102040816,-93.65162163265306,HAYWARD_AVE,SWISU_HAYWARD_AVE
533206070,193800,Somerst,"2807 BRISTOL DR, AMES, USA",42.04744045286655,-93.64761628687974,BRISTOL_DR,Somerst_BRISTOL_DR
527302020,178000,NWAmes,"3414 EISENHOWER AVE, AMES, USA",42.05547019086042,-93.63783989426828,EISENHOWER_AVE,NWAmes_EISENHOWER_AVE
907414060,179600,CollgCr,"4824 WALLER ST, AMES, USA",42.01355127272727,-93.68477896969698,WALLER_ST,CollgCr_WALLER_ST
904301060,179000,Edwards,"3012 OAKLAND ST 3014, AMES, USA",42.02811888524044,-93.6587373332222,OAKLAND_ST,Edwards_OAKLAND_ST
532479020,140000,Sawyer,"1306 SCOTT CIR, AMES, USA",42.034612217391306,-93.660487,SCOTT_CIR,Sawyer_SCOTT_CIR
528110070,395000,NridgHt,"3207 STOCKBURY ST, AMES, USA",42.06226109103388,-93.65618536506652,STOCKBURY_ST,NridgHt_STOCKBURY_ST
534429130,151500,NAmes,"808 NARLAND DR, AMES, USA",42.04013450915821,-93.62208412387304,NARLAND_DR,NAmes_NARLAND_DR
528365060,341000,NoRidge,"2900 RIDGETOP RD, AMES, USA",42.049582,-93.655958,RIDGETOP_RD,NoRidge_RIDGETOP_RD
533135020,235000,NoRidge,"2614 SOUTHRIDGE CIR, AMES, USA",42.04729657142857,-93.65029642857142,SOUTHRIDGE_CIR,NoRidge_SOUTHRIDGE_CIR
910203100,72000,IDOTRR,"301 S RUSSELL AVE, AMES, USA",42.020318,-93.628408,S_RUSSELL_AVE,IDOTRR_S_RUSSELL_AVE
905451390,154000,Edwards,"310 WESTWOOD DR, AMES, USA",42.0245466193626,-93.66738084341767,WESTWOOD_DR,Edwards_WESTWOOD_DR
533213010,222000,Somerst,"2805 BRISTOL DR, AMES, USA",42.04742736392327,-93.6475996487335,BRISTOL_DR,Somerst_BRISTOL_DR
528118030,390000,NridgHt,"3317 PRESTON CIR, AMES, USA",42.06042781632653,-93.6575430612245,PRESTON_CIR,NridgHt_PRESTON_CIR
907200340,128200,CollgCr,"5203 SCHUBERT ST, AMES, USA",42.021390115667074,-93.68792039017748,SCHUBERT_ST,CollgCr_SCHUBERT_ST
528164060,615000,NridgHt,"3320 FOXLEY DR, AMES, USA",42.05847504704884,-93.65680995634683,FOXLEY_DR,NridgHt_FOXLEY_DR
907202010,158000,CollgCr,"410 THACKERAY AVE, AMES, USA",42.01967954096487,-93.68657648378274,THACKERAY_AVE,CollgCr_THACKERAY_AVE
528186180,254000,NridgHt,"3623 CHILTON AVE, AMES, USA",42.056956,-93.6514172,CHILTON_AVE,NridgHt_CHILTON_AVE
909250060,169000,SWISU,"2320 KNAPP ST, AMES, USA",42.019084346938776,-93.64689269387756,KNAPP_ST,SWISU_KNAPP_ST
528315060,284500,NoRidge,"3142 BAYBERRY RD, AMES, USA",42.05392142671923,-93.65478466554772,BAYBERRY_RD,NoRidge_BAYBERRY_RD
528231020,184500,Gilbert,"3917 WELBECK DR, AMES, USA",42.06011711190303,-93.64407676418914,WELBECK_DR,Gilbert_WELBECK_DR
528456230,210400,Somerst,"2841 ASPEN RD, AMES, USA",42.05118981781087,-93.64722440955204,ASPEN_RD,Somerst_ASPEN_RD
907180120,214000,CollgCr,"5325 CERVANTES DR, AMES, USA",42.01751131982996,-93.69065122622848,CERVANTES_DR,CollgCr_CERVANTES_DR
911370410,392500,Crawfor,"433 ASPEN RIDGE RD, AMES, USA",42.00941067078177,-93.6155758230605,ASPEN_RIDGE_RD,Crawfor_ASPEN_RIDGE_RD
527108090,274725,Gilbert,"4316 HARRISON CIR, AMES, USA",42.062991697905794,-93.63605879162316,HARRISON_CIR,Gilbert_HARRISON_CIR
528222050,156932,Gilbert,"4210 WELBECK DR, AMES, USA",42.0622131258519,-93.64426567751812,WELBECK_DR,Gilbert_WELBECK_DR
528429110,282922,Somerst,"2416 DALTON CIR, AMES, USA",42.0539704,-93.6418268,DALTON_CIR,Somerst_DALTON_CIR
902328100,144000,OldTown,"704 BURNETT AVE, AMES, USA",42.02806730612245,-93.61530573469388,BURNETT_AVE,OldTown_BURNETT_AVE
527451410,88000,BrDale,"1314 BARKLEY CT, AMES, USA",42.05168394906352,-93.62743413389023,BARKLEY_CT,BrDale_BARKLEY_CT
914476130,148000,Mitchel,"3007 DIAMOND ST, AMES, USA",41.9957645,-93.601227,DIAMOND_ST,Mitchel_DIAMOND_ST
535453020,159000,NAmes,"1523 GLENDALE AVE, AMES, USA",42.03713342424243,-93.60600708080808,GLENDALE_AVE,NAmes_GLENDALE_AVE
535379100,120000,OldTown,"1408 KELLOGG AVE, AMES, USA",42.035903530612245,-93.61386526530612,KELLOGG_AVE,OldTown_KELLOGG_AVE
905108190,134900,Sawyer,"934 MESA VERDE PL, AMES, USA",42.03087976925107,-93.67154223074894,MESA_VERDE_PL,Sawyer_MESA_VERDE_PL
905201110,185000,Sawyer,"1124 SCHOLL RD, AMES, USA",42.032558897959184,-93.6653221632653,SCHOLL_RD,Sawyer_SCHOLL_RD
903227090,132500,BrkSide,"1206 MARSTON AVE, AMES, USA",42.03345546938776,-93.62348414285714,MARSTON_AVE,BrkSide_MARSTON_AVE
905107300,160500,Sawyer,"3902 ARKANSAS DR, AMES, USA",42.03134108089813,-93.6728131863958,ARKANSAS_DR,Sawyer_ARKANSAS_DR
903401070,165000,BrkSide,"611 RIDGEWOOD AVE, AMES, USA",42.02701343509556,-93.62547046323006,RIDGEWOOD_AVE,BrkSide_RIDGEWOOD_AVE
903230100,100000,BrkSide,"1015 CURTISS AVE, AMES, USA",42.03150042455403,-93.62472727699644,CURTISS_AVE,BrkSide_CURTISS_AVE
527105010,189900,Gilbert,"4025 BERKSHIRE AVE, AMES, USA",42.06086624608271,-93.6389765770365,BERKSHIRE_AVE,Gilbert_BERKSHIRE_AVE
528480020,227875,Somerst,"2616 KINGSTON DR, AMES, USA",42.052132986853664,-93.64365631551216,KINGSTON_DR,Somerst_KINGSTON_DR
527402130,111900,NAmes,"1217 JEFFERSON ST, AMES, USA",42.05536916392078,-93.6266190612291,JEFFERSON_ST,NAmes_JEFFERSON_ST
909251080,145000,Crawfor,"507 LYNN AVE, AMES, USA",42.01780281632653,-93.64647512244898,LYNN_AVE,Crawfor_LYNN_AVE
908201120,118000,Edwards,"3411 TRIPP ST 3413, AMES, USA",42.020221,-93.664918,TRIPP_ST,Edwards_TRIPP_ST
533221080,166000,Somerst,"2713 HAMPTON ST, AMES, USA",42.04615068202805,-93.64578297226852,HAMPTON_ST,Somerst_HAMPTON_ST
535178100,148000,NAmes,"2004 BURNETT AVE, AMES, USA",42.04222355411135,-93.61584551930623,BURNETT_AVE,NAmes_BURNETT_AVE
535457050,99000,NAmes,"1302 MAXWELL AVE, AMES, USA",42.03468289795919,-93.60670769387757,MAXWELL_AVE,NAmes_MAXWELL_AVE
923226270,86000,MeadowV,"615 MEADOW PL, AMES, USA",41.992332618748165,-93.60312324722656,MEADOW_PL,MeadowV_MEADOW_PL
535105090,165000,NAmes,"2527 KELLOGG AVE, AMES, USA",42.046992315952615,-93.61572734636202,KELLOGG_AVE,NAmes_KELLOGG_AVE
533253070,211500,Greens,"2024 PINEHURST DR, AMES, USA",42.04299352441229,-93.64930425966442,PINEHURST_DR,Greens_PINEHURST_DR
907280170,210000,CollgCr,"4619 CLEMENS BLVD, AMES, USA",42.018014,-93.6813538557042,CLEMENS_BLVD,CollgCr_CLEMENS_BLVD
914476450,228500,Mitchel,"703 ONYX ST, AMES, USA",41.996073,-93.602595,ONYX_ST,Mitchel_ONYX_ST
535327200,132000,NAmes,"1624 DOUGLAS AVE, AMES, USA",42.038608571428576,-93.61221769387755,DOUGLAS_AVE,NAmes_DOUGLAS_AVE
528441090,468000,Somerst,"2426 YORKSHIRE CIR, AMES, USA",42.05310115636974,-93.64139716702556,YORKSHIRE_CIR,Somerst_YORKSHIRE_CIR
906426195,240000,ClearCr,"601 CHELSEA CT, AMES, USA",42.027877,-93.67912,CHELSEA_CT,ClearCr_CHELSEA_CT
534275170,151500,NAmes,"2009 ROOSEVELT CIR, AMES, USA",42.04216255555556,-93.62367055555556,ROOSEVELT_CIR,NAmes_ROOSEVELT_CIR
923226180,73000,MeadowV,"633 MEADOW PL, AMES, USA",41.99253552569278,-93.60262134872586,MEADOW_PL,MeadowV_MEADOW_PL
923226320,75500,MeadowV,"605 MEADOW PL, AMES, USA",41.992212332620966,-93.60339916510804,MEADOW_PL,MeadowV_MEADOW_PL
528118050,500067,NridgHt,"3305 PRESTON CIR, AMES, USA",42.06042720408163,-93.65744926530613,PRESTON_CIR,NridgHt_PRESTON_CIR
904300150,107500,ClearCr,"3021 OAKLAND ST, AMES, USA",42.02828955914435,-93.65878627384562,OAKLAND_ST,ClearCr_OAKLAND_ST
533236050,172500,Somerst,"2510 BRISTOL DR, AMES, USA",42.04715891357376,-93.64181224655658,BRISTOL_DR,Somerst_BRISTOL_DR
527354160,185000,NWAmes,"2009 STEVENSON DR, AMES, USA",42.0525554028463,-93.6355961810786,STEVENSON_DR,NWAmes_STEVENSON_DR
528435040,311872,Somerst,"2604 DALTON ST, AMES, USA",42.054149095181536,-93.64371993188,DALTON_ST,Somerst_DALTON_ST
534129230,165150,NWAmes,"2705 HOOVER AVE, AMES, USA",42.04817947474747,-93.630294,HOOVER_AVE,NWAmes_HOOVER_AVE
535325350,125000,NAmes,"225 16TH ST, AMES, USA",42.038378,-93.61280176470588,16TH_ST,NAmes_16TH_ST
902408080,159500,OldTown,"508 CARROLL AVE, AMES, USA",42.02619203943843,-93.60864389206752,CARROLL_AVE,OldTown_CARROLL_AVE
916455050,180500,Timber,"2829 WHITE OAK DR, AMES, USA",41.99703640663635,-93.64683644623204,WHITE_OAK_DR,Timber_WHITE_OAK_DR
909276200,160000,Crawfor,"418 PEARSON AVE, AMES, USA",42.01867749991436,-93.64234020531468,PEARSON_AVE,Crawfor_PEARSON_AVE
534277060,109008,NAmes,"2125 FURMAN DR, AMES, USA",42.044865,-93.621618,FURMAN_DR,NAmes_FURMAN_DR
905107280,153000,Sawyer,"3914 ARKANSAS DR, AMES, USA",42.03134156628693,-93.67289230477073,ARKANSAS_DR,Sawyer_ARKANSAS_DR
923204050,132250,Mitchel,"3309 SOUTHDALE DR, AMES, USA",41.99297998782015,-93.6055428854154,SOUTHDALE_DR,Mitchel_SOUTHDALE_DR
531376050,184900,SawyerW,"1508 CALIFORNIA AVE, AMES, USA",42.03713731403104,-93.69121340618791,CALIFORNIA_AVE,SawyerW_CALIFORNIA_AVE
903454010,127000,IDOTRR,"1218 N 3RD ST, AMES, USA",42.02510548979591,-93.62720573469387,N_3RD_ST,IDOTRR_N_3RD_ST
906412010,475000,CollgCr,"532 WESTFIELD RD, AMES, USA",42.02721361270797,-93.68678307886384,WESTFIELD_RD,CollgCr_WESTFIELD_RD
535301060,142000,NAmes,"1907 CLARK AVE, AMES, USA",42.041233315036166,-93.61727799531305,CLARK_AVE,NAmes_CLARK_AVE
534453080,112000,BrkSide,"1430 RIDGEWOOD AVE, AMES, USA",42.03602586446804,-93.62847008877344,RIDGEWOOD_AVE,BrkSide_RIDGEWOOD_AVE
911102180,80900,IDOTRR,"202 S WALNUT AVE, AMES, USA",42.02147665741722,-93.6168112727172,S_WALNUT_AVE,IDOTRR_S_WALNUT_AVE
535403210,135000,NAmes,"1604 CARROLL AVE, AMES, USA",42.039218,-93.609681,CARROLL_AVE,NAmes_CARROLL_AVE
531382120,193500,SawyerW,"5214 MARYLAND ST, AMES, USA",42.03586988976251,-93.68915891193907,MARYLAND_ST,SawyerW_MARYLAND_ST
916455120,232500,Timber,"2311 SUNCREST DR, AMES, USA",41.99551603030303,-93.6469074949495,SUNCREST_DR,Timber_SUNCREST_DR
905475510,114000,Edwards,"310 COLORADO CIR, AMES, USA",42.02508273469388,-93.6633366122449,COLORADO_CIR,Edwards_COLORADO_CIR
916326090,257000,Timber,"2320 TIMBERLAND RD, AMES, USA",42.00072925266047,-93.64966625676163,TIMBERLAND_RD,Timber_TIMBERLAND_RD
909101140,117000,Edwards,"2812 WOOD ST, AMES, USA",42.022083404893664,-93.65586234297449,WOOD_ST,Edwards_WOOD_ST
907260050,213000,CollgCr,"5110 CLEMENS BLVD, AMES, USA",42.016945472759005,-93.68795145142214,CLEMENS_BLVD,CollgCr_CLEMENS_BLVD
907131090,212000,CollgCr,"5300 NORRIS ST, AMES, USA",42.020881,-93.690581,NORRIS_ST,CollgCr_NORRIS_ST
903206160,202500,BrkSide,"910 BROOKRIDGE AVE, AMES, USA",42.0307129108596,-93.6273229732436,BROOKRIDGE_AVE,BrkSide_BROOKRIDGE_AVE
528222020,185101,Gilbert,"4116 WELBECK DR, AMES, USA",42.06165534795861,-93.64400952242131,WELBECK_DR,Gilbert_WELBECK_DR
526352090,167000,NAmes,"3010 KELLOGG AVE, AMES, USA",42.05145469964584,-93.61846427481623,KELLOGG_AVE,NAmes_KELLOGG_AVE
534201280,138500,NAmes,"1237 24TH ST, AMES, USA",42.04574050623812,-93.62654775999262,24TH_ST,NAmes_24TH_ST
908102330,102000,Edwards,"301 ABRAHAM DR, AMES, USA",42.020343414141415,-93.67639185858586,ABRAHAM_DR,Edwards_ABRAHAM_DR
906385010,198900,CollgCr,"5505 DURANT ST, AMES, USA",42.02461337755501,-93.69205532625902,DURANT_ST,CollgCr_DURANT_ST
534276230,145000,NAmes,"2002 MELROSE AVE, AMES, USA",42.04224059534753,-93.62228029253552,MELROSE_AVE,NAmes_MELROSE_AVE
906420020,220000,SawyerW,"923 VERMONT CIR, AMES, USA",42.0297174048556,-93.68220220455852,VERMONT_CIR,SawyerW_VERMONT_CIR
527404120,126000,NAmes,"3203 GARNER AVE, AMES, USA",42.053514279505634,-93.62714799845187,GARNER_AVE,NAmes_GARNER_AVE
907192010,200000,CollgCr,"5301 CLEMENS BLVD, AMES, USA",42.016892,-93.689424,CLEMENS_BLVD,CollgCr_CLEMENS_BLVD
527131030,278000,StoneBr,"4239 STONE BROOKE RD, AMES, USA",42.06221430156738,-93.63419894544032,STONE_BROOKE_RD,StoneBr_STONE_BROOKE_RD
527452290,145000,NAmes,"1401 JOHNSON ST, AMES, USA",42.04895500520409,-93.62913307832436,JOHNSON_ST,NAmes_JOHNSON_ST
907250030,318000,CollgCr,"509 SMILEY AVE, AMES, USA",42.01855820993013,-93.68789159060452,SMILEY_AVE,CollgCr_SMILEY_AVE
909251040,146500,Crawfor,"2322 BAKER ST, AMES, USA",42.01788108163265,-93.6469343265306,BAKER_ST,Crawfor_BAKER_ST
535377100,86900,OldTown,"1502 DOUGLAS AVE, AMES, USA",42.037159122448976,-93.61220516326532,DOUGLAS_AVE,OldTown_DOUGLAS_AVE
528174050,213000,NridgHt,"2910 HARRISON RD, AMES, USA",42.05923777869763,-93.64939269814306,HARRISON_RD,NridgHt_HARRISON_RD
533128090,262000,NoRidge,"2700 NORTHRIDGE CIR, AMES, USA",42.047999,-93.650289,NORTHRIDGE_CIR,NoRidge_NORTHRIDGE_CIR
533250110,217500,Veenker,"2869 GREENSBORO CIR, AMES, USA",42.04482523153892,-93.64810611298782,GREENSBORO_CIR,Veenker_GREENSBORO_CIR
908186040,148000,Edwards,"3905 MARIGOLD DR, AMES, USA",42.01896239856682,-93.6701125847686,MARIGOLD_DR,Edwards_MARIGOLD_DR
903231050,113000,BrkSide,"1113 MARSTON AVE, AMES, USA",42.0323832020202,-93.6236834040404,MARSTON_AVE,BrkSide_MARSTON_AVE
908152110,160500,Edwards,"414 WELLONS DR, AMES, USA",42.01879497674418,-93.67513790697674,WELLONS_DR,Edwards_WELLONS_DR
535476110,145000,NAmes,"1603 MEADOWLANE AVE 1605, AMES, USA",42.03797473457034,-93.6039140588975,MEADOWLANE_AVE,NAmes_MEADOWLANE_AVE
533250050,245500,Veenker,"2845 GREENSBORO CIR, AMES, USA",42.04474817188798,-93.64791854964815,GREENSBORO_CIR,Veenker_GREENSBORO_CIR
535325340,133500,NAmes,"221 16TH ST, AMES, USA",42.038378,-93.61274980392156,16TH_ST,NAmes_16TH_ST
909475050,198000,Crawfor,"2152 ASHMORE DR, AMES, USA",42.01119537789834,-93.64359939425104,ASHMORE_DR,Crawfor_ASHMORE_DR
907196020,205000,CollgCr,"5216 CLEMENS BLVD, AMES, USA",42.016904971498526,-93.68856952271436,CLEMENS_BLVD,CollgCr_CLEMENS_BLVD
533130160,285000,NoRidge,"2424 RIDGETOP CIR, AMES, USA",42.04577395463849,-93.65232379747752,RIDGETOP_CIR,NoRidge_RIDGETOP_CIR
535102010,175000,NAmes,"2729 NORTHWOOD DR, AMES, USA",42.04888004672891,-93.61700179201884,NORTHWOOD_DR,NAmes_NORTHWOOD_DR
531475220,160000,SawyerW,"1404 IDAHO AVE, AMES, USA",42.035663809096576,-93.683921687578,IDAHO_AVE,SawyerW_IDAHO_AVE
527325070,272000,NWAmes,"1904 BUCHANAN DR, AMES, USA",42.0545474,-93.63530666666668,BUCHANAN_DR,NWAmes_BUCHANAN_DR
911175440,115000,IDOTRR,"315 S 4TH ST, AMES, USA",42.019100407352354,-93.61476988525514,S_4TH_ST,IDOTRR_S_4TH_ST
903226160,134000,BrkSide,"1222 CURTISS AVE, AMES, USA",42.03363191836735,-93.6245344897959,CURTISS_AVE,BrkSide_CURTISS_AVE
902134100,78000,OldTown,"321 9TH ST, AMES, USA",42.03025391265237,-93.61426001934532,9TH_ST,OldTown_9TH_ST
902111010,111500,OldTown,"412 10TH ST, AMES, USA",42.03119248315056,-93.61581118310563,10TH_ST,OldTown_10TH_ST
535381040,142900,OldTown,"1311 KELLOGG AVE, AMES, USA",42.03476542857143,-93.61408520408165,KELLOGG_AVE,OldTown_KELLOGG_AVE
910202060,125500,IDOTRR,"109 S MAPLE AVE, AMES, USA",42.0226691058526,-93.62532593181548,S_MAPLE_AVE,IDOTRR_S_MAPLE_AVE
535477180,125500,NAmes,"1308 MEADOWLANE AVE, AMES, USA",42.03487444444444,-93.60366755555556,MEADOWLANE_AVE,NAmes_MEADOWLANE_AVE
528429120,423000,Somerst,"2422 DALTON CIR, AMES, USA",42.0539988,-93.6415333,DALTON_CIR,Somerst_DALTON_CIR
908127050,119900,Edwards,"211 DOTSON DR, AMES, USA",42.0210151632653,-93.67148908163266,DOTSON_DR,Edwards_DOTSON_DR
528439010,247000,Somerst,"2625 YORKSHIRE ST, AMES, USA",42.05319034438527,-93.64376476899724,YORKSHIRE_ST,Somerst_YORKSHIRE_ST
906223110,226500,SawyerW,"1018 VERMONT CT, AMES, USA",42.03093013690148,-93.68199716308956,VERMONT_CT,SawyerW_VERMONT_CT
528358010,260400,NoRidge,"3127 ASPEN RD, AMES, USA",42.05171935144844,-93.65428032490836,ASPEN_RD,NoRidge_ASPEN_RD
532378160,135000,Sawyer,"3815 ONTARIO ST, AMES, USA",42.03458848484848,-93.66994189898988,ONTARIO_ST,Sawyer_ONTARIO_ST
531450040,175900,SawyerW,"1309 KENTUCKY AVE, AMES, USA",42.03471223334514,-93.687856790651,KENTUCKY_AVE,SawyerW_KENTUCKY_AVE
527326040,82500,NWAmes,"3412 TAFT AVE, AMES, USA",42.05512945519149,-93.63508069267212,TAFT_AVE,NWAmes_TAFT_AVE
903204095,79500,BrkSide,"1209 NORTHWESTERN AVE, AMES, USA",42.03348381632653,-93.6257706734694,NORTHWESTERN_AVE,BrkSide_NORTHWESTERN_AVE
527182170,207500,StoneBr,"3908 STONE BROOKE CIR, AMES, USA",42.059300612982,-93.63312900362668,STONE_BROOKE_CIR,StoneBr_STONE_BROOKE_CIR
905105040,115000,Sawyer,"1001 ARIZONA AVE, AMES, USA",42.03108467910268,-93.67588045842474,ARIZONA_AVE,Sawyer_ARIZONA_AVE
528477020,249700,Somerst,"2617 KINGSTON DR, AMES, USA",42.05230299257608,-93.64365697352228,KINGSTON_DR,Somerst_KINGSTON_DR
905202210,164000,ClearCr,"3616 ROSS RD, AMES, USA",42.03214923147222,-93.66717891980689,ROSS_RD,ClearCr_ROSS_RD
903425190,220000,OldTown,"609 NORTHWESTERN AVE, AMES, USA",42.02695466155664,-93.62286472313644,NORTHWESTERN_AVE,OldTown_NORTHWESTERN_AVE
535150210,135000,NAmes,"2013 CLARK AVE, AMES, USA",42.04218612244898,-93.61728436734694,CLARK_AVE,NAmes_CLARK_AVE
535453160,133700,NAmes,"1426 MAXWELL AVE, AMES, USA",42.036146841115006,-93.6067183929868,MAXWELL_AVE,NAmes_MAXWELL_AVE
535353130,112500,OldTown,"625 13TH ST, AMES, USA",42.03456289103087,-93.61907956662776,13TH_ST,OldTown_13TH_ST
535456070,150000,NAmes,"1308 STAFFORD AVE, AMES, USA",42.03473895918367,-93.6077650612245,STAFFORD_AVE,NAmes_STAFFORD_AVE
908250090,99000,Edwards,"3505 COY ST, AMES, USA",42.01805245,-93.66655328915088,COY_ST,Edwards_COY_ST
527452070,146300,NPkVill,"2951 NORTHWESTERN AVE, AMES, USA",42.050471,-93.627279,NORTHWESTERN_AVE,NPkVill_NORTHWESTERN_AVE
902325100,155000,OldTown,"802 BURNETT AVE, AMES, USA",42.02906930612245,-93.61532728571429,BURNETT_AVE,OldTown_BURNETT_AVE
921126030,298751,Timber,"3217 RED FOX RD, AMES, USA",41.99298995025634,-93.65327529754713,RED_FOX_RD,Timber_RED_FOX_RD
905401060,256000,ClearCr,"519 OLIVER CIR, AMES, USA",42.02864482351206,-93.66624914356966,OLIVER_CIR,ClearCr_OLIVER_CIR
916402125,176000,Timber,"2513 WHITE OAK DR, AMES, USA",41.99958722865255,-93.64609469150162,WHITE_OAK_DR,Timber_WHITE_OAK_DR
531452010,120000,SawyerW,"1302 INDIANA AVE, AMES, USA",42.03465549651289,-93.68622907491604,INDIANA_AVE,SawyerW_INDIANA_AVE
528363070,321000,NoRidge,"3202 ASPEN RD, AMES, USA",42.051065,-93.655506,ASPEN_RD,NoRidge_ASPEN_RD
533208090,190000,Somerst,"2732 NORTHRIDGE LN, AMES, USA",42.04772986946443,-93.64603878546193,NORTHRIDGE_LN,Somerst_NORTHRIDGE_LN
534401130,174900,NAmes,"1317 COOLIDGE DR, AMES, USA",42.0392109,-93.6294784,COOLIDGE_DR,NAmes_COOLIDGE_DR
910203230,85000,IDOTRR,"304 S RIVERSIDE DR, AMES, USA",42.0208634872324,-93.62945981841196,S_RIVERSIDE_DR,IDOTRR_S_RIVERSIDE_DR
907420090,164990,CollgCr,"922 POE AVE, AMES, USA",42.01452227144189,-93.68374009310392,POE_AVE,CollgCr_POE_AVE
902303100,144100,OldTown,"609 7TH ST, AMES, USA",42.02795584333695,-93.6186268970768,7TH_ST,OldTown_7TH_ST
906392120,294900,CollgCr,"125 HARTFORD DR, AMES, USA",42.02326647986106,-93.68911880614316,HARTFORD_DR,CollgCr_HARTFORD_DR
903484080,50000,IDOTRR,"1003 LINCOLN WAY, AMES, USA",42.02295797959184,-93.62398130612245,LINCOLN_WAY,IDOTRR_LINCOLN_WAY
527301320,260000,NWAmes,"3217 EISENHOWER AVE, AMES, USA",42.05361420021923,-93.63735972351776,EISENHOWER_AVE,NWAmes_EISENHOWER_AVE
527140090,180000,StoneBr,"4029 FLETCHER BLVD, AMES, USA",42.06055687660365,-93.63422767405338,FLETCHER_BLVD,StoneBr_FLETCHER_BLVD
909428170,236500,Crawfor,"2117 GREENBRIAR CIR, AMES, USA",42.01264838383838,-93.64039073737374,GREENBRIAR_CIR,Crawfor_GREENBRIAR_CIR
905228050,63900,Sawyer,"1101 IOWA AVE, AMES, USA",42.032688,-93.659392,IOWA_AVE,Sawyer_IOWA_AVE
533234020,223000,Somerst,"2517 SHERWOOD AVE, AMES, USA",42.04661079961037,-93.64350378515024,SHERWOOD_AVE,Somerst_SHERWOOD_AVE
533212100,151000,Somerst,"2611 STANGE RD, AMES, USA",42.04749027140474,-93.64492734127276,STANGE_RD,Somerst_STANGE_RD
534475185,149500,NAmes,"1306 NORTHWESTERN AVE, AMES, USA",42.03475926805175,-93.62560211863472,NORTHWESTERN_AVE,NAmes_NORTHWESTERN_AVE
905452150,149900,Edwards,"318 CRANE AVE, AMES, USA",42.0258097972012,-93.66607205192382,CRANE_AVE,Edwards_CRANE_AVE
528176010,500000,NridgHt,"3807 BRIDGEPORT DR, AMES, USA",42.05735590330952,-93.65612294798628,BRIDGEPORT_DR,NridgHt_BRIDGEPORT_DR
535450160,92900,NAmes,"1401 CARROLL AVE 1403, AMES, USA",42.039218,-93.609681,CARROLL_AVE,NAmes_CARROLL_AVE
533215040,290000,Somerst,"2505 BRADFORD DR, AMES, USA",42.04657878629308,-93.64688583408538,BRADFORD_DR,Somerst_BRADFORD_DR
528104010,345474,NridgHt,"3131 SEDWICK ST, AMES, USA",42.06314938723892,-93.65417937402002,SEDWICK_ST,NridgHt_SEDWICK_ST
535325090,127000,NAmes,"1719 DOUGLAS AVE, AMES, USA",42.0400426,-93.6124554,DOUGLAS_AVE,NAmes_DOUGLAS_AVE
909250210,102000,SWISU,"424 STANTON AVE, AMES, USA",42.018795670013375,-93.64838541912324,STANTON_AVE,SWISU_STANTON_AVE
527325110,190000,NWAmes,"1802 BUCHANAN DR, AMES, USA",42.055141,-93.633802,BUCHANAN_DR,NWAmes_BUCHANAN_DR
910202030,75200,IDOTRR,"1108 LINCOLN WAY, AMES, USA",42.0227918367347,-93.62548479591835,LINCOLN_WAY,IDOTRR_LINCOLN_WAY
535175180,108538,NAmes,"2304 KELLOGG AVE, AMES, USA",42.04484653880461,-93.61509322351316,KELLOGG_AVE,NAmes_KELLOGG_AVE
534202160,142250,NAmes,"1217 25TH ST, AMES, USA",42.04658077450373,-93.62633287305052,25TH_ST,NAmes_25TH_ST
916403020,180000,Timber,"2722 WHITE OAK CIR, AMES, USA",41.9980307755102,-93.64656387755102,WHITE_OAK_CIR,Timber_WHITE_OAK_CIR
535354100,132000,NAmes,"1323 CLARK AVE, AMES, USA",42.03484223074918,-93.61721855921348,CLARK_AVE,NAmes_CLARK_AVE
905227050,152400,Sawyer,"1202 SCOTT AVE, AMES, USA",42.033383,-93.660485,SCOTT_AVE,Sawyer_SCOTT_AVE
534451020,64000,BrkSide,"1423 RIDGEWOOD AVE, AMES, USA",42.03605240841249,-93.62874606568025,RIDGEWOOD_AVE,BrkSide_RIDGEWOOD_AVE
533120030,302000,NoRidge,"3118 MAPLEWOOD RD, AMES, USA",42.04741032017221,-93.6533032150516,MAPLEWOOD_RD,NoRidge_MAPLEWOOD_RD
905352010,182000,ClearCr,"200 TRAIL RIDGE RD, AMES, USA",42.0238627,-93.6739902,TRAIL_RIDGE_RD,ClearCr_TRAIL_RIDGE_RD
905108220,137000,Sawyer,"1008 MESA VERDE PL, AMES, USA",42.03156251472419,-93.67123417821566,MESA_VERDE_PL,Sawyer_MESA_VERDE_PL
527165170,168000,Gilbert,"3715 COLUMBINE CIR, AMES, USA",42.05741197153812,-93.63599502545436,COLUMBINE_CIR,Gilbert_COLUMBINE_CIR
535353190,97500,NAmes,"1404 GRAND AVE, AMES, USA",42.03586727206577,-93.6203006384482,GRAND_AVE,NAmes_GRAND_AVE
528315070,286000,NoRidge,"3136 BAYBERRY RD, AMES, USA",42.053875936692656,-93.65469929085654,BAYBERRY_RD,NoRidge_BAYBERRY_RD
903232060,115000,BrkSide,"1109 ROOSEVELT AVE, AMES, USA",42.03236318181818,-93.62260554545456,ROOSEVELT_AVE,BrkSide_ROOSEVELT_AVE
906204180,209000,SawyerW,"1124 IDAHO AVE, AMES, USA",42.03261395653461,-93.683206,IDAHO_AVE,SawyerW_IDAHO_AVE
906475110,187500,ClearCr,"215 PARKRIDGE CIR, AMES, USA",42.024522800247645,-93.68225547575491,PARKRIDGE_CIR,ClearCr_PARKRIDGE_CIR
906223040,220000,SawyerW,"1017 FLORIDA AVE, AMES, USA",42.03089965686291,-93.68109655740692,FLORIDA_AVE,SawyerW_FLORIDA_AVE
909253190,91000,SWISU,"612 STANTON AVE, AMES, USA",42.0167937755102,-93.64838363265304,STANTON_AVE,SWISU_STANTON_AVE
923400150,93500,Mitchel,"428 KEN MARIL RD, AMES, USA",41.986502525252526,-93.60612031313131,KEN_MARIL_RD,Mitchel_KEN_MARIL_RD
923226290,79400,MeadowV,"611 MEADOW PL, AMES, USA",41.992285539793606,-93.60323406682328,MEADOW_PL,MeadowV_MEADOW_PL
909282020,259500,Crawfor,"2124 COUNTRY CLUB BLVD, AMES, USA",42.01582647553629,-93.6427680895134,COUNTRY_CLUB_BLVD,Crawfor_COUNTRY_CLUB_BLVD
528110110,417500,NridgHt,"3323 STOCKBURY ST, AMES, USA",42.0622569043589,-93.6574877363118,STOCKBURY_ST,NridgHt_STOCKBURY_ST
534479320,132000,NAmes,"1526 HARDING AVE, AMES, USA",42.03736035134902,-93.62139680717895,HARDING_AVE,NAmes_HARDING_AVE
528150110,342000,NridgHt,"3215 HARRISON RD, AMES, USA",42.05969691592808,-93.6553784014037,HARRISON_RD,NridgHt_HARRISON_RD
906380160,194000,CollgCr,"5321 DURANT ST, AMES, USA",42.024647108395335,-93.6894175696057,DURANT_ST,CollgCr_DURANT_ST
911370460,235000,Crawfor,"415 ASPEN RIDGE RD, AMES, USA",42.00941017586717,-93.61543940059218,ASPEN_RIDGE_RD,Crawfor_ASPEN_RIDGE_RD
535477090,136870,NAmes,"1434 MEADOWLANE AVE, AMES, USA",42.036550780194254,-93.6036697126137,MEADOWLANE_AVE,NAmes_MEADOWLANE_AVE
534478230,147000,NAmes,"1428 ROOSEVELT AVE, AMES, USA",42.03619649733313,-93.62245830908866,ROOSEVELT_AVE,NAmes_ROOSEVELT_AVE
906426060,277000,ClearCr,"4813 DOVER DR, AMES, USA",42.02826236005448,-93.68179635857511,DOVER_DR,ClearCr_DOVER_DR
528235190,201490,Gilbert,"4004 WELBECK DR, AMES, USA",42.06055030637491,-93.64365786824769,WELBECK_DR,Gilbert_WELBECK_DR
923225440,85000,MeadowV,"535 MEADOW CT, AMES, USA",41.99189830612245,-93.60429612244896,MEADOW_CT,MeadowV_MEADOW_CT
923276030,149900,Mitchel,"615 GARDEN RD, AMES, USA",41.98891501194138,-93.60371822707666,GARDEN_RD,Mitchel_GARDEN_RD
909425060,174500,Crawfor,"915 GASKILL DR, AMES, USA",42.0146305299342,-93.64298118780832,GASKILL_DR,Crawfor_GASKILL_DR
902332030,133900,OldTown,"621 DOUGLAS AVE 101, AMES, USA",42.02722873813198,-93.61222826161584,DOUGLAS_AVE,OldTown_DOUGLAS_AVE
528188060,173000,NridgHt,"3716 ASHTON DR, AMES, USA",42.0574435,-93.6501686,ASHTON_DR,NridgHt_ASHTON_DR
527105140,225000,Gilbert,"4012 HYDE AVE, AMES, USA",42.06085597027575,-93.64016214507028,HYDE_AVE,Gilbert_HYDE_AVE
535477150,109500,NAmes,"1402 MEADOWLANE AVE, AMES, USA",42.036222982244986,-93.60366895117828,MEADOWLANE_AVE,NAmes_MEADOWLANE_AVE
535327210,159000,NAmes,"1704 DOUGLAS AVE, AMES, USA",42.03946451020408,-93.61222924489796,DOUGLAS_AVE,NAmes_DOUGLAS_AVE
533213070,179400,Somerst,"2717 BRISTOL DR, AMES, USA",42.04711876691764,-93.64634438338976,BRISTOL_DR,Somerst_BRISTOL_DR
904100100,219000,Sawyer,"1215 HYLAND AVE, AMES, USA",42.03358356636981,-93.65572973167484,HYLAND_AVE,Sawyer_HYLAND_AVE
528188120,175500,NridgHt,"3702 CHILTON AVE, AMES, USA",42.0570917,-93.6508622,CHILTON_AVE,NridgHt_CHILTON_AVE
528480180,261329,Somerst,"2625 CLAYTON DR, AMES, USA",42.05138551893792,-93.64384909097969,CLAYTON_DR,Somerst_CLAYTON_DR
528114040,383000,NridgHt,"3310 WESTON DR, AMES, USA",42.06113041399615,-93.65728995301232,WESTON_DR,NridgHt_WESTON_DR
528235020,179000,Gilbert,"4005 BRICKMAN AVE, AMES, USA",42.06116358191152,-93.64270906146292,BRICKMAN_AVE,Gilbert_BRICKMAN_AVE
908275110,103500,Edwards,"246 S FRANKLIN AVE, AMES, USA",42.0193813,-93.6644765,S_FRANKLIN_AVE,Edwards_S_FRANKLIN_AVE
905103140,164500,Sawyer,"4107 ROSS RD, AMES, USA",42.03229221822774,-93.67466926377168,ROSS_RD,Sawyer_ROSS_RD
902402260,55000,OldTown,"822 CARROLL AVE, AMES, USA",42.039218,-93.609681,CARROLL_AVE,OldTown_CARROLL_AVE
528235200,170000,Gilbert,"4010 WELBECK DR, AMES, USA",42.060604411485215,-93.64364459718288,WELBECK_DR,Gilbert_WELBECK_DR
528181060,209500,NridgHt,"2908 ROXBORO DR, AMES, USA",42.0582276512523,-93.64954088846125,ROXBORO_DR,NridgHt_ROXBORO_DR
923275200,124500,Mitchel,"3827 MINNETONKA AVE, AMES, USA",41.988232259809486,-93.60435779961487,MINNETONKA_AVE,Mitchel_MINNETONKA_AVE
903451110,139400,IDOTRR,"318 N RUSSELL AVE, AMES, USA",42.02550732377964,-93.62826987704072,N_RUSSELL_AVE,IDOTRR_N_RUSSELL_AVE
528181040,202665,NridgHt,"2914 ROXBORO DR, AMES, USA",42.05821100049504,-93.64963653495818,ROXBORO_DR,NridgHt_ROXBORO_DR
908102110,155891,Edwards,"4404 TODD DR, AMES, USA",42.02116183673469,-93.6776827755102,TODD_DR,Edwards_TODD_DR
533217050,160000,Somerst,"2710 BRISTOL DR, AMES, USA",42.04694863364057,-93.64577722964748,BRISTOL_DR,Somerst_BRISTOL_DR
533350090,150000,Veenker,"1712 AMHERST DR, AMES, USA",42.03744755908851,-93.6575664153229,AMHERST_DR,Veenker_AMHERST_DR
528445070,221300,Somerst,"2518 YORKSHIRE ST, AMES, USA",42.0530506292041,-93.64243274242688,YORKSHIRE_ST,Somerst_YORKSHIRE_ST
527212040,361919,StoneBr,"4020 EDGEWATER DR, AMES, USA",42.06057809473684,-93.62884491578949,EDGEWATER_DR,StoneBr_EDGEWATER_DR
907200270,134900,CollgCr,"112 SANDBURG CT, AMES, USA",42.02221155838693,-93.687930042606,SANDBURG_CT,CollgCr_SANDBURG_CT
908201040,118000,Edwards,"117 S FRANKLIN AVE 119, AMES, USA",42.022373232949136,-93.66488768470606,S_FRANKLIN_AVE,Edwards_S_FRANKLIN_AVE
907410100,195800,CollgCr,"809 POE AVE, AMES, USA",42.0146232814465,-93.68394391958672,POE_AVE,CollgCr_POE_AVE
903481120,135000,IDOTRR,"1027 N 2ND ST, AMES, USA",42.024135294184624,-93.62415224239898,N_2ND_ST,IDOTRR_N_2ND_ST
535453180,152000,NAmes,"1506 MAXWELL AVE, AMES, USA",42.03708595663889,-93.606752073161,MAXWELL_AVE,NAmes_MAXWELL_AVE
907227110,133900,CollgCr,"212 ROCKWELL AVE, AMES, USA",42.021695122448975,-93.68313389795918,ROCKWELL_AVE,CollgCr_ROCKWELL_AVE
531453010,152000,SawyerW,"1304 ILLINOIS AVE, AMES, USA",42.034671747183744,-93.6849951387715,ILLINOIS_AVE,SawyerW_ILLINOIS_AVE
531478010,107000,SawyerW,"4712 TORONTO ST, AMES, USA",42.03577746938775,-93.68175228571428,TORONTO_ST,SawyerW_TORONTO_ST
535403200,120000,NAmes,"211 E 16TH ST, AMES, USA",42.03834740816327,-93.60874928571428,E_16TH_ST,NAmes_E_16TH_ST
527254020,372500,StoneBr,"1214 ADAMS ST, AMES, USA",42.05985571428571,-93.62815914285714,ADAMS_ST,StoneBr_ADAMS_ST
527366030,220000,Somerst,"2818 SOMERSET DR, AMES, USA",42.05005399823367,-93.63933355890704,SOMERSET_DR,Somerst_SOMERSET_DR
535325460,167000,NAmes,"1704 BURNETT AVE, AMES, USA",42.0456477,-93.6165081,BURNETT_AVE,NAmes_BURNETT_AVE
528110040,479069,NridgHt,"3308 SEDWICK ST, AMES, USA",42.0630493,-93.6559183,SEDWICK_ST,NridgHt_SEDWICK_ST
906392090,233555,CollgCr,"215 HARTFORD DR, AMES, USA",42.02387559248089,-93.68912167103052,HARTFORD_DR,CollgCr_HARTFORD_DR
535452140,118900,NAmes,"1402 STAFFORD AVE, AMES, USA",42.03584051515152,-93.60777784848484,STAFFORD_AVE,NAmes_STAFFORD_AVE
535151160,140000,NAmes,"2204 BARR DR, AMES, USA",42.0430122,-93.6197207,BARR_DR,NAmes_BARR_DR
535456050,130000,NAmes,"313 E 13TH ST 315, AMES, USA",42.03461982419273,-93.60761720639056,E_13TH_ST,NAmes_E_13TH_ST
903429110,179900,OldTown,"716 HODGE AVE, AMES, USA",42.02807554568359,-93.62147152372344,HODGE_AVE,OldTown_HODGE_AVE
903429110,179900,OldTown,"716 HODGE AVE, AMES, USA",42.02807554568359,-93.62147152372344,HODGE_AVE,OldTown_HODGE_AVE
916455150,282000,Timber,"2329 SUNCREST DR, AMES, USA",41.99551248484848,-93.6471045858586,SUNCREST_DR,Timber_SUNCREST_DR
909425180,217500,Crawfor,"1036 ASH AVE, AMES, USA",42.01339983344091,-93.64416302842116,ASH_AVE,Crawfor_ASH_AVE
528175050,212500,NridgHt,"2907 ROXBORO DR, AMES, USA",42.05833398088454,-93.65013950947724,ROXBORO_DR,NridgHt_ROXBORO_DR
910205010,126000,IDOTRR,"1110 S 2ND ST, AMES, USA",42.0215383877551,-93.62551346938776,S_2ND_ST,IDOTRR_S_2ND_ST
533206020,280750,Somerst,"2819 BRISTOL DR, AMES, USA",42.0477401256381,-93.64778782365164,BRISTOL_DR,Somerst_BRISTOL_DR
902427040,87000,OldTown,"418 E 6TH ST, AMES, USA",42.0268162,-93.6047703,E_6TH_ST,OldTown_E_6TH_ST
528427020,244600,Somerst,"3211 CULLEN DR, AMES, USA",42.05442958419464,-93.64415341205856,CULLEN_DR,Somerst_CULLEN_DR
528458070,215200,Somerst,"2816 ASPEN RD, AMES, USA",42.05079679398725,-93.64676290642836,ASPEN_RD,Somerst_ASPEN_RD
903401030,162500,BrkSide,"701 RIDGEWOOD AVE, AMES, USA",42.0279133,-93.62575915436877,RIDGEWOOD_AVE,BrkSide_RIDGEWOOD_AVE
909275040,138000,Crawfor,"311 PEARSON AVE, AMES, USA",42.020092543879066,-93.6433134674271,PEARSON_AVE,Crawfor_PEARSON_AVE
527163130,181316,Gilbert,"3828 EISENHOWER AVE, AMES, USA",42.05871859585295,-93.63789395842964,EISENHOWER_AVE,Gilbert_EISENHOWER_AVE
905200350,148000,Sawyer,"3605 ROSS RD, AMES, USA",42.03231091899866,-93.66686222837316,ROSS_RD,Sawyer_ROSS_RD
528363050,315000,NoRidge,"3212 SUMAC CIR, AMES, USA",42.05062963265306,-93.65620536734694,SUMAC_CIR,NoRidge_SUMAC_CIR
908154205,184750,Edwards,"4302 COCHRANE PKWY, AMES, USA",42.0167158,-93.6767079,COCHRANE_PKWY,Edwards_COCHRANE_PKWY
903233140,132000,BrkSide,"1004 ROOSEVELT AVE, AMES, USA",42.03143963636364,-93.62236668686867,ROOSEVELT_AVE,BrkSide_ROOSEVELT_AVE
905107070,149500,Sawyer,"3910 ROSS RD, AMES, USA",42.03220831608917,-93.67253772940806,ROSS_RD,Sawyer_ROSS_RD
528240020,183500,Gilbert,"4011 WESTLAWN DR, AMES, USA",42.06117828569519,-93.641526,WESTLAWN_DR,Gilbert_WESTLAWN_DR
906225180,224500,SawyerW,"1005 DELAWARE AVE 1007, AMES, USA",42.03150314601391,-93.67996952877064,DELAWARE_AVE,SawyerW_DELAWARE_AVE
528114010,415000,NridgHt,"3334 WESTON DR, AMES, USA",42.061122147279214,-93.65757749527188,WESTON_DR,NridgHt_WESTON_DR
907126030,155000,CollgCr,"5416 NORRIS ST, AMES, USA",42.02116749369187,-93.69218022846148,NORRIS_ST,CollgCr_NORRIS_ST
904100160,135000,Sawyer,"2913 ROSS RD, AMES, USA",42.033505289394334,-93.65783559113645,ROSS_RD,Sawyer_ROSS_RD
909254130,164000,Crawfor,"2227 STORM ST, AMES, USA",42.01622585714286,-93.64491606122448,STORM_ST,Crawfor_STORM_ST
535403030,128500,NAmes,"114 E O NEIL DR, AMES, USA",42.04013980676682,-93.61038558320044,E_O_NEIL_DR,NAmes_E_O_NEIL_DR
907412010,196500,CollgCr,"4919 WALLER ST, AMES, USA",42.01396975757576,-93.68569576767676,WALLER_ST,CollgCr_WALLER_ST
903228080,131000,BrkSide,"807 12TH ST, AMES, USA",42.033347285714285,-93.6216614489796,12TH_ST,BrkSide_12TH_ST
531452100,151000,SawyerW,"1420 INDIANA AVE, AMES, USA",42.03562879077359,-93.68623349496264,INDIANA_AVE,SawyerW_INDIANA_AVE
526302030,149900,NAmes,"3115 NORTHWOOD DR, AMES, USA",42.053668,-93.618459,NORTHWOOD_DR,NAmes_NORTHWOOD_DR
902106090,139900,OldTown,"619 10TH ST, AMES, USA",42.03136811566622,-93.61886691410052,10TH_ST,OldTown_10TH_ST
527161090,180000,Gilbert,"3842 HYDE AVE, AMES, USA",42.05897712282691,-93.640518123423,HYDE_AVE,Gilbert_HYDE_AVE
532353120,120750,Sawyer,"1306 WOODSTOCK AVE, AMES, USA",42.03478771651257,-93.67697466213608,WOODSTOCK_AVE,Sawyer_WOODSTOCK_AVE
535453070,154000,NAmes,"1429 GLENDALE AVE, AMES, USA",42.03602821212121,-93.60600470707072,GLENDALE_AVE,NAmes_GLENDALE_AVE
534252110,139900,NAmes,"2115 HUNZIKER DR, AMES, USA",42.04316111859127,-93.62477456483307,HUNZIKER_DR,NAmes_HUNZIKER_DR
535327230,100000,NAmes,"1714 DOUGLAS AVE, AMES, USA",42.039533285714285,-93.61222985714284,DOUGLAS_AVE,NAmes_DOUGLAS_AVE
905425125,240000,ClearCr,"3421 OAKLAND ST, AMES, USA",42.02839073708279,-93.6632647299644,OAKLAND_ST,ClearCr_OAKLAND_ST
908103280,135000,Edwards,"4125 APLIN RD, AMES, USA",42.02000134693878,-93.67378595918368,APLIN_RD,Edwards_APLIN_RD
528221060,174000,Gilbert,"4110 CRESTMOOR AVE, AMES, USA",42.062043813707085,-93.6446016018694,CRESTMOOR_AVE,Gilbert_CRESTMOOR_AVE
921128020,378500,Timber,"2716 COTTONWOOD RD, AMES, USA",41.992886874408,-93.65205791896162,COTTONWOOD_RD,Timber_COTTONWOOD_RD
528174040,207000,NridgHt,"2914 HARRISON RD, AMES, USA",42.05923104269617,-93.64942373186408,HARRISON_RD,NridgHt_HARRISON_RD
909256010,131000,SWISU,"714 STANTON AVE, AMES, USA",42.01599771428572,-93.64837885714286,STANTON_AVE,SWISU_STANTON_AVE
533212060,152000,Somerst,"2621 STANGE RD, AMES, USA",42.047554433193056,-93.644926896477,STANGE_RD,Somerst_STANGE_RD
908204180,61500,Edwards,"3412 TRIPP ST 3414, AMES, USA",42.02005709090909,-93.66493243181816,TRIPP_ST,Edwards_TRIPP_ST
533223100,147110,Somerst,"2412 EATON AVE, AMES, USA",42.04622359385471,-93.64544340848364,EATON_AVE,Somerst_EATON_AVE
909176180,137000,SWISU,"422 HAYWARD AVE, AMES, USA",42.01874163265306,-93.6516226122449,HAYWARD_AVE,SWISU_HAYWARD_AVE
903475040,128500,OldTown,"914 6TH ST, AMES, USA",42.0267141023798,-93.6229707310344,6TH_ST,OldTown_6TH_ST
535426195,207500,NAmes,"1630 CRESTWOOD CIR, AMES, USA",42.039054300535824,-93.60570357400624,CRESTWOOD_CIR,NAmes_CRESTWOOD_CIR
905103040,172500,Sawyer,"3913 ROSS RD, AMES, USA",42.03237701034279,-93.6725511511952,ROSS_RD,Sawyer_ROSS_RD
528110100,380000,NridgHt,"3313 STOCKBURY ST, AMES, USA",42.062257812827184,-93.65737546477388,STOCKBURY_ST,NridgHt_STOCKBURY_ST
534431030,137000,NAmes,"806 MURRAY DR, AMES, USA",42.03919368684427,-93.6217385362576,MURRAY_DR,NAmes_MURRAY_DR
905300010,130000,Sawyer,"4418 PHOENIX ST, AMES, USA",42.02944714893617,-93.67829025531914,PHOENIX_ST,Sawyer_PHOENIX_ST
914474070,215000,Mitchel,"3012 SAPPHIRE CIR, AMES, USA",41.99524126901108,-93.6035056538022,SAPPHIRE_CIR,Mitchel_SAPPHIRE_CIR
534428100,153000,NAmes,"821 NARLAND DR, AMES, USA",42.04030279785764,-93.62214108540458,NARLAND_DR,NAmes_NARLAND_DR
533350050,385000,Veenker,"3110 KINGMAN RD, AMES, USA",42.03728964083625,-93.65819855808628,KINGMAN_RD,Veenker_KINGMAN_RD
908188130,130000,Edwards,"3830 MARIGOLD DR, AMES, USA",42.01879748684436,-93.66928026366276,MARIGOLD_DR,Edwards_MARIGOLD_DR
534453150,127000,BrkSide,"1402 RIDGEWOOD AVE, AMES, USA",42.03574847468436,-93.62824103741372,RIDGEWOOD_AVE,BrkSide_RIDGEWOOD_AVE
528458120,270000,Somerst,"2719 CAMBRIDGE DR, AMES, USA",42.0503128,-93.6481626,CAMBRIDGE_DR,Somerst_CAMBRIDGE_DR
535179050,141000,NAmes,"208 22ND ST, AMES, USA",42.04396232081264,-93.61316938402076,22ND_ST,NAmes_22ND_ST
527302185,235000,NWAmes,"3416 CLINTON CT, AMES, USA",42.055303816598176,-93.6364751856661,CLINTON_CT,NWAmes_CLINTON_CT
534128190,256900,NWAmes,"2531 PIERCE AVE, AMES, USA",42.04649121414232,-93.63312312052932,PIERCE_AVE,NWAmes_PIERCE_AVE
528180110,336860,NridgHt,"3015 BURNHAM DR, AMES, USA",42.05779497875085,-93.65146345283424,BURNHAM_DR,NridgHt_BURNHAM_DR
916176125,375000,Timber,"2227 TIMBERLAND RD, AMES, USA",42.00149914254683,-93.64995508984912,TIMBERLAND_RD,Timber_TIMBERLAND_RD
903454090,141000,IDOTRR,"1211 N 2ND ST, AMES, USA",42.02410653061224,-93.62709063265306,N_2ND_ST,IDOTRR_N_2ND_ST
535457010,160000,NAmes,"1321 GLENDALE AVE, AMES, USA",42.03482142857143,-93.6059824897959,GLENDALE_AVE,NAmes_GLENDALE_AVE
528462040,182000,Somerst,"2806 YORK DR, AMES, USA",42.050214596203936,-93.648351532708,YORK_DR,Somerst_YORK_DR
909428120,217000,Crawfor,"2003 GREENBRIAR CIR, AMES, USA",42.01265586868687,-93.63955761616162,GREENBRIAR_CIR,Crawfor_GREENBRIAR_CIR
916460060,195000,Timber,"2902 WHITE OAK DR, AMES, USA",41.996394780494285,-93.64660354427208,WHITE_OAK_DR,Timber_WHITE_OAK_DR
528431050,255000,Somerst,"2507 DALTON ST, AMES, USA",42.0544825,-93.64259794157329,DALTON_ST,Somerst_DALTON_ST
527110020,168500,Gilbert,"1909 WYNGATE DR, AMES, USA",42.060674292874886,-93.63712424040322,WYNGATE_DR,Gilbert_WYNGATE_DR
535352080,118500,NAmes,"419 15TH ST, AMES, USA",42.037116510204086,-93.61595657142855,15TH_ST,NAmes_15TH_ST
527402250,149900,NAmes,"1115 GARNER CIR, AMES, USA",42.0545832173913,-93.62643386956522,GARNER_CIR,NAmes_GARNER_CIR
535451040,119000,NAmes,"1517 STAFFORD AVE, AMES, USA",42.03718187878788,-93.60799021212122,STAFFORD_AVE,NAmes_STAFFORD_AVE
905452050,113000,Edwards,"329 FRANKLIN AVE, AMES, USA",42.02541185461348,-93.66493873192312,FRANKLIN_AVE,Edwards_FRANKLIN_AVE
903225090,159000,BrkSide,"1202 NORTHWESTERN AVE, AMES, USA",42.03342520408163,-93.62554691836736,NORTHWESTERN_AVE,BrkSide_NORTHWESTERN_AVE
531363010,159000,SawyerW,"5406 KANSAS DR, AMES, USA",42.03771545869594,-93.69140194782878,KANSAS_DR,SawyerW_KANSAS_DR
923205025,168000,Mitchel,"314 PATRICIA DR, AMES, USA",41.9912068279948,-93.60722957089274,PATRICIA_DR,Mitchel_PATRICIA_DR
532377060,122000,Sawyer,"1327 ALABAMA LN, AMES, USA",42.03492614970521,-93.67217225423155,ALABAMA_LN,Sawyer_ALABAMA_LN
902109160,122250,OldTown,"926 GRAND AVE, AMES, USA",42.03053925526278,-93.62018697987196,GRAND_AVE,OldTown_GRAND_AVE
902128075,120000,OldTown,"1107 KELLOGG AVE, AMES, USA",42.03226914285714,-93.61400865306122,KELLOGG_AVE,OldTown_KELLOGG_AVE
528178070,421250,NridgHt,"3728 BRIDGEPORT DR, AMES, USA",42.05718584898524,-93.65531279784706,BRIDGEPORT_DR,NridgHt_BRIDGEPORT_DR
903225160,106900,BrkSide,"1232 NORTHWESTERN AVE, AMES, USA",42.03374326530612,-93.62556069387756,NORTHWESTERN_AVE,BrkSide_NORTHWESTERN_AVE
906380170,194000,CollgCr,"5327 DURANT ST, AMES, USA",42.024647,-93.68949394140166,DURANT_ST,CollgCr_DURANT_ST
528174020,204000,NridgHt,"2920 HARRISON RD, AMES, USA",42.05922094551288,-93.64947028383988,HARRISON_RD,NridgHt_HARRISON_RD
910201110,100000,IDOTRR,"125 S HAZEL AVE, AMES, USA",42.022501592513066,-93.62691449706048,S_HAZEL_AVE,IDOTRR_S_HAZEL_AVE
535325400,105000,NAmes,"1606 BURNETT AVE, AMES, USA",42.0456477,-93.6165081,BURNETT_AVE,NAmes_BURNETT_AVE
535150070,104900,NAmes,"2201 BARR DR, AMES, USA",42.04353949935175,-93.61986377477628,BARR_DR,NAmes_BARR_DR
533254100,187000,Veenker,"2106 TORREY PINES RD, AMES, USA",42.042245,-93.647022,TORREY_PINES_RD,Veenker_TORREY_PINES_RD
533254130,181500,Veenker,"2124 TORREY PINES RD, AMES, USA",42.043196,-93.645509,TORREY_PINES_RD,Veenker_TORREY_PINES_RD
907194110,187100,CollgCr,"5344 CLEMENS BLVD, AMES, USA",42.0165166262228,-93.69015542114964,CLEMENS_BLVD,CollgCr_CLEMENS_BLVD
531375100,158000,SawyerW,"5321 KANSAS DR, AMES, USA",42.03779751992414,-93.69060626586594,KANSAS_DR,SawyerW_KANSAS_DR
532477030,192000,Veenker,"3326 KINGMAN RD, AMES, USA",42.037359639964464,-93.66125796344346,KINGMAN_RD,Veenker_KINGMAN_RD
534102025,230000,Somerst,"2651 SOMERSET DR, AMES, USA",42.04844622222222,-93.639552,SOMERSET_DR,Somerst_SOMERSET_DR
905452160,128000,Edwards,"322 CRANE AVE, AMES, USA",42.02583595734114,-93.66607259932762,CRANE_AVE,Edwards_CRANE_AVE
533208050,197000,Somerst,"2808 NORTHRIDGE LN, AMES, USA",42.04769447845684,-93.64663943537052,NORTHRIDGE_LN,Somerst_NORTHRIDGE_LN
905427030,415000,Edwards,"3226 OAKLAND ST, AMES, USA",42.0281873047507,-93.66086579008224,OAKLAND_ST,Edwards_OAKLAND_ST
535301010,135960,NAmes,"520 20TH ST 522, AMES, USA",42.04199377551021,-93.61754234693878,20TH_ST,NAmes_20TH_ST
909280030,250000,Crawfor,"623 AGG AVE, AMES, USA",42.0169293039374,-93.64118843764037,AGG_AVE,Crawfor_AGG_AVE
528116010,296000,NridgHt,"4115 WEMBLEY AVE, AMES, USA",42.0607792297516,-93.65860293118872,WEMBLEY_AVE,NridgHt_WEMBLEY_AVE
528228270,172500,Blmngtn,"2421 WESTWIND DR, AMES, USA",42.06259555537441,-93.64189535276586,WESTWIND_DR,Blmngtn_WESTWIND_DR
907252210,236500,CollgCr,"4707 HEMINGWAY DR, AMES, USA",42.01885693993959,-93.68289296919988,HEMINGWAY_DR,CollgCr_HEMINGWAY_DR
909475020,223000,Crawfor,"2166 ASHMORE DR, AMES, USA",42.011654,-93.643556,ASHMORE_DR,Crawfor_ASHMORE_DR
907253110,230500,CollgCr,"4812 HEMINGWAY DR, AMES, USA",42.01869977841745,-93.68464309104452,HEMINGWAY_DR,CollgCr_HEMINGWAY_DR
535325280,130000,NAmes,"1617 DOUGLAS AVE, AMES, USA",42.03854471428571,-93.61243779591835,DOUGLAS_AVE,NAmes_DOUGLAS_AVE
532378240,125500,Sawyer,"1322 ALABAMA LN, AMES, USA",42.03489390322482,-93.67191825955148,ALABAMA_LN,Sawyer_ALABAMA_LN
908102260,147500,Edwards,"208 TODD CIR, AMES, USA",42.0211584,-93.6774686,TODD_CIR,Edwards_TODD_CIR
908226180,79000,Edwards,"110 S WILMOTH AVE, AMES, USA",42.022556599869965,-93.66149567643896,S_WILMOTH_AVE,Edwards_S_WILMOTH_AVE
527425060,97000,NAmes,"902 TOP O HOLLOW RD, AMES, USA",42.056585,-93.6235075,TOP_O_HOLLOW_RD,NAmes_TOP_O_HOLLOW_RD
527451540,97000,BrDale,"1428 BRECKINRIDGE CT, AMES, USA",42.05165547608443,-93.62960010095908,BRECKINRIDGE_CT,BrDale_BRECKINRIDGE_CT
902128170,119000,OldTown,"1126 BURNETT AVE, AMES, USA",42.032449285714286,-93.61540881632654,BURNETT_AVE,OldTown_BURNETT_AVE
903455090,125500,IDOTRR,"1103 N 2ND ST, AMES, USA",42.0241246122449,-93.6254213265306,N_2ND_ST,IDOTRR_N_2ND_ST
910203250,82000,IDOTRR,"228 S RIVERSIDE DR, AMES, USA",42.02132716963949,-93.62946068188016,S_RIVERSIDE_DR,IDOTRR_S_RIVERSIDE_DR
903228070,93000,BrkSide,"803 12TH ST, AMES, USA",42.03334642857143,-93.62163181632653,12TH_ST,BrkSide_12TH_ST
527214060,535000,StoneBr,"4008 FRANCES E DAVIS CT, AMES, USA",42.06007471428571,-93.62771,FRANCES_E_DAVIS_CT,StoneBr_FRANCES_E_DAVIS_CT
527214060,535000,StoneBr,"4008 FRANCES E DAVIS CT, AMES, USA",42.06007471428571,-93.62771,FRANCES_E_DAVIS_CT,StoneBr_FRANCES_E_DAVIS_CT
528427010,235128,Somerst,"3205 CULLEN DR, AMES, USA",42.05437757352141,-93.6441540674731,CULLEN_DR,Somerst_CULLEN_DR
535451250,138000,NAmes,"1518 CARROLL AVE, AMES, USA",42.039218,-93.609681,CARROLL_AVE,NAmes_CARROLL_AVE
908152270,176000,Edwards,"415 BEEDLE DR, AMES, USA",42.01872699002386,-93.67328616654792,BEEDLE_DR,Edwards_BEEDLE_DR
909452050,208000,Crawfor,"1312 BIG BLUESTEM CT, AMES, USA",42.01052241853046,-93.6447411423989,BIG_BLUESTEM_CT,Crawfor_BIG_BLUESTEM_CT
532354160,141000,Sawyer,"4133 ONTARIO ST, AMES, USA",42.034622285714285,-93.67426804081632,ONTARIO_ST,Sawyer_ONTARIO_ST
531453100,162000,SawyerW,"1510 ILLINOIS AVE, AMES, USA",42.03568872714663,-93.68500228550349,ILLINOIS_AVE,SawyerW_ILLINOIS_AVE
527328050,151500,NWAmes,"1606 TOP O HOLLOW RD, AMES, USA",42.05645099500372,-93.63156375802194,TOP_O_HOLLOW_RD,NWAmes_TOP_O_HOLLOW_RD
907418010,218836,CollgCr,"804 POE AVE, AMES, USA",42.016003067952575,-93.68366082946746,POE_AVE,CollgCr_POE_AVE
528344020,322500,NoRidge,"3040 BAYBERRY RD, AMES, USA",42.053416930353976,-93.65323766252466,BAYBERRY_RD,NoRidge_BAYBERRY_RD
532353180,151000,Sawyer,"1330 WOODSTOCK AVE, AMES, USA",42.03514258197271,-93.67698065927452,WOODSTOCK_AVE,Sawyer_WOODSTOCK_AVE
902106070,127500,OldTown,"611 10TH ST, AMES, USA",42.03136939759234,-93.6187385078336,10TH_ST,OldTown_10TH_ST
528221050,203000,Gilbert,"4102 CRESTMOOR AVE, AMES, USA",42.06205631734757,-93.6445071184154,CRESTMOOR_AVE,Gilbert_CRESTMOOR_AVE
534479300,121000,NAmes,"1512 HARDING AVE, AMES, USA",42.037195530778,-93.62139599190822,HARDING_AVE,NAmes_HARDING_AVE
906223060,213000,SawyerW,"1005 FLORIDA AVE, AMES, USA",42.03074241421573,-93.68109763935172,FLORIDA_AVE,SawyerW_FLORIDA_AVE
535105060,174000,NAmes,"428 26TH ST, AMES, USA",42.0472850574594,-93.61637686541748,26TH_ST,NAmes_26TH_ST
528108040,398800,NridgHt,"3106 SEDWICK ST, AMES, USA",42.062987,-93.65399520765304,SEDWICK_ST,NridgHt_SEDWICK_ST
909279010,205000,Crawfor,"2159 COUNTRY CLUB BLVD 2157, AMES, USA",42.01580493115075,-93.64382077985354,COUNTRY_CLUB_BLVD,Crawfor_COUNTRY_CLUB_BLVD
527183030,189000,StoneBr,"1527 STONE BROOKE RD, AMES, USA",42.0610026,-93.6325959,STONE_BROOKE_RD,StoneBr_STONE_BROOKE_RD
527276160,185000,Gilbert,"3616 CALHOUN AVE, AMES, USA",42.05691061974768,-93.62394609055036,CALHOUN_AVE,Gilbert_CALHOUN_AVE
902207130,12789,OldTown,"931 MAXWELL AVE, AMES, USA",42.03047530489075,-93.60682804611989,MAXWELL_AVE,OldTown_MAXWELL_AVE
903227020,128000,BrkSide,"1225 ROOSEVELT AVE, AMES, USA",42.03366324489796,-93.62263804081633,ROOSEVELT_AVE,BrkSide_ROOSEVELT_AVE
908203100,90000,Edwards,"308 VILLAGE DR, AMES, USA",42.01961035,-93.6663492,VILLAGE_DR,Edwards_VILLAGE_DR
534152120,167900,NWAmes,"2204 PRAIRIE VIEW EAST, AMES, USA",42.043653874687614,-93.63785692655183,PRAIRIE_VIEW_EAST,NWAmes_PRAIRIE_VIEW_EAST
907290240,143000,CollgCr,"4715 TWAIN ST, AMES, USA",42.01627243643616,-93.6821187933657,TWAIN_ST,CollgCr_TWAIN_ST
528478030,250000,Somerst,"2419 KINGSTON DR, AMES, USA",42.05226690017801,-93.64060076646572,KINGSTON_DR,Somerst_KINGSTON_DR
910201180,150909,IDOTRR,"114 S RUSSELL AVE, AMES, USA",42.02259728571429,-93.62822157142855,S_RUSSELL_AVE,IDOTRR_S_RUSSELL_AVE
533208140,178000,Somerst,"2720 NORTHRIDGE LN, AMES, USA",42.047816063070826,-93.64598659483784,NORTHRIDGE_LN,Somerst_NORTHRIDGE_LN
528166150,350000,NridgHt,"3321 FOXLEY DR, AMES, USA",42.05864089074064,-93.65675772325476,FOXLEY_DR,NridgHt_FOXLEY_DR
905107140,143500,Sawyer,"911 MESA VERDE PL, AMES, USA",42.03066861357932,-93.6720386563243,MESA_VERDE_PL,Sawyer_MESA_VERDE_PL
527180100,180500,Gilbert,"3817 FLETCHER BLVD, AMES, USA",42.058859,-93.634762,FLETCHER_BLVD,Gilbert_FLETCHER_BLVD
528458080,255000,Somerst,"2810 ASPEN RD, AMES, USA",42.05073962729427,-93.64662739398727,ASPEN_RD,Somerst_ASPEN_RD
905101450,154500,Sawyer,"1208 ARIZONA AVE, AMES, USA",42.03339691836735,-93.67536573469388,ARIZONA_AVE,Sawyer_ARIZONA_AVE
914460110,245000,Mitchel,"303 RUBY CIR, AMES, USA",41.9962111942174,-93.60711752442693,RUBY_CIR,Mitchel_RUBY_CIR
534400290,153000,NAmes,"1413 16TH ST, AMES, USA",42.03835418428905,-93.62832041301807,16TH_ST,NAmes_16TH_ST
907254020,230000,CollgCr,"519 POE CIR, AMES, USA",42.01773528997087,-93.68445533701971,POE_CIR,CollgCr_POE_CIR
528458030,212700,Somerst,"2840 ASPEN RD, AMES, USA",42.05103227664718,-93.64730202075964,ASPEN_RD,Somerst_ASPEN_RD
528480060,339750,Somerst,"2518 KINGSTON DR, AMES, USA",42.05217516802972,-93.6424376975465,KINGSTON_DR,Somerst_KINGSTON_DR
905226050,112000,Sawyer,"1203 SCOTT AVE, AMES, USA",42.03338,-93.660706,SCOTT_AVE,Sawyer_SCOTT_AVE
528253010,207500,NridgHt,"2839 ROXBORO DR, AMES, USA",42.058398539747806,-93.649542301261,ROXBORO_DR,NridgHt_ROXBORO_DR
528228345,195000,Blmngtn,"2309 WESTWIND DR, AMES, USA",42.063341906833216,-93.64031889686984,WESTWIND_DR,Blmngtn_WESTWIND_DR
527425140,120500,NAmes,"704 TOP O HOLLOW RD, AMES, USA",42.05663491840557,-93.62176390413988,TOP_O_HOLLOW_RD,NAmes_TOP_O_HOLLOW_RD
907135020,144000,CollgCr,"5409 FROST DR, AMES, USA",42.01909123815859,-93.69137515829988,FROST_DR,CollgCr_FROST_DR
533206040,176400,Somerst,"2815 BRISTOL DR, AMES, USA",42.047505,-93.647671,BRISTOL_DR,Somerst_BRISTOL_DR
535181140,130000,NAmes,"2104 DOUGLAS AVE, AMES, USA",42.04313344897959,-93.61226375510203,DOUGLAS_AVE,NAmes_DOUGLAS_AVE
902427045,97000,OldTown,"422 E 6TH ST, AMES, USA",42.026947690553214,-93.60479012759878,E_6TH_ST,OldTown_E_6TH_ST
527405130,76500,NAmes,"1202 WHEELER ST, AMES, USA",42.05328469387755,-93.62721524489795,WHEELER_ST,NAmes_WHEELER_ST
528431040,419005,Somerst,"3217 KENT AVE, AMES, USA",42.05445930526654,-93.6423122535478,KENT_AVE,Somerst_KENT_AVE
527450210,83000,BrDale,"1333 TRUMAN PL, AMES, USA",42.0525671934726,-93.62765172237602,TRUMAN_PL,BrDale_TRUMAN_PL
532378200,142000,Sawyer,"3905 ONTARIO ST, AMES, USA",42.03459803030303,-93.67086053535353,ONTARIO_ST,Sawyer_ONTARIO_ST
909278020,154900,Crawfor,"602 ASH AVE, AMES, USA",42.0118554,-93.6456983,ASH_AVE,Crawfor_ASH_AVE
534225110,145000,NAmes,"2624 MELROSE AVE, AMES, USA",42.04764304782165,-93.62458843657076,MELROSE_AVE,NAmes_MELROSE_AVE
909451130,123900,Blueste,"1505 LITTLE BLUESTEM CT UNIT 116, AMES, USA",42.0095432,-93.646143,LITTLE_BLUESTEM_CT_UNIT,Blueste_LITTLE_BLUESTEM_CT_UNIT
528142020,250000,NridgHt,"3122 BECKLEY ST, AMES, USA",42.06043498193772,-93.65414661216344,BECKLEY_ST,NridgHt_BECKLEY_ST
527404030,143000,NAmes,"1212 JEFFERSON ST, AMES, USA",42.05518535362239,-93.6267052291767,JEFFERSON_ST,NAmes_JEFFERSON_ST
527162180,183000,Gilbert,"3840 BERKSHIRE AVE, AMES, USA",42.05934421119287,-93.63897183030832,BERKSHIRE_AVE,Gilbert_BERKSHIRE_AVE
534151180,255000,NWAmes,"2025 PRAIRIE VIEW EAST, AMES, USA",42.04311905624381,-93.63698612936076,PRAIRIE_VIEW_EAST,NWAmes_PRAIRIE_VIEW_EAST
908204090,131750,Edwards,"278 VILLAGE DR, AMES, USA",42.0186819,-93.6663829759606,VILLAGE_DR,Edwards_VILLAGE_DR
532354070,132500,Sawyer,"4106 TORONTO ST, AMES, USA",42.03586555102041,-93.67407142857142,TORONTO_ST,Sawyer_TORONTO_ST
527302070,181900,NWAmes,"3306 EISENHOWER AVE, AMES, USA",42.05455169737027,-93.63779464883544,EISENHOWER_AVE,NWAmes_EISENHOWER_AVE
527214030,387000,StoneBr,"4013 FRANCES E DAVIS CT, AMES, USA",42.060110571428574,-93.627926,FRANCES_E_DAVIS_CT,StoneBr_FRANCES_E_DAVIS_CT
533128030,268000,NoRidge,"2713 NORTHRIDGE CIR, AMES, USA",42.04804412244898,-93.65051097959184,NORTHRIDGE_CIR,NoRidge_NORTHRIDGE_CIR
902330010,122000,OldTown,"114 8TH ST, AMES, USA",42.02889263343808,-93.61086585885806,8TH_ST,OldTown_8TH_ST
923228150,97000,MeadowV,"707 MEADOW PL, AMES, USA",41.9925693,-93.6021357,MEADOW_PL,MeadowV_MEADOW_PL
527302080,229000,NWAmes,"3300 EISENHOWER AVE, AMES, USA",42.054501,-93.637788,EISENHOWER_AVE,NWAmes_EISENHOWER_AVE
528344040,340000,NoRidge,"3028 BAYBERRY RD, AMES, USA",42.05342209992673,-93.65304393958787,BAYBERRY_RD,NoRidge_BAYBERRY_RD
535403040,115000,NAmes,"120 E O NEIL DR, AMES, USA",42.04013764071213,-93.61031392353992,E_O_NEIL_DR,NAmes_E_O_NEIL_DR
535375050,135000,OldTown,"1517 KELLOGG AVE, AMES, USA",42.03729542857143,-93.6140802857143,KELLOGG_AVE,OldTown_KELLOGG_AVE
535376060,149000,OldTown,"1511 DOUGLAS AVE, AMES, USA",42.0372426122449,-93.61242581632654,DOUGLAS_AVE,OldTown_DOUGLAS_AVE
924151040,285000,Mitchel,"3616 JEWEL DR, AMES, USA",41.98974552906844,-93.59996872621436,JEWEL_DR,Mitchel_JEWEL_DR
528186160,234250,NridgHt,"3703 CHILTON AVE, AMES, USA",42.0572465,-93.65143940000002,CHILTON_AVE,NridgHt_CHILTON_AVE
532351150,119500,Sawyer,"4307 TORONTO ST, AMES, USA",42.03637796697601,-93.677257350006,TORONTO_ST,Sawyer_TORONTO_ST
905105010,142500,Sawyer,"1019 ARIZONA AVE, AMES, USA",42.03121063779482,-93.67573680093103,ARIZONA_AVE,Sawyer_ARIZONA_AVE
527452310,123000,NAmes,"1413 JOHNSON ST, AMES, USA",42.04895463333342,-93.62924181330852,JOHNSON_ST,NAmes_JOHNSON_ST
909250200,149000,SWISU,"428 STANTON AVE, AMES, USA",42.01875678168227,-93.64838682231044,STANTON_AVE,SWISU_STANTON_AVE
905101300,136000,Sawyer,"3901 QUEBEC ST 3903, AMES, USA",42.03339260294421,-93.67123834844584,QUEBEC_ST,Sawyer_QUEBEC_ST
902329080,119000,OldTown,"219 7TH ST, AMES, USA",42.02804460246242,-93.61253632831034,7TH_ST,OldTown_7TH_ST
903225140,124000,BrkSide,"1222 NORTHWESTERN AVE, AMES, USA",42.03363724489796,-93.62555610204082,NORTHWESTERN_AVE,BrkSide_NORTHWESTERN_AVE
533215080,328900,Somerst,"2415 BRADFORD DR, AMES, USA",42.046291522056016,-93.64706809744942,BRADFORD_DR,Somerst_BRADFORD_DR
534452060,118000,BrkSide,"1301 RIDGEWOOD AVE 1303, AMES, USA",42.034683,-93.627695,RIDGEWOOD_AVE,BrkSide_RIDGEWOOD_AVE
532476050,260000,Veenker,"1601 AMHERST DR, AMES, USA",42.037211,-93.660602,AMHERST_DR,Veenker_AMHERST_DR
909428110,157000,Crawfor,"2004 MCCARTHY RD, AMES, USA",42.0134524,-93.6396547,MCCARTHY_RD,Crawfor_MCCARTHY_RD
528170040,437154,NridgHt,"3108 ROXBORO DR, AMES, USA",42.05852329023244,-93.65218318239246,ROXBORO_DR,NridgHt_ROXBORO_DR
533110130,260000,NoRidge,"2503 RIDGETOP RD, AMES, USA",42.04575485977505,-93.6539210146762,RIDGETOP_RD,NoRidge_RIDGETOP_RD
921205030,369900,Timber,"2406 COTTONWOOD RD, AMES, USA",41.993253,-93.64787321806948,COTTONWOOD_RD,Timber_COTTONWOOD_RD
923203090,164000,Mitchel,"3318 EMERALD DR, AMES, USA",41.99306538458213,-93.60816367708648,EMERALD_DR,Mitchel_EMERALD_DR
535104120,187500,NAmes,"510 LUTHER DR, AMES, USA",42.04818346460969,-93.61800109327204,LUTHER_DR,NAmes_LUTHER_DR
528366070,263000,NoRidge,"3108 SYCAMORE RD, AMES, USA",42.04950416439778,-93.65311839997617,SYCAMORE_RD,NoRidge_SYCAMORE_RD
923204040,173000,Mitchel,"428 JEWEL DR, AMES, USA",41.99317600351737,-93.60623275724798,JEWEL_DR,Mitchel_JEWEL_DR
535378080,128500,OldTown,"1400 BURNETT AVE, AMES, USA",42.0456477,-93.6165081,BURNETT_AVE,OldTown_BURNETT_AVE
533251130,194000,Veenker,"2804 PINEHURST CIR, AMES, USA",42.04475584557552,-93.64596875881588,PINEHURST_CIR,Veenker_PINEHURST_CIR
528235130,178000,Gilbert,"3838 WELBECK DR, AMES, USA",42.0602303,-93.6439316,WELBECK_DR,Gilbert_WELBECK_DR
903226130,128000,BrkSide,"1210 CURTISS AVE, AMES, USA",42.03350432653061,-93.62453204081632,CURTISS_AVE,BrkSide_CURTISS_AVE
903235020,89000,BrkSide,"1018 10TH ST, AMES, USA",42.03118540718059,-93.62385053019987,10TH_ST,BrkSide_10TH_ST
527425110,130000,NAmes,"804 TOP O HOLLOW RD, AMES, USA",42.0566141520629,-93.6222984445571,TOP_O_HOLLOW_RD,NAmes_TOP_O_HOLLOW_RD
902327070,160000,OldTown,"803 DUFF AVE, AMES, USA",42.02912002366332,-93.61062325031136,DUFF_AVE,OldTown_DUFF_AVE
903425270,90000,BrkSide,"616 RIDGEWOOD AVE, AMES, USA",42.02743925,-93.62515039490025,RIDGEWOOD_AVE,BrkSide_RIDGEWOOD_AVE
534127230,150000,NWAmes,"2729 CLEVELAND DR, AMES, USA",42.04894545931406,-93.63454246820592,CLEVELAND_DR,NWAmes_CLEVELAND_DR
914478100,143000,Mitchel,"700 DIAMOND CT, AMES, USA",41.994432,-93.601624,DIAMOND_CT,Mitchel_DIAMOND_CT
535301150,156000,NAmes,"1904 WILSON AVE, AMES, USA",42.0382469,-93.6185178,WILSON_AVE,NAmes_WILSON_AVE
903225150,87000,BrkSide,"1226 NORTHWESTERN AVE, AMES, USA",42.03367965306122,-93.62555793877551,NORTHWESTERN_AVE,BrkSide_NORTHWESTERN_AVE
527402220,148500,NAmes,"3316 GARNER AVE, AMES, USA",42.05470832653061,-93.62648085714288,GARNER_AVE,NAmes_GARNER_AVE
904351240,63000,Edwards,"122 HOWARD AVE, AMES, USA",42.02304640816327,-93.65834769387754,HOWARD_AVE,Edwards_HOWARD_AVE
535452090,128000,NAmes,"1425 MAXWELL AVE, AMES, USA",42.03611175102567,-93.60694141044608,MAXWELL_AVE,NAmes_MAXWELL_AVE
528108020,253293,NridgHt,"3122 SEDWICK ST, AMES, USA",42.06298560675671,-93.6541551783833,SEDWICK_ST,NridgHt_SEDWICK_ST
528427070,214000,Somerst,"3317 CULLEN DR, AMES, USA",42.05534983838808,-93.6441992173775,CULLEN_DR,Somerst_CULLEN_DR
902125020,124000,OldTown,"1229 KELLOGG AVE, AMES, USA",42.033675714285714,-93.61405285714284,KELLOGG_AVE,OldTown_KELLOGG_AVE
910201050,129850,IDOTRR,"1212 LINCOLN WAY, AMES, USA",42.022788142857145,-93.6271091632653,LINCOLN_WAY,IDOTRR_LINCOLN_WAY
527425090,115000,NAmes,"808 TOP O HOLLOW RD, AMES, USA",42.05661342218788,-93.62231982989508,TOP_O_HOLLOW_RD,NAmes_TOP_O_HOLLOW_RD
909277100,163500,Crawfor,"2011 KILDEE ST, AMES, USA",42.01764715939968,-93.63973588049144,KILDEE_ST,Crawfor_KILDEE_ST
531452070,145000,SawyerW,"1408 INDIANA AVE, AMES, USA",42.03552981169623,-93.68623304546638,INDIANA_AVE,SawyerW_INDIANA_AVE
528387050,271000,NoRidge,"3015 VALLEY VIEW RD, AMES, USA",42.05055927360286,-93.65166036668946,VALLEY_VIEW_RD,NoRidge_VALLEY_VIEW_RD
905480240,95000,Edwards,"3121 LINCOLN WAY, AMES, USA",42.02284059853292,-93.66017316218904,LINCOLN_WAY,Edwards_LINCOLN_WAY
535476350,192000,NAmes,"1522 LINDEN DR, AMES, USA",42.036844606060605,-93.6048054141414,LINDEN_DR,NAmes_LINDEN_DR
527258010,394432,StoneBr,"1316 KINYON CIR, AMES, USA",42.05884043624161,-93.6291108657718,KINYON_CIR,StoneBr_KINYON_CIR
906394060,181000,CollgCr,"112 HARTFORD DR, AMES, USA",42.02316163982928,-93.688895,HARTFORD_DR,CollgCr_HARTFORD_DR
909282030,381000,Crawfor,"2116 COUNTRY CLUB BLVD, AMES, USA",42.015873,-93.642674,COUNTRY_CLUB_BLVD,Crawfor_COUNTRY_CLUB_BLVD
905225040,140000,Sawyer,"1239 WISCONSIN AVE, AMES, USA",42.03378981113612,-93.66217073409716,WISCONSIN_AVE,Sawyer_WISCONSIN_AVE
908275130,130500,Edwards,"234 S FRANKLIN AVE, AMES, USA",42.0197906,-93.664509,S_FRANKLIN_AVE,Edwards_S_FRANKLIN_AVE
527226040,155000,Gilbert,"4014 DAWES DR, AMES, USA",42.06022015058052,-93.62295726356056,DAWES_DR,Gilbert_DAWES_DR
903458110,89500,IDOTRR,"1107 LINCOLN WAY, AMES, USA",42.02295687755102,-93.62546034693877,LINCOLN_WAY,IDOTRR_LINCOLN_WAY
535425080,277500,NAmes,"415 PAULSON DR, AMES, USA",42.04078546204856,-93.60656958697224,PAULSON_DR,NAmes_PAULSON_DR
907201220,140000,CollgCr,"5140 EMERSON DR, AMES, USA",42.020059778607575,-93.68718591763704,EMERSON_DR,CollgCr_EMERSON_DR
903426160,160000,OldTown,"817 HODGE AVE, AMES, USA",42.02911295918368,-93.62171457142856,HODGE_AVE,OldTown_HODGE_AVE
905478140,125000,Edwards,"209 HOWARD AVE, AMES, USA",42.023976828047495,-93.65858202077328,HOWARD_AVE,Edwards_HOWARD_AVE
906475070,185000,ClearCr,"234 PARKRIDGE CIR, AMES, USA",42.02469308728671,-93.6820369359333,PARKRIDGE_CIR,ClearCr_PARKRIDGE_CIR
907414070,173500,CollgCr,"4818 WALLER ST, AMES, USA",42.01353445454545,-93.68471572727272,WALLER_ST,CollgCr_WALLER_ST
914476050,135000,Mitchel,"702 CRYSTAL ST, AMES, USA",41.996899895960425,-93.60299219600132,CRYSTAL_ST,Mitchel_CRYSTAL_ST
923251180,131000,Mitchel,"413 TEAGARDEN DR, AMES, USA",41.98769334343434,-93.606366989899,TEAGARDEN_DR,Mitchel_TEAGARDEN_DR
528235090,200000,Gilbert,"3827 BRICKMAN AVE, AMES, USA",42.05945425901293,-93.64319327177768,BRICKMAN_AVE,Gilbert_BRICKMAN_AVE
527355150,278000,NWAmes,"1910 STEVENSON DR, AMES, USA",42.05291513617854,-93.63375536933796,STEVENSON_DR,NWAmes_STEVENSON_DR
527454130,137900,NPkVill,"1119 JOHNSON ST, AMES, USA",42.05011223963888,-93.62586720306224,JOHNSON_ST,NPkVill_JOHNSON_ST
533215020,300000,Somerst,"2509 BRADFORD DR, AMES, USA",42.04659135169006,-93.64687694636557,BRADFORD_DR,Somerst_BRADFORD_DR
526302120,169000,NAmes,"627 RIVER OAK DR, AMES, USA",42.05285252734815,-93.61867770937496,RIVER_OAK_DR,NAmes_RIVER_OAK_DR
532378220,129200,Sawyer,"1310 ALABAMA LN, AMES, USA",42.03476522873856,-93.67190502706886,ALABAMA_LN,Sawyer_ALABAMA_LN
907420110,167000,CollgCr,"908 POE AVE, AMES, USA",42.01458634071595,-93.6837257559237,POE_AVE,CollgCr_POE_AVE
527354100,187500,NWAmes,"1915 STEVENSON DR, AMES, USA",42.05291637350058,-93.6339819544364,STEVENSON_DR,NWAmes_STEVENSON_DR
535404080,129900,NAmes,"1603 CARROLL AVE, AMES, USA",42.039218,-93.609681,CARROLL_AVE,NAmes_CARROLL_AVE
906223090,236000,SawyerW,"1006 VERMONT CT, AMES, USA",42.03079004563383,-93.68199438769652,VERMONT_CT,SawyerW_VERMONT_CT
527450080,125500,BrDale,"1437 TRUMAN PL, AMES, USA",42.05260930263202,-93.62917921696383,TRUMAN_PL,BrDale_TRUMAN_PL
905352030,192000,ClearCr,"212 TRAIL RIDGE RD, AMES, USA",42.0243064,-93.67401,TRAIL_RIDGE_RD,ClearCr_TRAIL_RIDGE_RD
923275040,165500,Mitchel,"521 ELY CIR, AMES, USA",41.988754497238666,-93.60495553528985,ELY_CIR,Mitchel_ELY_CIR
906477110,155000,ClearCr,"4804 WESTBEND DR, AMES, USA",42.02423292307692,-93.68243961538462,WESTBEND_DR,ClearCr_WESTBEND_DR
908103310,127500,Edwards,"200 WELLONS DR 202, AMES, USA",42.020201,-93.675132,WELLONS_DR,Edwards_WELLONS_DR
531477040,144000,SawyerW,"1505 NORTH DAKOTA AVE, AMES, USA",42.03611733333334,-93.67890566666668,NORTH_DAKOTA_AVE,SawyerW_NORTH_DAKOTA_AVE
534176230,171000,NWAmes,"2226 HAYES AVE, AMES, USA",42.04377747858016,-93.63251732040536,HAYES_AVE,NWAmes_HAYES_AVE
907187060,217000,CollgCr,"5200 CERVANTES DR, AMES, USA",42.017765,-93.689101,CERVANTES_DR,CollgCr_CERVANTES_DR
528385050,260000,NoRidge,"3014 ASPEN RD, AMES, USA",42.051606908616456,-93.65170730227656,ASPEN_RD,NoRidge_ASPEN_RD
908204160,82500,Edwards,"238 VILLAGE DR 240, AMES, USA",42.0195893,-93.6654029,VILLAGE_DR,Edwards_VILLAGE_DR
924100020,172000,Mitchel,"3402 JEWEL DR, AMES, USA",41.99082077407747,-93.60022157484228,JEWEL_DR,Mitchel_JEWEL_DR
907401080,195000,CollgCr,"917 TENNYSON AVE, AMES, USA",42.01511921212121,-93.6878653838384,TENNYSON_AVE,CollgCr_TENNYSON_AVE
528108120,376162,NridgHt,"3033 STOCKBURY ST, AMES, USA",42.06234669940753,-93.65333767490483,STOCKBURY_ST,NridgHt_STOCKBURY_ST
916403230,175000,Timber,"2609 GREEN HILLS DR, AMES, USA",41.99916332976392,-93.64441173641649,GREEN_HILLS_DR,Timber_GREEN_HILLS_DR
903236040,126500,BrkSide,"720 10TH ST, AMES, USA",42.03119946938776,-93.62063910204084,10TH_ST,BrkSide_10TH_ST
903475060,122000,OldTown,"519 NORTHWESTERN AVE 521, AMES, USA",42.025981634565824,-93.62218509239744,NORTHWESTERN_AVE,OldTown_NORTHWESTERN_AVE
527302090,213000,NWAmes,"2009 BUCHANAN DR, AMES, USA",42.054475,-93.637326,BUCHANAN_DR,NWAmes_BUCHANAN_DR
923230120,138000,Mitchel,"704 GARNET DR, AMES, USA",41.99123401860321,-93.60243061324628,GARNET_DR,Mitchel_GARNET_DR
534403420,147000,NAmes,"1912 BEL AIR DR, AMES, USA",42.04126429351552,-93.62754452265992,BEL_AIR_DR,NAmes_BEL_AIR_DR
902304060,130000,OldTown,"709 CLARK AVE 709 1/2, AMES, USA",42.028287,-93.617386,CLARK_AVE_709_1/2,OldTown_CLARK_AVE_709_1/2
1007100110,103000,IDOTRR,"2520 E LINCOLN WAY, AMES, USA",42.02265498235664,-93.57832729307644,E_LINCOLN_WAY,IDOTRR_E_LINCOLN_WAY
907290090,213000,CollgCr,"4614 WEBSTER ST, AMES, USA",42.01695428571429,-93.68117685714286,WEBSTER_ST,CollgCr_WEBSTER_ST
907203090,110000,CollgCr,"4915 SCHUBERT ST, AMES, USA",42.021225,-93.684411,SCHUBERT_ST,CollgCr_SCHUBERT_ST
905102060,131500,Sawyer,"4018 QUEBEC ST, AMES, USA",42.03324141929304,-93.67282384824917,QUEBEC_ST,Sawyer_QUEBEC_ST
907275150,275000,CollgCr,"4639 HEMINGWAY DR, AMES, USA",42.01887520909529,-93.68128598545968,HEMINGWAY_DR,CollgCr_HEMINGWAY_DR
535152150,165500,NAmes,"2026 JENSEN AVE, AMES, USA",42.04291583082946,-93.61760893209151,JENSEN_AVE,NAmes_JENSEN_AVE
528365090,290000,NoRidge,"3133 SYCAMORE RD, AMES, USA",42.04969847336652,-93.65379020401356,SYCAMORE_RD,NoRidge_SYCAMORE_RD
910200080,126000,IDOTRR,"121 S RUSSELL AVE, AMES, USA",42.02253369387755,-93.62844153061224,S_RUSSELL_AVE,IDOTRR_S_RUSSELL_AVE
923225080,124000,MeadowV,"3334 SOUTHDALE DR, AMES, USA",41.992492403615074,-93.60530083890698,SOUTHDALE_DR,MeadowV_SOUTHDALE_DR
906402200,320000,SawyerW,"926 IDAHO AVE, AMES, USA",42.030479,-93.68318,IDAHO_AVE,SawyerW_IDAHO_AVE
921128050,425000,Timber,"2624 COTTONWOOD RD, AMES, USA",41.993090368244026,-93.65077168001568,COTTONWOOD_RD,Timber_COTTONWOOD_RD
909250160,96500,Crawfor,"2321 BAKER ST, AMES, USA",42.018046346938775,-93.6469003877551,BAKER_ST,Crawfor_BAKER_ST
908225170,91900,Edwards,"3319 TRIPP ST, AMES, USA",42.02011791418733,-93.66201652254809,TRIPP_ST,Edwards_TRIPP_ST
906380060,272500,CollgCr,"5332 TABOR DR, AMES, USA",42.02587218003842,-93.68961370743756,TABOR_DR,CollgCr_TABOR_DR
527175130,154204,Gilbert,"1711 TOP O HOLLOW RD, AMES, USA",42.05659525375694,-93.63278756748916,TOP_O_HOLLOW_RD,Gilbert_TOP_O_HOLLOW_RD
528480110,200825,Somerst,"2517 CLAYTON DR, AMES, USA",42.05142301513821,-93.64265836776028,CLAYTON_DR,Somerst_CLAYTON_DR
528150070,611657,NridgHt,"4101 VALLEY VIEW RD, AMES, USA",42.060462,-93.655516,VALLEY_VIEW_RD,NridgHt_VALLEY_VIEW_RD
923400040,160000,Mitchel,"300 KEN MARIL RD, AMES, USA",41.986498,-93.608125,KEN_MARIL_RD,Mitchel_KEN_MARIL_RD
910205020,78000,IDOTRR,"203 S MAPLE AVE, AMES, USA",42.021477530612245,-93.6253292244898,S_MAPLE_AVE,IDOTRR_S_MAPLE_AVE
535103050,201800,NAmes,"2702 NORTHWOOD DR, AMES, USA",42.04892890817189,-93.61662458579931,NORTHWOOD_DR,NAmes_NORTHWOOD_DR
528240150,195500,Gilbert,"4010 BRICKMAN AVE, AMES, USA",42.06122452447367,-93.64249212714206,BRICKMAN_AVE,Gilbert_BRICKMAN_AVE
906226120,142953,SawyerW,"1001 NORTH DAKOTA AVE 1003, AMES, USA",42.03231420003687,-93.6786209631735,NORTH_DAKOTA_AVE,SawyerW_NORTH_DAKOTA_AVE
535327140,107500,NAmes,"117 16TH ST, AMES, USA",42.03836985690008,-93.61107609317202,16TH_ST,NAmes_16TH_ST
528427040,213133,Somerst,"3223 CULLEN DR, AMES, USA",42.05453381217946,-93.644148,CULLEN_DR,Somerst_CULLEN_DR
528435020,297900,Somerst,"2616 DALTON ST, AMES, USA",42.054149,-93.644192,DALTON_ST,Somerst_DALTON_ST
534431130,122000,NAmes,"803 16TH ST, AMES, USA",42.0384108367347,-93.62169385714286,16TH_ST,NAmes_16TH_ST
923203110,162000,Mitchel,"3322 EMERALD DR, AMES, USA",41.99302302560038,-93.6081644942168,EMERALD_DR,Mitchel_EMERALD_DR
527356020,250000,NWAmes,"2935 EISENHOWER AVE, AMES, USA",42.05050176633044,-93.63749315294264,EISENHOWER_AVE,NWAmes_EISENHOWER_AVE
527252090,318000,StoneBr,"3807 HOOVER AVE, AMES, USA",42.05778268719642,-93.62986759861607,HOOVER_AVE,StoneBr_HOOVER_AVE
527258020,260000,StoneBr,"3802 HOOVER AVE, AMES, USA",42.0580958832001,-93.629625753887,HOOVER_AVE,StoneBr_HOOVER_AVE
533253060,155000,Greens,"2020 PINEHURST DR, AMES, USA",42.04292843701024,-93.64930738305368,PINEHURST_DR,Greens_PINEHURST_DR
905107380,120000,Sawyer,"1008 ARKANSAS AVE, AMES, USA",42.03166456924505,-93.67415414231128,ARKANSAS_AVE,Sawyer_ARKANSAS_AVE
531375040,159000,SawyerW,"5425 KANSAS DR, AMES, USA",42.03789478718914,-93.69152303149954,KANSAS_DR,SawyerW_KANSAS_DR
535355100,112000,OldTown,"427 13TH ST, AMES, USA",42.03459238267333,-93.61600823920722,13TH_ST,OldTown_13TH_ST
907192120,226000,CollgCr,"5421 CLEMENS BLVD, AMES, USA",42.016317023596216,-93.69159318608703,CLEMENS_BLVD,CollgCr_CLEMENS_BLVD
528138010,324000,NridgHt,"2908 WESTON DR, AMES, USA",42.06162466808756,-93.65221048846104,WESTON_DR,NridgHt_WESTON_DR
908229020,99900,Edwards,"203 STATE AVE, AMES, USA",42.02138447474748,-93.65922493939397,STATE_AVE,Edwards_STATE_AVE
528480090,271500,Somerst,"2505 CLAYTON DR, AMES, USA",42.05142825378456,-93.64252609194008,CLAYTON_DR,Somerst_CLAYTON_DR
527108070,377500,Gilbert,"4302 HARRISON CIR, AMES, USA",42.06297980174738,-93.63597536209686,HARRISON_CIR,Gilbert_HARRISON_CIR
906226060,131000,SawyerW,"1110 DELAWARE AVE, AMES, USA",42.0324048560419,-93.679752,DELAWARE_AVE,SawyerW_DELAWARE_AVE
908275290,125000,Edwards,"3334 MORNINGSIDE ST, AMES, USA",42.01773114285714,-93.66219771428572,MORNINGSIDE_ST,Edwards_MORNINGSIDE_ST
531375070,142500,SawyerW,"5409 KANSAS DR, AMES, USA",42.037880984107865,-93.69138693054298,KANSAS_DR,SawyerW_KANSAS_DR
528480070,266000,Somerst,"2512 KINGSTON DR, AMES, USA",42.05218586544711,-93.64236547683238,KINGSTON_DR,Somerst_KINGSTON_DR
905300080,142500,Sawyer,"733 ARIZONA AVE, AMES, USA",42.02890321194663,-93.676399360278,ARIZONA_AVE,Sawyer_ARIZONA_AVE
907203040,149900,CollgCr,"201 ROCKWELL AVE, AMES, USA",42.021766,-93.683356,ROCKWELL_AVE,CollgCr_ROCKWELL_AVE
535450180,135000,NAmes,"115 E 14TH ST, AMES, USA",42.03578971428571,-93.61032328571429,E_14TH_ST,NAmes_E_14TH_ST
531382070,257000,SawyerW,"1340 CALIFORNIA AVE, AMES, USA",42.035478157326274,-93.691368353397,CALIFORNIA_AVE,SawyerW_CALIFORNIA_AVE
527216080,591587,StoneBr,"4120 LAURA CT, AMES, USA",42.06084660866363,-93.62614208665283,LAURA_CT,StoneBr_LAURA_CT
906394050,176432,CollgCr,"118 HARTFORD DR, AMES, USA",42.02320307609885,-93.688895,HARTFORD_DR,CollgCr_HARTFORD_DR
527252070,392000,StoneBr,"3817 HOOVER AVE, AMES, USA",42.05789536974548,-93.62985262130675,HOOVER_AVE,StoneBr_HOOVER_AVE
534250010,135000,NWAmes,"1504 24TH ST, AMES, USA",42.04553058199126,-93.63036795695383,24TH_ST,NWAmes_24TH_ST
904100090,150000,Sawyer,"2800 ONTARIO ST, AMES, USA",42.034476,-93.655797,ONTARIO_ST,Sawyer_ONTARIO_ST
905453040,186000,Edwards,"218 CRANE AVE, AMES, USA",42.02515574286182,-93.66606191273536,CRANE_AVE,Edwards_CRANE_AVE
527326150,215000,NWAmes,"1709 BUCHANAN DR, AMES, USA",42.05528206355001,-93.63425011897093,BUCHANAN_DR,NWAmes_BUCHANAN_DR
909101050,116000,Edwards,"2912 WOOD ST, AMES, USA",42.02208263383202,-93.6569485660342,WOOD_ST,Edwards_WOOD_ST
923203140,160500,Mitchel,"3328 EMERALD DR, AMES, USA",41.99295948712776,-93.60816571991228,EMERALD_DR,Mitchel_EMERALD_DR
906230020,269500,SawyerW,"907 NORTH DAKOTA AVE, AMES, USA",42.03053859797348,-93.67893732726276,NORTH_DAKOTA_AVE,SawyerW_NORTH_DAKOTA_AVE
528218060,170440,Gilbert,"4221 CRESTMOOR AVE, AMES, USA",42.0623665183045,-93.64583124495203,CRESTMOOR_AVE,Gilbert_CRESTMOOR_AVE
906380040,246500,CollgCr,"5408 TABOR DR, AMES, USA",42.02539048178546,-93.6905694613764,TABOR_DR,CollgCr_TABOR_DR
528228360,246990,Blmngtn,"2304 WESTWIND DR, AMES, USA",42.063176890926,-93.64022440631769,WESTWIND_DR,Blmngtn_WESTWIND_DR
532377130,131400,Sawyer,"1304 ALBERTA AVE, AMES, USA",42.0347092512174,-93.6734836316701,ALBERTA_AVE,Sawyer_ALBERTA_AVE
527256040,455000,StoneBr,"1303 KINYON CIR, AMES, USA",42.05900058389262,-93.6290162818792,KINYON_CIR,StoneBr_KINYON_CIR
903400030,109000,BrkSide,"829 RIDGEWOOD AVE, AMES, USA",42.02949532172788,-93.6258169129528,RIDGEWOOD_AVE,BrkSide_RIDGEWOOD_AVE
535453200,132500,NAmes,"1516 MAXWELL AVE, AMES, USA",42.03720334607937,-93.60675628318276,MAXWELL_AVE,NAmes_MAXWELL_AVE
528240080,230500,Gilbert,"3903 WESTLAWN DR, AMES, USA",42.060176458179896,-93.6414130851072,WESTLAWN_DR,Gilbert_WESTLAWN_DR
534476320,128900,NAmes,"1530 CURTISS AVE, AMES, USA",42.03738579865772,-93.62458487248324,CURTISS_AVE,NAmes_CURTISS_AVE
902125080,107400,OldTown,"1203 KELLOGG AVE, AMES, USA",42.03339740816326,-93.6140427755102,KELLOGG_AVE,OldTown_KELLOGG_AVE
528327010,405000,NoRidge,"3124 ALMOND RD, AMES, USA",42.055592,-93.653209853281,ALMOND_RD,NoRidge_ALMOND_RD
916455070,220000,Timber,"2909 WHITE OAK DR, AMES, USA",41.99633696806935,-93.64682732432732,WHITE_OAK_DR,Timber_WHITE_OAK_DR
535350030,144900,NAmes,"618 16TH ST, AMES, USA",42.038242857142855,-93.61898336734694,16TH_ST,NAmes_16TH_ST
905226170,137000,Sawyer,"1248 WISCONSIN AVE, AMES, USA",42.03387026937016,-93.66194959440077,WISCONSIN_AVE,Sawyer_WISCONSIN_AVE
528488140,230348,Somerst,"2612 CLAYTON DR, AMES, USA",42.05122208592715,-93.6437224223748,CLAYTON_DR,Somerst_CLAYTON_DR
528228580,246578,Blmngtn,"2420 LAKESIDE DR, AMES, USA",42.062995452109085,-93.6415741695409,LAKESIDE_DR,Blmngtn_LAKESIDE_DR
527453130,149900,NPkVill,"1113 KENNEDY ST, AMES, USA",42.05068821188921,-93.6260942530966,KENNEDY_ST,NPkVill_KENNEDY_ST
534127210,183000,NWAmes,"2741 CLEVELAND DR, AMES, USA",42.04886393696468,-93.63474361913696,CLEVELAND_DR,NWAmes_CLEVELAND_DR
531452020,99500,SawyerW,"1308 INDIANA AVE, AMES, USA",42.03470498605157,-93.68622929966418,INDIANA_AVE,SawyerW_INDIANA_AVE
911175430,35311,IDOTRR,"313 S 4TH ST, AMES, USA",42.01910027419408,-93.61476109680883,S_4TH_ST,IDOTRR_S_4TH_ST
531452180,194500,SawyerW,"1528 INDIANA AVE, AMES, USA",42.03651955306964,-93.68624346346672,INDIANA_AVE,SawyerW_INDIANA_AVE
902300110,139500,OldTown,"813 WILSON AVE, AMES, USA",42.02912142857143,-93.61848014285717,WILSON_AVE,OldTown_WILSON_AVE
924152030,231000,Mitchel,"3715 JEWEL DR, AMES, USA",41.98920287894761,-93.60018413490596,JEWEL_DR,Mitchel_JEWEL_DR
902110120,111500,OldTown,"916 WILSON AVE 918, AMES, USA",42.030841,-93.6181419,WILSON_AVE,OldTown_WILSON_AVE
528439080,249000,Somerst,"2511 YORKSHIRE ST, AMES, USA",42.05322338850979,-93.64235043856486,YORKSHIRE_ST,Somerst_YORKSHIRE_ST
908151040,147000,Edwards,"413 WELLONS CIR, AMES, USA",42.01901087755102,-93.67531048979592,WELLONS_CIR,Edwards_WELLONS_CIR
528390020,301500,NoRidge,"2948 CYPRESS CIR, AMES, USA",42.04946678372613,-93.65117696467397,CYPRESS_CIR,NoRidge_CYPRESS_CIR
531453140,144000,SawyerW,"1501 ILLINOIS AVE, AMES, USA",42.035634898410905,-93.68522470040688,ILLINOIS_AVE,SawyerW_ILLINOIS_AVE
905226110,145000,ClearCr,"3219 ROSS RD, AMES, USA",42.03266153193981,-93.66098447742898,ROSS_RD,ClearCr_ROSS_RD
531363080,139500,SawyerW,"5510 KANSAS DR, AMES, USA",42.03780587272578,-93.69228547634812,KANSAS_DR,SawyerW_KANSAS_DR
527450520,100500,BrDale,"1208 TRUMAN PL, AMES, USA",42.05146405037852,-93.62707910309376,TRUMAN_PL,BrDale_TRUMAN_PL
534252040,144000,NAmes,"2303 MELROSE AVE, AMES, USA",42.04467577213927,-93.62479946563464,MELROSE_AVE,NAmes_MELROSE_AVE
527453140,123000,NPkVill,"1115 KENNEDY ST, AMES, USA",42.05068774720407,-93.62611562861272,KENNEDY_ST,NPkVill_KENNEDY_ST
531385020,189000,SawyerW,"1516 NEBRASKA AVE, AMES, USA",42.03698944897959,-93.68877371428572,NEBRASKA_AVE,SawyerW_NEBRASKA_AVE
534151175,243500,NWAmes,"2029 PRAIRIE VIEW EAST, AMES, USA",42.043132443732944,-93.63701692058576,PRAIRIE_VIEW_EAST,NWAmes_PRAIRIE_VIEW_EAST
914452060,145000,Mitchel,"411 OPAL CIR 413, AMES, USA",41.99436430952381,-93.6064848452381,OPAL_CIR,Mitchel_OPAL_CIR
535426130,135000,NAmes,"621 CARR DR, AMES, USA",42.03893266606289,-93.60524586740932,CARR_DR,NAmes_CARR_DR
905200220,139000,Sawyer,"3613 ANNEAR ST, AMES, USA",42.03343549761995,-93.6667508603405,ANNEAR_ST,Sawyer_ANNEAR_ST
903425280,153575,BrkSide,"622 RIDGEWOOD AVE, AMES, USA",42.027622,-93.62515444596777,RIDGEWOOD_AVE,BrkSide_RIDGEWOOD_AVE
527326130,175000,NWAmes,"1717 BUCHANAN DR, AMES, USA",42.05527671524565,-93.63428082858952,BUCHANAN_DR,NWAmes_BUCHANAN_DR
902105110,132000,OldTown,"1112 CLARK AVE, AMES, USA",42.0254672,-93.6168856,CLARK_AVE,OldTown_CLARK_AVE
528477050,310000,Somerst,"2525 KINGSTON DR, AMES, USA",42.052361100598375,-93.64250793879312,KINGSTON_DR,Somerst_KINGSTON_DR
909282130,144800,Crawfor,"707 BEACH AVE, AMES, USA",42.0178156,-93.639429,BEACH_AVE,Crawfor_BEACH_AVE
534402170,177500,NAmes,"1405 ARTHUR DR, AMES, USA",42.03990752355813,-93.6281476385107,ARTHUR_DR,NAmes_ARTHUR_DR
528228340,215000,Blmngtn,"2313 WESTWIND DR, AMES, USA",42.063332643566966,-93.64039482796149,WESTWIND_DR,Blmngtn_WESTWIND_DR
911128180,68400,IDOTRR,"212 WASHINGTON AVE, AMES, USA",42.02136264484655,-93.61524020165535,WASHINGTON_AVE,IDOTRR_WASHINGTON_AVE
527404020,128000,NAmes,"1218 JEFFERSON ST, AMES, USA",42.055197743096855,-93.62675858329791,JEFFERSON_ST,NAmes_JEFFERSON_ST
908103350,125200,Edwards,"215 WELLONS DR, AMES, USA",42.02017885714286,-93.67535371428572,WELLONS_DR,Edwards_WELLONS_DR
527126030,251000,StoneBr,"4321 STONE BROOKE RD, AMES, USA",42.063184675,-93.634378025,STONE_BROOKE_RD,StoneBr_STONE_BROOKE_RD
916475040,315000,Timber,"2320 SUNCREST DR, AMES, USA",41.99535006060606,-93.647011989899,SUNCREST_DR,Timber_SUNCREST_DR
905452110,127000,Edwards,"307 FRANKLIN AVE, AMES, USA",42.02512044767799,-93.66493964599474,FRANKLIN_AVE,Edwards_FRANKLIN_AVE
533208020,194000,Somerst,"2816 NORTHRIDGE LN, AMES, USA",42.04771201799954,-93.64670427559804,NORTHRIDGE_LN,Somerst_NORTHRIDGE_LN
902103120,103500,OldTown,"621 11TH ST 619, AMES, USA",42.032211292796056,-93.61892575481906,11TH_ST,OldTown_11TH_ST
527359180,197500,NWAmes,"2985 MONROE DR, AMES, USA",42.051508,-93.63471,MONROE_DR,NWAmes_MONROE_DR
535475020,140000,NAmes,"1531 LINDEN DR, AMES, USA",42.03693412121212,-93.60502794949495,LINDEN_DR,NAmes_LINDEN_DR
923227100,140000,Mitchel,"3330 JEWEL DR, AMES, USA",41.9933402,-93.6041191,JEWEL_DR,Mitchel_JEWEL_DR
528150090,378000,NridgHt,"3203 HARRISON RD, AMES, USA",42.059710469537016,-93.6552007059271,HARRISON_RD,NridgHt_HARRISON_RD
914475030,173000,Mitchel,"627 CRYSTAL ST, AMES, USA",41.9970794347026,-93.60409578337028,CRYSTAL_ST,Mitchel_CRYSTAL_ST
923225240,127000,MeadowV,"3472 SOUTHDALE DR, AMES, USA",41.99058305966545,-93.60383229513144,SOUTHDALE_DR,MeadowV_SOUTHDALE_DR
527108060,309000,Gilbert,"4301 HARRISON CIR, AMES, USA",42.062807,-93.635963,HARRISON_CIR,Gilbert_HARRISON_CIR
528482090,340000,Somerst,"2307 CLAYTON DR, AMES, USA",42.05105825602237,-93.63971724582728,CLAYTON_DR,Somerst_CLAYTON_DR
527358060,175000,NWAmes,"2944 MONROE DR, AMES, USA",42.0507044,-93.6352344,MONROE_DR,NWAmes_MONROE_DR
903235100,68500,BrkSide,"916 NORTHWESTERN AVE, AMES, USA",42.03046517167965,-93.62447142863358,NORTHWESTERN_AVE,BrkSide_NORTHWESTERN_AVE
903225040,135000,BrkSide,"1217 CURTISS AVE, AMES, USA",42.03356512244898,-93.62475426530612,CURTISS_AVE,BrkSide_CURTISS_AVE
903225040,135000,BrkSide,"1217 CURTISS AVE, AMES, USA",42.03356512244898,-93.62475426530612,CURTISS_AVE,BrkSide_CURTISS_AVE
905453080,308030,Edwards,"3520 STORY ST, AMES, USA",42.02407498695896,-93.6625751725542,STORY_ST,Edwards_STORY_ST
903227080,120000,BrkSide,"1204 MARSTON AVE, AMES, USA",42.03343397959184,-93.62348342857142,MARSTON_AVE,BrkSide_MARSTON_AVE
908102140,123000,Edwards,"221 TODD CIR, AMES, USA",42.02086615826354,-93.67758435907253,TODD_CIR,Edwards_TODD_CIR
534275060,141500,NAmes,"2103 MELROSE AVE, AMES, USA",42.043157545707366,-93.62321486965608,MELROSE_AVE,NAmes_MELROSE_AVE
907202080,136500,CollgCr,"5008 EMERSON DR, AMES, USA",42.01978695428436,-93.68472770538008,EMERSON_DR,CollgCr_EMERSON_DR
532351090,125000,Sawyer,"4203 TORONTO ST 4205, AMES, USA",42.036257673469386,-93.67609259183672,TORONTO_ST,Sawyer_TORONTO_ST
923226300,85500,MeadowV,"609 MEADOW PL, AMES, USA",41.992261665241934,-93.60328933021609,MEADOW_PL,MeadowV_MEADOW_PL
923226300,85500,MeadowV,"609 MEADOW PL, AMES, USA",41.992261665241934,-93.60328933021609,MEADOW_PL,MeadowV_MEADOW_PL
923226300,85500,MeadowV,"609 MEADOW PL, AMES, USA",41.992261665241934,-93.60328933021609,MEADOW_PL,MeadowV_MEADOW_PL
907180130,204000,CollgCr,"5333 CERVANTES DR, AMES, USA",42.01743548190004,-93.69085450610454,CERVANTES_DR,CollgCr_CERVANTES_DR
907412040,186500,CollgCr,"4901 WALLER ST, AMES, USA",42.01391930303031,-93.68550604040404,WALLER_ST,CollgCr_WALLER_ST
535456100,109500,NAmes,"1322 STAFFORD AVE, AMES, USA",42.0348683877551,-93.60776691836736,STAFFORD_AVE,NAmes_STAFFORD_AVE
528172020,275000,NridgHt,"3038 HARRISON RD, AMES, USA",42.0591858589008,-93.65040116571043,HARRISON_RD,NridgHt_HARRISON_RD
907175080,226001,CollgCr,"5315 THACKERAY DR, AMES, USA",42.01849162205524,-93.69079671519896,THACKERAY_DR,CollgCr_THACKERAY_DR
534427140,150750,NAmes,"1922 ROOSEVELT AVE, AMES, USA",42.04128712317432,-93.62325760777752,ROOSEVELT_AVE,NAmes_ROOSEVELT_AVE
905200010,129000,Sawyer,"3732 ONTARIO ST, AMES, USA",42.03441534858317,-93.66861455432976,ONTARIO_ST,Sawyer_ONTARIO_ST
528228555,185485,Blmngtn,"2421 LAKESIDE DR, AMES, USA",42.0633081553146,-93.64218655574228,LAKESIDE_DR,Blmngtn_LAKESIDE_DR
905300020,144000,Sawyer,"4410 PHOENIX ST, AMES, USA",42.029447063829785,-93.67826268085106,PHOENIX_ST,Sawyer_PHOENIX_ST
533253030,214000,Greens,"2008 PINEHURST DR, AMES, USA",42.0427331748041,-93.64931675322148,PINEHURST_DR,Greens_PINEHURST_DR
923228250,75000,MeadowV,"723 GARNET DR, AMES, USA",41.99172278896287,-93.60157702884216,GARNET_DR,MeadowV_GARNET_DR
534128100,162000,NWAmes,"1607 PIERCE CIR, AMES, USA",42.04787,-93.6323818,PIERCE_CIR,NWAmes_PIERCE_CIR
908103090,110000,Edwards,"206 ABRAHAM DR, AMES, USA",42.02110648484849,-93.67618415151516,ABRAHAM_DR,Edwards_ABRAHAM_DR
531369010,193000,SawyerW,"5404 MARYLAND ST, AMES, USA",42.03601702285148,-93.69162303599694,MARYLAND_ST,SawyerW_MARYLAND_ST
535426350,148000,NAmes,"1810 GEORGE ALLEN AVE, AMES, USA",42.04003007162375,-93.6070279042265,GEORGE_ALLEN_AVE,NAmes_GEORGE_ALLEN_AVE
527210050,356383,StoneBr,"1407 PANORAMIC CT, AMES, USA",42.060522673469386,-93.6291915510204,PANORAMIC_CT,StoneBr_PANORAMIC_CT
923225190,104500,MeadowV,"3442 SOUTHDALE DR, AMES, USA",41.99100085550783,-93.604222598044,SOUTHDALE_DR,MeadowV_SOUTHDALE_DR
923228210,79500,MeadowV,"719 MEADOW PL, AMES, USA",41.9925693,-93.6021357,MEADOW_PL,MeadowV_MEADOW_PL
902401090,93500,OldTown,"115 E 7TH ST, AMES, USA",42.02807470877492,-93.61014271429372,E_7TH_ST,OldTown_E_7TH_ST
528174080,185850,NridgHt,"2902 HARRISON RD, AMES, USA",42.05925125070055,-93.64933063070106,HARRISON_RD,NridgHt_HARRISON_RD
910200040,115000,IDOTRR,"103 S RUSSELL AVE, AMES, USA",42.02271846938776,-93.62844465306122,S_RUSSELL_AVE,IDOTRR_S_RUSSELL_AVE
528294060,185900,Gilbert,"3816 HYDE AVE, AMES, USA",42.05866265772722,-93.64084551761728,HYDE_AVE,Gilbert_HYDE_AVE
902128150,155000,OldTown,"1116 BURNETT AVE 1118, AMES, USA",42.032355714285714,-93.61541004081631,BURNETT_AVE,OldTown_BURNETT_AVE
535451010,116000,NAmes,"214 E 16TH ST, AMES, USA",42.03818257142857,-93.608716,E_16TH_ST,NAmes_E_16TH_ST
533221060,177000,Somerst,"2717 HAMPTON ST, AMES, USA",42.0461505760374,-93.64580462969136,HAMPTON_ST,Somerst_HAMPTON_ST
535175050,155000,NAmes,"2315 DUFF AVE, AMES, USA",42.04484298006625,-93.61406195922254,DUFF_AVE,NAmes_DUFF_AVE
909451100,137000,Blueste,"1505 LITTLE BLUESTEM CT UNIT 119, AMES, USA",42.0099409,-93.6460507,LITTLE_BLUESTEM_CT_UNIT,Blueste_LITTLE_BLUESTEM_CT_UNIT
905104210,125000,Sawyer,"823 YUMA AVE, AMES, USA",42.02996191433617,-93.6781799948893,YUMA_AVE,Sawyer_YUMA_AVE
907275080,228000,CollgCr,"4539 HEMINGWAY DR, AMES, USA",42.01847041777077,-93.67948936241542,HEMINGWAY_DR,CollgCr_HEMINGWAY_DR
907285080,210000,CollgCr,"4532 CLEMENS BLVD, AMES, USA",42.01785786161569,-93.6801774863413,CLEMENS_BLVD,CollgCr_CLEMENS_BLVD
907285050,191000,CollgCr,"4606 CLEMENS BLVD, AMES, USA",42.01784829160197,-93.68118917350554,CLEMENS_BLVD,CollgCr_CLEMENS_BLVD
528118040,418000,NridgHt,"3311 PRESTON CIR, AMES, USA",42.06042751020408,-93.65749616326532,PRESTON_CIR,NridgHt_PRESTON_CIR
907255050,275000,CollgCr,"503 BROWN CT, AMES, USA",42.01777557142857,-93.68560220408165,BROWN_CT,CollgCr_BROWN_CT
905105190,130000,Sawyer,"822 YUMA AVE, AMES, USA",42.02992519260834,-93.6779561719857,YUMA_AVE,Sawyer_YUMA_AVE
923201100,139500,Mitchel,"601 JEWEL DR, AMES, USA",41.993425,-93.604106,JEWEL_DR,Mitchel_JEWEL_DR
528120030,335000,NridgHt,"3112 WESTON DR, AMES, USA",42.06125391005535,-93.65429293465564,WESTON_DR,NridgHt_WESTON_DR
907135170,138000,CollgCr,"5449 FROST DR, AMES, USA",42.01887237613264,-93.69251180861552,FROST_DR,CollgCr_FROST_DR
535478010,134500,NAmes,"510 E 14TH ST, AMES, USA",42.0354431086131,-93.60569883577747,E_14TH_ST,NAmes_E_14TH_ST
535180120,133000,NAmes,"217 20TH ST, AMES, USA",42.04210733692971,-93.61285385715064,20TH_ST,NAmes_20TH_ST
534426110,124500,NAmes,"1926 HUNZIKER DR, AMES, USA",42.04122444683396,-93.62456660627306,HUNZIKER_DR,NAmes_HUNZIKER_DR
535403150,159500,NAmes,"313 E 16TH ST, AMES, USA",42.03835063265306,-93.60764075510204,E_16TH_ST,NAmes_E_16TH_ST
531376010,173000,SawyerW,"1410 CALIFORNIA AVE, AMES, USA",42.03624601645499,-93.69123942575058,CALIFORNIA_AVE,SawyerW_CALIFORNIA_AVE
911102170,40000,IDOTRR,"208 S WALNUT AVE, AMES, USA",42.02140362966889,-93.61680909086884,S_WALNUT_AVE,IDOTRR_S_WALNUT_AVE
905475520,80000,Edwards,"309 COLORADO CIR, AMES, USA",42.02508203703704,-93.66355788888887,COLORADO_CIR,Edwards_COLORADO_CIR
907175030,235000,CollgCr,"5423 THACKERAY DR, AMES, USA",42.01816904567709,-93.69174026119212,THACKERAY_DR,CollgCr_THACKERAY_DR
527212050,325000,StoneBr,"4014 EDGEWATER DR, AMES, USA",42.06055254736842,-93.62885495789476,EDGEWATER_DR,StoneBr_EDGEWATER_DR
902201110,129500,OldTown,"1212 CARROLL AVE, AMES, USA",42.039218,-93.609681,CARROLL_AVE,OldTown_CARROLL_AVE
906201030,178000,SawyerW,"1149 OKLAHOMA DR, AMES, USA",42.03318050758283,-93.68572630529712,OKLAHOMA_DR,SawyerW_OKLAHOMA_DR
535325130,127000,NAmes,"209 17TH ST, AMES, USA",42.03939307692308,-93.61263997435896,17TH_ST,NAmes_17TH_ST
533213040,172500,Somerst,"2723 BRISTOL DR, AMES, USA",42.047117,-93.646828,BRISTOL_DR,Somerst_BRISTOL_DR
527352150,154000,NWAmes,"2108 STEVENSON DR, AMES, USA",42.05183843368243,-93.6379785407475,STEVENSON_DR,NWAmes_STEVENSON_DR
903226060,164900,BrkSide,"1209 MARSTON AVE, AMES, USA",42.03347295918367,-93.62370485714284,MARSTON_AVE,BrkSide_MARSTON_AVE
923227080,160000,Mitchel,"3318 JEWEL DR, AMES, USA",41.9933402,-93.6041191,JEWEL_DR,Mitchel_JEWEL_DR
907252060,254750,CollgCr,"4923 HEMINGWAY DR, AMES, USA",42.01849059534388,-93.68659668498664,HEMINGWAY_DR,CollgCr_HEMINGWAY_DR
907252060,254750,CollgCr,"4923 HEMINGWAY DR, AMES, USA",42.01849059534388,-93.68659668498664,HEMINGWAY_DR,CollgCr_HEMINGWAY_DR
528102010,315000,NridgHt,"4205 WEMBLEY AVE, AMES, USA",42.06176391836735,-93.65861987755102,WEMBLEY_AVE,NridgHt_WEMBLEY_AVE
533208040,199900,Somerst,"2810 NORTHRIDGE LN, AMES, USA",42.04769896383669,-93.6466556166478,NORTHRIDGE_LN,Somerst_NORTHRIDGE_LN
534128090,185000,NWAmes,"2703 PIERCE AVE, AMES, USA",42.04772546508857,-93.63152308199788,PIERCE_AVE,NWAmes_PIERCE_AVE
908103260,165000,Edwards,"4117 APLIN RD, AMES, USA",42.02000289795919,-93.67364530612244,APLIN_RD,Edwards_APLIN_RD
903231180,132000,BrkSide,"1018 CURTISS AVE, AMES, USA",42.031539081816845,-93.62450668469695,CURTISS_AVE,BrkSide_CURTISS_AVE
533206050,196000,Somerst,"2813 BRISTOL DR, AMES, USA",42.04748696849148,-93.64765887536495,BRISTOL_DR,Somerst_BRISTOL_DR
535403280,153000,NAmes,"1640 CARROLL AVE, AMES, USA",42.039218,-93.609681,CARROLL_AVE,NAmes_CARROLL_AVE
907192030,195000,CollgCr,"5313 CLEMENS BLVD, AMES, USA",42.01683112623088,-93.68964000369684,CLEMENS_BLVD,CollgCr_CLEMENS_BLVD
914465060,271000,Mitchel,"305 TOPAZ CT, AMES, USA",41.99713146754121,-93.6072490569355,TOPAZ_CT,Mitchel_TOPAZ_CT
903228120,119000,BrkSide,"1214 ROOSEVELT AVE, AMES, USA",42.03356314285715,-93.62241285714283,ROOSEVELT_AVE,BrkSide_ROOSEVELT_AVE
903229040,119900,OldTown,"1209 GRAND AVE, AMES, USA",42.03347219306265,-93.62047117158788,GRAND_AVE,OldTown_GRAND_AVE
535101120,124000,NAmes,"2718 LUTHER DR, AMES, USA",42.04832516560455,-93.6198595345658,LUTHER_DR,NAmes_LUTHER_DR
527180040,171500,Gilbert,"3629 FLETCHER BLVD, AMES, USA",42.057391,-93.634738,FLETCHER_BLVD,Gilbert_FLETCHER_BLVD
902110080,135000,OldTown,"509 9TH ST, AMES, USA",42.03028234502641,-93.61727963334768,9TH_ST,OldTown_9TH_ST
902405120,119000,OldTown,"618 CARROLL AVE, AMES, USA",42.039218,-93.609681,CARROLL_AVE,OldTown_CARROLL_AVE
924100070,170000,Mitchel,"3508 JEWEL DR, AMES, USA",41.99121668853178,-93.60002553480204,JEWEL_DR,Mitchel_JEWEL_DR
903454020,72000,IDOTRR,"1214 N 3RD ST, AMES, USA",42.02510471428571,-93.62715557142856,N_3RD_ST,IDOTRR_N_3RD_ST
527110120,169000,Gilbert,"2036 WYNGATE DR, AMES, USA",42.0607983,-93.6364315,WYNGATE_DR,Gilbert_WYNGATE_DR
902136110,95000,OldTown,"111 9TH ST, AMES, USA",42.03024178915276,-93.6108383261398,9TH_ST,OldTown_9TH_ST
907130060,177500,CollgCr,"5250 SCHUBERT ST, AMES, USA",42.02120044753399,-93.68889377734922,SCHUBERT_ST,CollgCr_SCHUBERT_ST
526350040,105000,NAmes,"3109 GROVE AVE, AMES, USA",42.052806,-93.619783,GROVE_AVE,NAmes_GROVE_AVE
535352090,113000,NAmes,"425 15TH ST, AMES, USA",42.037115346938776,-93.61603242857144,15TH_ST,NAmes_15TH_ST
907295100,185000,CollgCr,"4551 TWAIN CIR, AMES, USA",42.01627236360775,-93.6804398781678,TWAIN_CIR,CollgCr_TWAIN_CIR
528431060,245000,Somerst,"2515 DALTON ST, AMES, USA",42.05431157972937,-93.64253480339607,DALTON_ST,Somerst_DALTON_ST
535126040,190000,NAmes,"2613 DUFF AVE, AMES, USA",42.04739544326311,-93.6142805154145,DUFF_AVE,NAmes_DUFF_AVE
534477110,140000,NAmes,"1411 ROOSEVELT AVE, AMES, USA",42.03598415118583,-93.62268006475738,ROOSEVELT_AVE,NAmes_ROOSEVELT_AVE
528222010,258000,Gilbert,"4106 WELBECK DR, AMES, USA",42.06162825548448,-93.643988570908,WELBECK_DR,Gilbert_WELBECK_DR
923203010,140000,Mitchel,"3302 EMERALD DR, AMES, USA",41.99323482050913,-93.60816040856515,EMERALD_DR,Mitchel_EMERALD_DR
535154060,176000,NAmes,"2215 KELLOGG AVE, AMES, USA",42.04410238605175,-93.61493435062953,KELLOGG_AVE,NAmes_KELLOGG_AVE
533125120,334000,NoRidge,"3130 GREENWOOD RD, AMES, USA",42.04859977363349,-93.65367775597775,GREENWOOD_RD,NoRidge_GREENWOOD_RD
902301150,114000,OldTown,"830 WILSON AVE, AMES, USA",42.02932957142857,-93.61826685714286,WILSON_AVE,OldTown_WILSON_AVE
533250160,324000,Veenker,"2878 GREENSBORO CIR, AMES, USA",42.04465756768533,-93.64823284612062,GREENSBORO_CIR,Veenker_GREENSBORO_CIR
528106010,342643,NridgHt,"3332 STOCKBURY ST, AMES, USA",42.06209099209688,-93.65759867203336,STOCKBURY_ST,NridgHt_STOCKBURY_ST
532376040,129000,Sawyer,"1304 GARFIELD AVE, AMES, USA",42.03464492397396,-93.66951756572132,GARFIELD_AVE,Sawyer_GARFIELD_AVE
535151130,132500,NAmes,"2110 BARR DR, AMES, USA",42.04300283036514,-93.61880678521356,BARR_DR,NAmes_BARR_DR
528240070,216500,Gilbert,"3907 WESTLAWN DR, AMES, USA",42.060213257327135,-93.64141992057222,WESTLAWN_DR,Gilbert_WESTLAWN_DR
527184020,182000,StoneBr,"1530 STONE BROOKE RD, AMES, USA",42.0610026,-93.6325959,STONE_BROOKE_RD,StoneBr_STONE_BROOKE_RD
907135230,156000,CollgCr,"5430 FROST DR, AMES, USA",42.01907195177884,-93.6919548486722,FROST_DR,CollgCr_FROST_DR
527402150,143250,NAmes,"3323 JEFFERSON CIR, AMES, USA",42.05526655102041,-93.62635424489795,JEFFERSON_CIR,NAmes_JEFFERSON_CIR
532378070,137000,Sawyer,"3828 WINDSOR CT, AMES, USA",42.0355439219536,-93.67104108534794,WINDSOR_CT,Sawyer_WINDSOR_CT
910201020,87000,IDOTRR,"1224 LINCOLN WAY, AMES, USA",42.02278728571429,-93.6272573265306,LINCOLN_WAY,IDOTRR_LINCOLN_WAY
905103060,121500,Sawyer,"3925 ROSS RD, AMES, USA",42.03238033177932,-93.67266393241763,ROSS_RD,Sawyer_ROSS_RD
923228110,80000,MeadowV,"632 MEADOW PL, AMES, USA",41.992184963279854,-93.60301436490518,MEADOW_PL,MeadowV_MEADOW_PL
904100170,131000,Sawyer,"2925 ROSS RD, AMES, USA",42.0334156649055,-93.6580366031701,ROSS_RD,Sawyer_ROSS_RD
533242090,301000,Somerst,"2311 CAMDEN DR, AMES, USA",42.04614997430092,-93.6400583554058,CAMDEN_DR,Somerst_CAMDEN_DR
528456180,252678,Somerst,"2811 ASPEN RD, AMES, USA",42.05089477002044,-93.64654466536167,ASPEN_RD,Somerst_ASPEN_RD
907285100,237000,CollgCr,"4520 CLEMENS BLVD, AMES, USA",42.01785941350981,-93.6800134289633,CLEMENS_BLVD,CollgCr_CLEMENS_BLVD
535104020,163000,NAmes,"2619 KELLOGG AVE, AMES, USA",42.04781114704566,-93.6167052407816,KELLOGG_AVE,NAmes_KELLOGG_AVE
528439040,260000,Somerst,"2607 YORKSHIRE ST, AMES, USA",42.053192821097824,-93.64354139484782,YORKSHIRE_ST,Somerst_YORKSHIRE_ST
528439040,260000,Somerst,"2607 YORKSHIRE ST, AMES, USA",42.053192821097824,-93.64354139484782,YORKSHIRE_ST,Somerst_YORKSHIRE_ST
908225320,113000,Edwards,"148 S FRANKLIN AVE, AMES, USA",42.021705410251386,-93.66465472502972,S_FRANKLIN_AVE,Edwards_S_FRANKLIN_AVE
527216070,538000,StoneBr,"4126 LAURA CT, AMES, USA",42.060878739096815,-93.62613914098549,LAURA_CT,StoneBr_LAURA_CT
527451290,85400,BrDale,"1358 BARKLEY CT, AMES, USA",42.05167192812549,-93.62770173042392,BARKLEY_CT,BrDale_BARKLEY_CT
907410050,213500,CollgCr,"839 POE AVE, AMES, USA",42.014511424224295,-93.6839763848764,POE_AVE,CollgCr_POE_AVE
909254050,231000,Crawfor,"603 ASH AVE, AMES, USA",42.0118554,-93.6456983,ASH_AVE,Crawfor_ASH_AVE
531373060,192500,SawyerW,"5426 TENNESSEE ST, AMES, USA",42.03512185445334,-93.69195838073595,TENNESSEE_ST,SawyerW_TENNESSEE_ST
534451130,79900,BrkSide,"1414 SUMMIT AVE, AMES, USA",42.0355057683593,-93.62930107326687,SUMMIT_AVE,BrkSide_SUMMIT_AVE
902206220,129000,OldTown,"916 DUFF AVE, AMES, USA",42.03078187127208,-93.61044502247243,DUFF_AVE,OldTown_DUFF_AVE
527164020,166000,Gilbert,"3823 COLUMBINE AVE, AMES, USA",42.05826323456243,-93.63585790740748,COLUMBINE_AVE,Gilbert_COLUMBINE_AVE
527107130,189000,Gilbert,"1952 WYNGATE DR, AMES, USA",42.06162008936728,-93.63567359736632,WYNGATE_DR,Gilbert_WYNGATE_DR
923225200,129500,MeadowV,"3448 SOUTHDALE DR, AMES, USA",41.9909172685874,-93.60414456756044,SOUTHDALE_DR,MeadowV_SOUTHDALE_DR
909251030,136500,Crawfor,"2328 BAKER ST, AMES, USA",42.01788028571429,-93.64704514285714,BAKER_ST,Crawfor_BAKER_ST
907194130,192500,CollgCr,"5408 CLEMENS BLVD, AMES, USA",42.0162024251408,-93.69133679337207,CLEMENS_BLVD,CollgCr_CLEMENS_BLVD
907250070,250000,CollgCr,"5115 CLEMENS BLVD, AMES, USA",42.01711058562838,-93.6879923077972,CLEMENS_BLVD,CollgCr_CLEMENS_BLVD
903454080,119500,IDOTRR,"1207 N 2ND ST, AMES, USA",42.02410591836735,-93.62703997959184,N_2ND_ST,IDOTRR_N_2ND_ST
534250335,170000,NWAmes,"2313 MCKINLEY CIR, AMES, USA",42.04470455277747,-93.62980991056968,MCKINLEY_CIR,NWAmes_MCKINLEY_CIR
528108130,404000,NridgHt,"3107 STOCKBURY ST, AMES, USA",42.06226769607274,-93.65441192506609,STOCKBURY_ST,NridgHt_STOCKBURY_ST
923230010,157000,Mitchel,"601 GARDEN RD, AMES, USA",41.9882466,-93.6027426,GARDEN_RD,Mitchel_GARDEN_RD
909281030,104000,Crawfor,"2006 KILDEE ST, AMES, USA",42.0174931964112,-93.63963199612056,KILDEE_ST,Crawfor_KILDEE_ST
527451320,112000,BrDale,"1346 BARKLEY CT, AMES, USA",42.05167520656314,-93.62762874955108,BARKLEY_CT,BrDale_BARKLEY_CT
535303110,131000,NAmes,"608 DURRELL CIR, AMES, USA",42.039664625,-93.61868875,DURRELL_CIR,NAmes_DURRELL_CIR
528456200,198600,Somerst,"2823 ASPEN RD, AMES, USA",42.05101239213435,-93.64681678195528,ASPEN_RD,Somerst_ASPEN_RD
528120010,260116,NridgHt,"4120 VALLEY VIEW RD, AMES, USA",42.060677470545,-93.65539242272703,VALLEY_VIEW_RD,NridgHt_VALLEY_VIEW_RD
902207170,99500,OldTown,"911 MAXWELL AVE, AMES, USA",42.03030776829692,-93.6068260153733,MAXWELL_AVE,OldTown_MAXWELL_AVE
923204140,143000,Mitchel,"3310 OPAL DR 3312, AMES, USA",41.99308116084478,-93.60743936126562,OPAL_DR,Mitchel_OPAL_DR
906223080,239900,SawyerW,"1002 VERMONT CT, AMES, USA",42.03074334854461,-93.68199346256552,VERMONT_CT,SawyerW_VERMONT_CT
532378050,120875,Sawyer,"3900 WINDSOR CT, AMES, USA",42.0355977,-93.6709053,WINDSOR_CT,Sawyer_WINDSOR_CT
906204140,228500,SawyerW,"1102 IDAHO AVE, AMES, USA",42.03220343981452,-93.68319406749146,IDAHO_AVE,SawyerW_IDAHO_AVE
923202137,146000,Mitchel,"107 GARDEN RD, AMES, USA",41.99006190909091,-93.60997548484848,GARDEN_RD,Mitchel_GARDEN_RD
