PID,SalePrice,Neighborhood,Prop_Addr,Latitude,Longitude,Street_name,Neighborhood_st,Street_type,Neg_Loc_Dist,Pos_Loc_Dist,Street_10_Quantiles,Street_20_Quantiles,Street_30_Quantiles,Street_50_Quantiles
909176150,126000,SWISU,"436 HAYWARD AVE, AMES, USA",42.0178137,-93.6514276,HAYWARD_AVE,SWISU_HAYWARD_AVE,AVE,1.469069712127654,1.357705072903414,group_4,group_7,group_11,group_17
905476230,139500,Edwards,"3416 WEST ST, AMES, USA",42.0247087,-93.6641683,WEST_ST,Edwards_WEST_ST,ST,2.7648185487859305,1.606531744831854,group_2,group_3,group_5,group_8
911128020,124900,IDOTRR,"320 S 2ND ST, AMES, USA",42.0214065,-93.614914,S_2ND_ST,IDOTRR_S_2ND_ST,ST,1.3431713595611845,1.919875255921294,group_2,group_3,group_5,group_8
535377150,114000,OldTown,"1524 DOUGLAS AVE, AMES, USA",42.0380884,-93.6120847,DOUGLAS_AVE,OldTown_DOUGLAS_AVE,AVE,0.6293237043755702,3.102194558964112,group_3,group_6,group_8,group_13
534177230,227000,NWAmes,"2304 FILLMORE AVE, AMES, USA",42.0449,-93.6318933,FILLMORE_AVE,NWAmes_FILLMORE_AVE,AVE,1.8051011411578568,1.878609326907505,group_7,group_14,group_21,group_35
908128060,198500,Edwards,"4003 MARIGOLD DR, AMES, USA",42.0191276,-93.671633,MARIGOLD_DR,Edwards_MARIGOLD_DR,DR,3.0801945394956727,2.478931035648172,group_5,group_9,group_13,group_22
902135020,93000,OldTown,"212 10TH ST, AMES, USA",42.0310516,-93.6128959,10TH_ST,OldTown_10TH_ST,ST,0.3935678094326139,2.6882593169857194,group_2,group_3,group_4,group_6
528228540,187687,Blmngtn,"2431 LAKESIDE DR, AMES, USA",42.0633944,-93.6427614,LAKESIDE_DR,Blmngtn_LAKESIDE_DR,DR,3.181794865782915,3.315663750723125,group_8,group_15,group_22,group_36
923426010,137500,Mitchel,"602 KEN MARIL RD, AMES, USA",41.9863363,-93.6036175,KEN_MARIL_RD,Mitchel_KEN_MARIL_RD,RD,3.8626594548521913,4.062062148253074,group_3,group_5,group_7,group_12
908186050,140000,Edwards,"3901 MARIGOLD DR, AMES, USA",42.0190808,-93.6704046,MARIGOLD_DR,Edwards_MARIGOLD_DR,DR,2.9812464992902363,2.4077294925116663,group_5,group_9,group_13,group_22
528186170,219500,NridgHt,"3629 CHILTON AVE, AMES, USA",42.057112,-93.6514196,CHILTON_AVE,NridgHt_CHILTON_AVE,AVE,3.5943830882771004,2.5800354913786414,group_8,group_15,group_22,group_36
923426070,136000,Mitchel,"700 KEN MARIL RD, AMES, USA",41.98636219999999,-93.6021734,KEN_MARIL_RD,Mitchel_KEN_MARIL_RD,RD,3.943650491917353,4.139162683681423,group_3,group_5,group_7,group_12
902204080,80000,OldTown,"1102 CARROLL AVE, AMES, USA",42.032241,-93.6086421,CARROLL_AVE,OldTown_CARROLL_AVE,AVE,0.6559415816770615,3.033860908339014,group_2,group_3,group_4,group_7
535105100,159000,NAmes,"2519 KELLOGG AVE, AMES, USA",42.0472521,-93.6159336,KELLOGG_AVE,NAmes_KELLOGG_AVE,AVE,0.6100328237516318,3.121771840196098,group_4,group_7,group_11,group_18
907405020,214000,CollgCr,"812 TENNYSON AVE, AMES, USA",42.0157588,-93.6875614,TENNYSON_AVE,CollgCr_TENNYSON_AVE,AVE,4.3042500812037465,3.757828195961992,group_7,group_14,group_21,group_35
531382110,163000,SawyerW,"5220 MARYLAND ST, AMES, USA",42.035743,-93.6899481,MARYLAND_ST,SawyerW_MARYLAND_ST,ST,5.221528690345378,3.3682456530788074,group_7,group_13,group_20,group_32
906380120,203000,CollgCr,"319 HARTFORD DR, AMES, USA",42.0251892,-93.689414,HARTFORD_DR,CollgCr_HARTFORD_DR,DR,4.683794866720283,3.4591362133911274,group_8,group_15,group_23,group_37
909101060,67000,Edwards,"2910 WOOD ST, AMES, USA",42.0219435,-93.6578284,WOOD_ST,Edwards_WOOD_ST,ST,2.1578032443524457,1.5135911936685085,group_1,group_2,group_2,group_3
534152050,205000,NWAmes,"2102 PRAIRIE VIEW EAST, AMES, USA",42.0427279,-93.6364656,PRAIRIE_VIEW_EAST,NWAmes_PRAIRIE_VIEW_EAST,EAST,1.951545319580712,1.435722770907936,group_8,group_15,group_22,group_36
923252075,131250,Mitchel,"424 TEAGARDEN DR, AMES, USA",41.9874181,-93.6054967,TEAGARDEN_DR,Mitchel_TEAGARDEN_DR,DR,3.668637799466166,3.869592340990364,group_3,group_5,group_7,group_11
531376060,181000,SawyerW,"1514 CALIFORNIA AVE, AMES, USA",42.0373615,-93.6909696,CALIFORNIA_AVE,SawyerW_CALIFORNIA_AVE,AVE,5.387657847937751,3.46738309663934,group_7,group_13,group_19,group_31
902201120,115000,OldTown,"1216 CARROLL AVE, AMES, USA",42.0338407,-93.6087163,CARROLL_AVE,OldTown_CARROLL_AVE,AVE,0.6378564433466473,3.151701063923448,group_2,group_3,group_4,group_7
923228080,98000,MeadowV,"626 MEADOW PL, AMES, USA",41.99235729999999,-93.6023632,MEADOW_PL,MeadowV_MEADOW_PL,PL,3.489282358582221,3.661202705275949,group_1,group_1,group_1,group_2
902326030,265979,OldTown,"829 DOUGLAS AVE, AMES, USA",42.0299362,-93.612577,DOUGLAS_AVE,OldTown_DOUGLAS_AVE,AVE,0.5020144286714968,2.6210970606083146,group_3,group_6,group_8,group_13
527451330,105500,BrDale,"1342 BARKLEY CT, AMES, USA",42.05142499999999,-93.6283738,BARKLEY_CT,BrDale_BARKLEY_CT,CT,1.6038657173996067,2.59547948595198,group_1,group_2,group_2,group_4
528218100,168165,Gilbert,"4205 CRESTMOOR AVE, AMES, USA",42.0619931,-93.6457501,CRESTMOOR_AVE,Gilbert_CRESTMOOR_AVE,AVE,3.3308229211869307,3.1297320693397466,group_6,group_12,group_17,group_28
916386140,201000,Timber,"3028 COTTONTAIL LN, AMES, USA",41.9943624,-93.650251,COTTONTAIL_LN,Timber_COTTONTAIL_LN,LN,2.254811122698078,2.47846345291434,group_8,group_16,group_24,group_40
533221090,177500,Somerst,"2711 HAMPTON ST, AMES, USA",42.0461999,-93.6459407,HAMPTON_ST,Somerst_HAMPTON_ST,ST,2.82104463213679,1.3872857804134595,group_6,group_11,group_16,group_27
534128010,200000,NWAmes,"1636 JOHNSON ST, AMES, USA",42.0489612,-93.6329225,JOHNSON_ST,NWAmes_JOHNSON_ST,ST,1.96435289145886,2.143559418468988,group_4,group_8,group_12,group_20
528106110,450000,NridgHt,"3331 WESTON DR, AMES, USA",42.0614353,-93.6578482,WESTON_DR,NridgHt_WESTON_DR,DR,4.237997428992132,2.5815090438119297,group_10,group_20,group_29,group_48
902206260,91300,OldTown,"926 DUFF AVE, AMES, USA",42.0311722,-93.6102843,DUFF_AVE,OldTown_DUFF_AVE,AVE,0.5657373389917898,2.8535525782536038,group_5,group_10,group_14,group_23
528222090,173500,Gilbert,"4302 WELBECK DR, AMES, USA",42.0632601,-93.6441465,WELBECK_DR,Gilbert_WELBECK_DR,DR,3.2749872144972616,3.284346044047913,group_6,group_12,group_18,group_30
528218150,199500,Gilbert,"4103 CRESTMOOR AVE, AMES, USA",42.061763,-93.6444831,CRESTMOOR_AVE,Gilbert_CRESTMOOR_AVE,AVE,3.225219195461276,3.115695034024634,group_6,group_12,group_17,group_28
903400180,207000,BrkSide,"816 BROOKRIDGE AVE, AMES, USA",42.0294103,-93.627195,BROOKRIDGE_AVE,BrkSide_BROOKRIDGE_AVE,AVE,0.996081142206668,1.8654392439996312,group_7,group_13,group_20,group_32
535453210,155000,NAmes,"1522 MAXWELL AVE, AMES, USA",42.0376592,-93.6065371,MAXWELL_AVE,NAmes_MAXWELL_AVE,AVE,0.9417681095910014,3.55014591416109,group_2,group_4,group_5,group_9
916386010,220000,Timber,"3005 CEDAR LN, AMES, USA",41.99515710000001,-93.6494563,CEDAR_LN,Timber_CEDAR_LN,LN,2.1450808261897367,2.369468078028365,group_6,group_12,group_18,group_29
907181090,196000,CollgCr,"5408 CERVANTES DR, AMES, USA",42.0169302,-93.692,CERVANTES_DR,CollgCr_CERVANTES_DR,DR,4.683754089914388,4.008295565160612,group_7,group_14,group_21,group_35
902206020,61500,OldTown,"118 E 11TH ST, AMES, USA",42.0318476,-93.6096908,E_11TH_ST,OldTown_E_11TH_ST,ST,0.5830982450762503,2.940418385373858,group_1,group_1,group_1,group_2
527327050,195000,NWAmes,"3323 BUCHANAN CT, AMES, USA",42.0549831,-93.6317746,BUCHANAN_CT,NWAmes_BUCHANAN_CT,CT,1.9689894295503625,2.745977008216843,group_7,group_13,group_19,group_32
527455250,129250,NAmes,"1115 28TH ST, AMES, USA",42.0488372,-93.6258371,28TH_ST,NAmes_28TH_ST,ST,1.3801435552649244,2.543191331906673,group_2,group_4,group_5,group_8
528326110,291000,NoRidge,"3013 ALMOND RD, AMES, USA",42.0559073,-93.6513731,ALMOND_RD,NoRidge_ALMOND_RD,RD,3.561104895759723,2.4461445278514327,group_10,group_19,group_29,group_47
914452190,134000,Mitchel,"302 OPAL CIR, AMES, USA",41.99400960000001,-93.6073563,OPAL_CIR,Mitchel_OPAL_CIR,CIR,3.0523447209678807,3.231707880959772,group_5,group_9,group_13,group_22
535425060,186000,NAmes,"1903 MEADOWLANE AVE, AMES, USA",42.041387,-93.6054374,MEADOWLANE_AVE,NAmes_MEADOWLANE_AVE,AVE,0.942844873374174,3.7099623827543695,group_5,group_9,group_14,group_22
532376250,133500,Sawyer,"4015 TORONTO ST, AMES, USA",42.0360605,-93.6731014,TORONTO_ST,Sawyer_TORONTO_ST,ST,4.115421958284499,1.984803289404265,group_2,group_4,group_5,group_9
535379110,148000,OldTown,"1412 KELLOGG AVE, AMES, USA",42.0362061,-93.6136534,KELLOGG_AVE,OldTown_KELLOGG_AVE,AVE,0.3836952836348092,2.9491677732814154,group_4,group_7,group_11,group_18
528118010,325300,NridgHt,"3335 PRESTON CIR, AMES, USA",42.0605784,-93.6580859,PRESTON_CIR,NridgHt_PRESTON_CIR,CIR,4.227681362873315,2.6140907403229097,group_10,group_20,group_30,group_49
528235160,215000,Gilbert,"3908 WELBECK DR, AMES, USA",42.060362,-93.643612,WELBECK_DR,Gilbert_WELBECK_DR,DR,3.095787386852283,2.9716029425210637,group_6,group_12,group_18,group_30
905478030,131000,Edwards,"3218 WEST ST, AMES, USA",42.0247339,-93.6609761,WEST_ST,Edwards_WEST_ST,ST,2.546505706635105,1.412190455575023,group_2,group_3,group_5,group_8
902106130,109500,OldTown,"1010 GRAND AVE, AMES, USA",42.0315967,-93.620085,GRAND_AVE,OldTown_GRAND_AVE,AVE,0.3651912431097929,2.358327580109568,group_2,group_4,group_6,group_9
902102080,110000,OldTown,"1203 BURNETT AVE, AMES, USA",42.0334395,-93.6158934,BURNETT_AVE,OldTown_BURNETT_AVE,AVE,0.0434965167857475,2.726020449135143,group_3,group_5,group_7,group_11
909176170,150000,SWISU,"426 HAYWARD AVE, AMES, USA",42.0181435,-93.6514063,HAYWARD_AVE,SWISU_HAYWARD_AVE,AVE,1.4852732476929829,1.3681966236058551,group_4,group_7,group_11,group_17
533206070,193800,Somerst,"2807 BRISTOL DR, AMES, USA",42.04740470000001,-93.647158,BRISTOL_DR,Somerst_BRISTOL_DR,DR,2.9760223836084823,1.504128906671533,group_7,group_13,group_19,group_32
527302020,178000,NWAmes,"3414 EISENHOWER AVE, AMES, USA",42.0559751,-93.6376533,EISENHOWER_AVE,NWAmes_EISENHOWER_AVE,AVE,2.464867983876474,2.627533292837481,group_6,group_12,group_18,group_29
907414060,179600,CollgCr,"4824 WALLER ST, AMES, USA",42.0135799,-93.6854088,WALLER_ST,CollgCr_WALLER_ST,ST,4.107169205904199,3.7506135025492258,group_7,group_13,group_19,group_31
904301060,179000,Edwards,"3012 OAKLAND ST, AMES, USA",42.0279523,-93.6587049,OAKLAND_ST,Edwards_OAKLAND_ST,ST,2.6297720840899608,1.0290376294011494,group_7,group_14,group_20,group_34
532479020,140000,Sawyer,"1306 SCOTT CIR, AMES, USA",42.0346903,-93.6603237,SCOTT_CIR,Sawyer_SCOTT_CIR,CIR,3.2763055951298106,0.9193442542908214,group_3,group_5,group_8,group_13
528110070,395000,NridgHt,"3207 STOCKBURY ST, AMES, USA",42.0624057,-93.6562829,STOCKBURY_ST,NridgHt_STOCKBURY_ST,ST,4.151858941414391,2.643678825473456,group_10,group_20,group_30,group_49
534429130,151500,NAmes,"808 NARLAND DR, AMES, USA",42.0400002,-93.6219188,NARLAND_DR,NAmes_NARLAND_DR,DR,0.8598365078052391,2.353603975663143,group_5,group_9,group_13,group_21
528365060,341000,NoRidge,"2900 RIDGETOP RD, AMES, USA",42.0497012,-93.6558878,RIDGETOP_RD,NoRidge_RIDGETOP_RD,RD,3.7275466085237383,1.8339013685433267,group_10,group_20,group_30,group_49
533135020,235000,NoRidge,"2614 SOUTHRIDGE CIR, AMES, USA",42.0473148,-93.6501653,SOUTHRIDGE_CIR,NoRidge_SOUTHRIDGE_CIR,CIR,3.185630906854118,1.486307716547325,group_8,group_16,group_24,group_40
910203100,72000,IDOTRR,"301 S RUSSELL AVE, AMES, USA",42.020356,-93.6286474,S_RUSSELL_AVE,IDOTRR_S_RUSSELL_AVE,AVE,1.1424265329931511,0.9312021071218224,group_1,group_2,group_3,group_5
905451390,154000,Edwards,"310 WESTWOOD DR, AMES, USA",42.0249815,-93.6671716,WESTWOOD_DR,Edwards_WESTWOOD_DR,DR,2.9932422842374717,1.7868602428808311,group_4,group_8,group_11,group_19
533213010,222000,Somerst,"2805 BRISTOL DR, AMES, USA",42.04734080000001,-93.6470222,BRISTOL_DR,Somerst_BRISTOL_DR,DR,2.9627490556190867,1.4983963987937208,group_7,group_13,group_19,group_32
528118030,390000,NridgHt,"3317 PRESTON CIR, AMES, USA",42.060601,-93.657373,PRESTON_CIR,NridgHt_PRESTON_CIR,CIR,4.172204248255631,2.662756550247464,group_10,group_20,group_30,group_49
907200340,128200,CollgCr,"5203 SCHUBERT ST, AMES, USA",42.0215207,-93.6880171,SCHUBERT_ST,CollgCr_SCHUBERT_ST,ST,4.456304460930348,3.489461892561177,group_4,group_7,group_11,group_18
528164060,615000,NridgHt,"3320 FOXLEY DR, AMES, USA",42.0582794,-93.6575314,FOXLEY_DR,NridgHt_FOXLEY_DR,DR,4.115367756424592,2.7889774274848453,group_10,group_20,group_30,group_50
907202010,158000,CollgCr,"410 THACKERAY AVE, AMES, USA",42.0194027,-93.6865905,THACKERAY_AVE,CollgCr_THACKERAY_AVE,AVE,4.288240210963005,3.4846687051723664,group_4,group_8,group_12,group_19
528186180,254000,NridgHt,"3623 CHILTON AVE, AMES, USA",42.056956,-93.6514172,CHILTON_AVE,NridgHt_CHILTON_AVE,AVE,3.590099952663983,2.562717871202758,group_8,group_15,group_22,group_36
909250060,169000,SWISU,"2320 KNAPP ST, AMES, USA",42.0188665,-93.6473482,KNAPP_ST,SWISU_KNAPP_ST,ST,1.2556510910632246,1.0976584520216068,group_4,group_8,group_12,group_20
528315060,284500,NoRidge,"3142 BAYBERRY RD, AMES, USA",42.0541845,-93.655769,BAYBERRY_RD,NoRidge_BAYBERRY_RD,RD,3.886467651340674,2.312036870416589,group_10,group_19,group_28,group_47
528231020,184500,Gilbert,"3917 WELBECK DR, AMES, USA",42.0607343,-93.6440475,WELBECK_DR,Gilbert_WELBECK_DR,DR,3.145214575443398,3.00716662788246,group_6,group_12,group_18,group_30
528456230,210400,Somerst,"2841 ASPEN RD, AMES, USA",42.0514954,-93.6477508,ASPEN_RD,Somerst_ASPEN_RD,RD,3.196474116469171,1.9530325714560288,group_9,group_17,group_26,group_43
907180120,214000,CollgCr,"5325 CERVANTES DR, AMES, USA",42.0175616,-93.6909894,CERVANTES_DR,CollgCr_CERVANTES_DR,DR,4.610591238167189,3.901598461343959,group_7,group_14,group_21,group_35
911370410,392500,Crawfor,"433 ASPEN RIDGE RD, AMES, USA",42.009536,-93.616112,ASPEN_RIDGE_RD,Crawfor_ASPEN_RIDGE_RD,RD,1.6395996206066048,1.7021433989230874,group_10,group_19,group_28,group_47
527108090,274725,Gilbert,"4316 HARRISON CIR, AMES, USA",42.0632242,-93.6361291,HARRISON_CIR,Gilbert_HARRISON_CIR,CIR,2.706523183786334,3.4286274399211023,group_9,group_18,group_27,group_45
528222050,156932,Gilbert,"4210 WELBECK DR, AMES, USA",42.06250660000001,-93.6441663,WELBECK_DR,Gilbert_WELBECK_DR,DR,3.237901352696198,3.20105308539059,group_6,group_12,group_18,group_30
528429110,282922,Somerst,"2416 DALTON CIR, AMES, USA",42.0539704,-93.6418268,DALTON_CIR,Somerst_DALTON_CIR,CIR,2.7461149880940154,2.3069781852127424,group_10,group_19,group_29,group_48
902328100,144000,OldTown,"704 BURNETT AVE, AMES, USA",42.0281019,-93.6151712,BURNETT_AVE,OldTown_BURNETT_AVE,AVE,0.6018080153916019,2.325300313342225,group_3,group_5,group_7,group_11
527451410,88000,BrDale,"1314 BARKLEY CT, AMES, USA",42.0515587,-93.6275139,BARKLEY_CT,BrDale_BARKLEY_CT,CT,1.535837815317957,2.6540813071058897,group_1,group_2,group_2,group_4
914476130,148000,Mitchel,"3007 DIAMOND ST, AMES, USA",41.9957922,-93.6013777,DIAMOND_ST,Mitchel_DIAMOND_ST,ST,3.33864170954936,3.4894064515927488,group_5,group_10,group_14,group_23
535453020,159000,NAmes,"1523 GLENDALE AVE, AMES, USA",42.0377486,-93.6061567,GLENDALE_AVE,NAmes_GLENDALE_AVE,AVE,0.9739802208359752,3.5825041747045243,group_4,group_8,group_12,group_20
535379100,120000,OldTown,"1408 KELLOGG AVE, AMES, USA",42.03604869999999,-93.6136873,KELLOGG_AVE,OldTown_KELLOGG_AVE,AVE,0.3680585405766117,2.944953663228775,group_4,group_7,group_11,group_18
905108190,134900,Sawyer,"934 MESA VERDE PL, AMES, USA",42.0309136,-93.6707607,MESA_VERDE_PL,Sawyer_MESA_VERDE_PL,PL,3.6042017400698456,1.8099575247986892,group_4,group_8,group_11,group_19
905201110,185000,Sawyer,"1124 SCHOLL RD, AMES, USA",42.0331459,-93.6651561,SCHOLL_RD,Sawyer_SCHOLL_RD,RD,3.4144663170906,1.3180892301157805,group_4,group_8,group_12,group_19
903227090,132500,BrkSide,"1206 MARSTON AVE, AMES, USA",42.033576,-93.623368,MARSTON_AVE,BrkSide_MARSTON_AVE,AVE,0.5740561599637337,2.1368002590771304,group_2,group_4,group_5,group_9
905107300,160500,Sawyer,"3902 ARKANSAS DR, AMES, USA",42.0313011,-93.6721282,ARKANSAS_DR,Sawyer_ARKANSAS_DR,DR,3.720672068460052,1.913866368734359,group_5,group_10,group_15,group_24
903401070,165000,BrkSide,"611 RIDGEWOOD AVE, AMES, USA",42.0272871,-93.6257184,RIDGEWOOD_AVE,BrkSide_RIDGEWOOD_AVE,AVE,1.0281048816185585,1.706301850882577,group_3,group_5,group_8,group_13
903230100,100000,BrkSide,"1015 CURTISS AVE, AMES, USA",42.0318708,-93.6249268,CURTISS_AVE,BrkSide_CURTISS_AVE,AVE,0.7237726559342851,2.0211180861774385,group_2,group_3,group_5,group_8
527105010,189900,Gilbert,"4025 BERKSHIRE AVE, AMES, USA",42.0612335,-93.6392567,BERKSHIRE_AVE,Gilbert_BERKSHIRE_AVE,AVE,2.812782103853415,3.1419670399497925,group_7,group_13,group_19,group_31
528480020,227875,Somerst,"2616 KINGSTON DR, AMES, USA",42.0520027,-93.6442059,KINGSTON_DR,Somerst_KINGSTON_DR,DR,2.9096670044396555,2.0481380901088104,group_9,group_18,group_26,group_43
527402130,111900,NAmes,"1217 JEFFERSON ST, AMES, USA",42.05553039999999,-93.6271032,JEFFERSON_ST,NAmes_JEFFERSON_ST,ST,1.6319278645889554,3.014906552196699,group_3,group_6,group_9,group_15
909251080,145000,Crawfor,"507 LYNN AVE, AMES, USA",42.0176227,-93.6466608,LYNN_AVE,Crawfor_LYNN_AVE,AVE,1.1248822580522382,0.98341239572895,group_4,group_8,group_12,group_19
908201120,118000,Edwards,"3411 TRIPP ST, AMES, USA",42.0202874,-93.6653077,TRIPP_ST,Edwards_TRIPP_ST,ST,2.626430605496589,2.018886862436452,group_1,group_1,group_2,group_2
533221080,166000,Somerst,"2713 HAMPTON ST, AMES, USA",42.0461974,-93.6460199,HAMPTON_ST,Somerst_HAMPTON_ST,ST,2.8265591813879807,1.3857451765599482,group_6,group_11,group_16,group_27
535178100,148000,NAmes,"2004 BURNETT AVE, AMES, USA",42.0423026,-93.6156461,BURNETT_AVE,NAmes_BURNETT_AVE,AVE,0.9554368499445236,2.924714703695508,group_3,group_5,group_7,group_11
535457050,99000,NAmes,"1302 MAXWELL AVE, AMES, USA",42.0347237,-93.6065432,MAXWELL_AVE,NAmes_MAXWELL_AVE,AVE,0.8282327650795432,3.34885214638626,group_2,group_4,group_5,group_9
923226270,86000,MeadowV,"615 MEADOW PL, AMES, USA",41.9924315,-93.6030033,MEADOW_PL,MeadowV_MEADOW_PL,PL,3.4424859356743487,3.615933621412388,group_1,group_1,group_1,group_2
535105090,165000,NAmes,"2527 KELLOGG AVE, AMES, USA",42.0474443,-93.6161012,KELLOGG_AVE,NAmes_KELLOGG_AVE,AVE,0.6148712968670542,3.119792708082844,group_4,group_7,group_11,group_18
533253070,211500,Greens,"2024 PINEHURST DR, AMES, USA",42.0425381,-93.649091,PINEHURST_DR,Greens_PINEHURST_DR,DR,2.88178617818797,0.9532495296663468,group_6,group_12,group_18,group_30
907280170,210000,CollgCr,"4619 CLEMENS BLVD, AMES, USA",42.0181653,-93.6817957,CLEMENS_BLVD,CollgCr_CLEMENS_BLVD,BLVD,3.8728182882301394,3.212542083940701,group_8,group_15,group_22,group_37
914476450,228500,Mitchel,"703 ONYX ST, AMES, USA",41.996198,-93.6025151,ONYX_ST,Mitchel_ONYX_ST,ST,3.2349720787462948,3.386661551288412,group_8,group_15,group_22,group_37
535327200,132000,NAmes,"1624 DOUGLAS AVE, AMES, USA",42.0392609,-93.6120116,DOUGLAS_AVE,NAmes_DOUGLAS_AVE,AVE,0.7432058198081068,3.1300228627152915,group_3,group_6,group_8,group_13
528441090,468000,Somerst,"2426 YORKSHIRE CIR, AMES, USA",42.05290790000001,-93.64184,YORKSHIRE_CIR,Somerst_YORKSHIRE_CIR,CIR,2.7278632906205256,2.19298427442451,group_10,group_19,group_29,group_48
906426195,240000,ClearCr,"601 CHELSEA CT, AMES, USA",42.0273795,-93.6793984,CHELSEA_CT,ClearCr_CHELSEA_CT,CT,4.010863840500556,2.5967432088058096,group_8,group_16,group_24,group_40
534275170,151500,NAmes,"2009 ROOSEVELT CIR, AMES, USA",42.0425162,-93.623917,ROOSEVELT_CIR,NAmes_ROOSEVELT_CIR,CIR,1.1845763927616086,2.2968780403929583,group_5,group_9,group_13,group_21
923226180,73000,MeadowV,"633 MEADOW PL, AMES, USA",41.9926804,-93.6021997,MEADOW_PL,MeadowV_MEADOW_PL,PL,3.478184883749336,3.64806251339076,group_1,group_1,group_1,group_2
923226320,75500,MeadowV,"605 MEADOW PL, AMES, USA",41.9923091,-93.6033731,MEADOW_PL,MeadowV_MEADOW_PL,PL,3.426986196306109,3.602118047006272,group_1,group_1,group_1,group_2
528118050,500067,NridgHt,"3305 PRESTON CIR, AMES, USA",42.0603523,-93.656625,PRESTON_CIR,NridgHt_PRESTON_CIR,CIR,4.105024838547212,2.729872597905367,group_10,group_20,group_30,group_49
904300150,107500,ClearCr,"3021 OAKLAND ST, AMES, USA",42.0283927,-93.6591355,OAKLAND_ST,ClearCr_OAKLAND_ST,ST,2.689377217446621,1.0260209689509128,group_7,group_14,group_20,group_34
533236050,172500,Somerst,"2510 BRISTOL DR, AMES, USA",42.0469551,-93.6428598,BRISTOL_DR,Somerst_BRISTOL_DR,DR,2.651017293950432,1.5372853333656535,group_7,group_13,group_19,group_32
527354160,185000,NWAmes,"2009 STEVENSON DR, AMES, USA",42.0526856,-93.63605,STEVENSON_DR,NWAmes_STEVENSON_DR,DR,2.251589336131412,2.3490881719243477,group_7,group_14,group_21,group_34
528435040,311872,Somerst,"2604 DALTON ST, AMES, USA",42.0540009,-93.643729,DALTON_ST,Somerst_DALTON_ST,ST,2.901209883065461,2.27370565999457,group_9,group_18,group_26,group_44
534129230,165150,NWAmes,"2705 HOOVER AVE, AMES, USA",42.0481679,-93.6305276,HOOVER_AVE,NWAmes_HOOVER_AVE,AVE,1.7713636460209043,2.20917125847281,group_9,group_18,group_27,group_44
535325350,125000,NAmes,"225 16TH ST, AMES, USA",42.0385094,-93.6137121,16TH_ST,NAmes_16TH_ST,ST,0.6070549417464475,2.9769103816083518,group_2,group_4,group_6,group_9
902408080,159500,OldTown,"508 CARROLL AVE, AMES, USA",42.0263664,-93.6083059,CARROLL_AVE,OldTown_CARROLL_AVE,AVE,1.0328407674822038,2.6636475387186604,group_2,group_3,group_4,group_7
916455050,180500,Timber,"2829 WHITE OAK DR, AMES, USA",41.9965599,-93.6470592,WHITE_OAK_DR,Timber_WHITE_OAK_DR,DR,1.910050384762936,2.1405429347522413,group_7,group_13,group_19,group_32
909276200,160000,Crawfor,"418 PEARSON AVE, AMES, USA",42.0187317,-93.642147,PEARSON_AVE,Crawfor_PEARSON_AVE,AVE,0.9566495770477016,0.7463946684177045,group_6,group_12,group_18,group_30
534277060,109008,NAmes,"2125 FURMAN DR, AMES, USA",42.044356,-93.6215824,FURMAN_DR,NAmes_FURMAN_DR,DR,1.17095636667436,2.5592511373214726,group_3,group_6,group_9,group_14
905107280,153000,Sawyer,"3914 ARKANSAS DR, AMES, USA",42.031094,-93.672564,ARKANSAS_DR,Sawyer_ARKANSAS_DR,DR,3.736354377361736,1.9530699149666373,group_5,group_10,group_15,group_24
923204050,132250,Mitchel,"3309 SOUTHDALE DR, AMES, USA",41.9927622,-93.605833,SOUTHDALE_DR,Mitchel_SOUTHDALE_DR,DR,3.237922405437237,3.418469798892329,group_2,group_4,group_6,group_10
531376050,184900,SawyerW,"1508 CALIFORNIA AVE, AMES, USA",42.037174,-93.6910534,CALIFORNIA_AVE,SawyerW_CALIFORNIA_AVE,AVE,5.382457209504319,3.472064045252922,group_7,group_13,group_19,group_31
903454010,127000,IDOTRR,"1218 N 3RD ST, AMES, USA",42.02501609999999,-93.6277598,N_3RD_ST,IDOTRR_N_3RD_ST,ST,1.3241651084543482,1.4037176894667769,group_1,group_2,group_3,group_5
906412010,475000,CollgCr,"532 WESTFIELD RD, AMES, USA",42.0278411,-93.6873038,WESTFIELD_RD,CollgCr_WESTFIELD_RD,RD,4.62643848041523,3.217165568948342,group_10,group_20,group_30,group_50
535301060,142000,NAmes,"1907 CLARK AVE, AMES, USA",42.041409,-93.6174788,CLARK_AVE,NAmes_CLARK_AVE,AVE,0.8910814405294978,2.7500789290488883,group_3,group_5,group_7,group_12
534453080,112000,BrkSide,"1430 RIDGEWOOD AVE, AMES, USA",42.0366226,-93.6286976,RIDGEWOOD_AVE,BrkSide_RIDGEWOOD_AVE,AVE,1.0741900904944957,1.7216782321519148,group_3,group_5,group_8,group_13
911102180,80900,IDOTRR,"202 S WALNUT AVE, AMES, USA",42.021469,-93.6166156,S_WALNUT_AVE,IDOTRR_S_WALNUT_AVE,AVE,1.330547227671139,1.7974943564381551,group_1,group_1,group_1,group_1
535403210,135000,NAmes,"1604 CARROLL AVE, AMES, USA",42.0384383,-93.6087293,CARROLL_AVE,NAmes_CARROLL_AVE,AVE,0.8444299704703253,3.382006701920236,group_2,group_3,group_4,group_7
531382120,193500,SawyerW,"5214 MARYLAND ST, AMES, USA",42.0356951,-93.6896866,MARYLAND_ST,SawyerW_MARYLAND_ST,ST,5.200276833079525,3.346377134966503,group_7,group_13,group_20,group_32
916455120,232500,Timber,"2311 SUNCREST DR, AMES, USA",41.9956317,-93.6474156,SUNCREST_DR,Timber_SUNCREST_DR,DR,2.01465428117681,2.2464125498184706,group_9,group_18,group_26,group_43
905475510,114000,Edwards,"310 COLORADO CIR, AMES, USA",42.02560039999999,-93.6632907,COLORADO_CIR,Edwards_COLORADO_CIR,CIR,2.758485178366537,1.48763865428849,group_1,group_1,group_2,group_2
916326090,257000,Timber,"2320 TIMBERLAND RD, AMES, USA",42.0004328,-93.6494525,TIMBERLAND_RD,Timber_TIMBERLAND_RD,RD,1.6751286504749126,1.8736055255025847,group_9,group_17,group_26,group_43
909101140,117000,Edwards,"2812 WOOD ST, AMES, USA",42.02195280000001,-93.656182,WOOD_ST,Edwards_WOOD_ST,ST,2.044826767622945,1.453835893403565,group_1,group_2,group_2,group_3
907260050,213000,CollgCr,"5110 CLEMENS BLVD, AMES, USA",42.0168081,-93.6879775,CLEMENS_BLVD,CollgCr_CLEMENS_BLVD,BLVD,4.352521475803463,3.725732715895393,group_8,group_15,group_22,group_37
907131090,212000,CollgCr,"5300 NORRIS ST, AMES, USA",42.020642,-93.6901175,NORRIS_ST,CollgCr_NORRIS_ST,ST,4.6021531019363495,3.687553970017961,group_6,group_11,group_16,group_26
903206160,202500,BrkSide,"910 BROOKRIDGE AVE, AMES, USA",42.0309099,-93.6272224,BROOKRIDGE_AVE,BrkSide_BROOKRIDGE_AVE,AVE,0.9352996560210536,1.8495490974786304,group_7,group_13,group_20,group_32
528222020,185101,Gilbert,"4116 WELBECK DR, AMES, USA",42.0619711,-93.6440079,WELBECK_DR,Gilbert_WELBECK_DR,DR,3.199796939814543,3.1437981017087453,group_6,group_12,group_18,group_30
526352090,167000,NAmes,"3010 KELLOGG AVE, AMES, USA",42.05193420000001,-93.6182382,KELLOGG_AVE,NAmes_KELLOGG_AVE,AVE,0.8020224877135187,3.2471175947699464,group_4,group_7,group_11,group_18
534201280,138500,NAmes,"1237 24TH ST, AMES, USA",42.0458471,-93.6275224,24TH_ST,NAmes_24TH_ST,ST,1.5686693526207285,2.227212040470029,group_4,group_7,group_10,group_16
908102330,102000,Edwards,"301 ABRAHAM DR, AMES, USA",42.0197609,-93.6766051,ABRAHAM_DR,Edwards_ABRAHAM_DR,DR,3.494824780225685,2.7578823932533805,group_2,group_3,group_4,group_6
906385010,198900,CollgCr,"5505 DURANT ST, AMES, USA",42.024786,-93.692218,DURANT_ST,CollgCr_DURANT_ST,ST,4.88986140490867,3.694053155309491,group_7,group_14,group_20,group_33
534276230,145000,NAmes,"2002 MELROSE AVE, AMES, USA",42.0422738,-93.6220174,MELROSE_AVE,NAmes_MELROSE_AVE,AVE,1.0862137638978488,2.430179697035455,group_3,group_5,group_8,group_12
906420020,220000,SawyerW,"923 VERMONT CIR, AMES, USA",42.0301319,-93.682156,VERMONT_CIR,SawyerW_VERMONT_CIR,CIR,4.3533161549992805,2.7522457193696965,group_8,group_15,group_23,group_38
527404120,126000,NAmes,"3203 GARNER AVE, AMES, USA",42.05353969999999,-93.6273412,GARNER_AVE,NAmes_GARNER_AVE,AVE,1.571478227569166,2.8294443171409456,group_3,group_5,group_7,group_11
907192010,200000,CollgCr,"5301 CLEMENS BLVD, AMES, USA",42.01698529999999,-93.6896816,CLEMENS_BLVD,CollgCr_CLEMENS_BLVD,BLVD,4.494671484058279,3.837575512170731,group_8,group_15,group_22,group_37
527131030,278000,StoneBr,"4239 STONE BROOKE RD, AMES, USA",42.06215660000001,-93.6344654,STONE_BROOKE_RD,StoneBr_STONE_BROOKE_RD,RD,2.526147341846492,3.36353527772425,group_8,group_16,group_23,group_38
527452290,145000,NAmes,"1401 JOHNSON ST, AMES, USA",42.0490763,-93.629258,JOHNSON_ST,NAmes_JOHNSON_ST,ST,1.661554133798346,2.3546891857810097,group_4,group_8,group_12,group_20
907250030,318000,CollgCr,"509 SMILEY AVE, AMES, USA",42.0181286,-93.6881011,SMILEY_AVE,CollgCr_SMILEY_AVE,AVE,4.384689576572297,3.661639053211783,group_9,group_18,group_27,group_44
909251040,146500,Crawfor,"2322 BAKER ST, AMES, USA",42.01775079999999,-93.6474926,BAKER_ST,Crawfor_BAKER_ST,ST,1.188767588545543,1.0518923693672098,group_3,group_6,group_9,group_15
535377100,86900,OldTown,"1502 DOUGLAS AVE, AMES, USA",42.0372199,-93.6120649,DOUGLAS_AVE,OldTown_DOUGLAS_AVE,AVE,0.5537040041593005,3.091046237712059,group_3,group_6,group_8,group_13
528174050,213000,NridgHt,"2910 HARRISON RD, AMES, USA",42.0589574,-93.6501841,HARRISON_RD,NridgHt_HARRISON_RD,RD,3.551217910545617,2.7800256073247174,group_9,group_18,group_26,group_43
533128090,262000,NoRidge,"2700 NORTHRIDGE CIR, AMES, USA",42.0480897,-93.6500861,NORTHRIDGE_CIR,NoRidge_NORTHRIDGE_CIR,CIR,3.222600129299119,1.5720579000997397,group_9,group_18,group_26,group_43
533250110,217500,Veenker,"2869 GREENSBORO CIR, AMES, USA",42.0451331,-93.6490399,GREENSBORO_CIR,Veenker_GREENSBORO_CIR,CIR,2.9915081511770314,1.2418311049814093,group_9,group_18,group_26,group_44
908186040,148000,Edwards,"3905 MARIGOLD DR, AMES, USA",42.0190809,-93.6705072,MARIGOLD_DR,Edwards_MARIGOLD_DR,DR,2.989385531782848,2.413883615289961,group_5,group_9,group_13,group_22
903231050,113000,BrkSide,"1113 MARSTON AVE, AMES, USA",42.0325624,-93.6238185,MARSTON_AVE,BrkSide_MARSTON_AVE,AVE,0.6186890932250785,2.104964059504024,group_2,group_4,group_5,group_9
908152110,160500,Edwards,"414 WELLONS DR, AMES, USA",42.0188084,-93.6749895,WELLONS_DR,Edwards_WELLONS_DR,DR,3.3390229122143125,2.7140774150421274,group_4,group_7,group_11,group_18
535476110,145000,NAmes,"1603 MEADOWLANE AVE, AMES, USA",42.0383204,-93.6041266,MEADOWLANE_AVE,NAmes_MEADOWLANE_AVE,AVE,1.151527996611199,3.756705008334732,group_5,group_9,group_14,group_22
533250050,245500,Veenker,"2845 GREENSBORO CIR, AMES, USA",42.0448224,-93.6478433,GREENSBORO_CIR,Veenker_GREENSBORO_CIR,CIR,2.887528346001598,1.2126369662734442,group_9,group_18,group_26,group_44
535325340,133500,NAmes,"221 16TH ST, AMES, USA",42.0385117,-93.6135097,16TH_ST,NAmes_16TH_ST,ST,0.6136451532280449,2.9934279821883982,group_2,group_4,group_6,group_9
909475050,198000,Crawfor,"2152 ASHMORE DR, AMES, USA",42.0106706,-93.6437876,ASHMORE_DR,Crawfor_ASHMORE_DR,DR,0.669507922142352,0.7483071208424016,group_9,group_18,group_27,group_44
907196020,205000,CollgCr,"5216 CLEMENS BLVD, AMES, USA",42.0167228,-93.6888295,CLEMENS_BLVD,CollgCr_CLEMENS_BLVD,BLVD,4.421041039916684,3.7911429470675904,group_8,group_15,group_22,group_37
533130160,285000,NoRidge,"2424 RIDGETOP CIR, AMES, USA",42.0461746,-93.6514127,RIDGETOP_CIR,NoRidge_RIDGETOP_CIR,CIR,3.218359648051689,1.3693964669668406,group_10,group_19,group_28,group_47
535102010,175000,NAmes,"2729 NORTHWOOD DR, AMES, USA",42.0493199,-93.6176321,NORTHWOOD_DR,NAmes_NORTHWOOD_DR,DR,0.7012603948712922,3.1186016722814083,group_7,group_14,group_20,group_34
531475220,160000,SawyerW,"1404 IDAHO AVE, AMES, USA",42.0355174,-93.6837222,IDAHO_AVE,SawyerW_IDAHO_AVE,AVE,4.7740487687971145,2.853479798002877,group_8,group_16,group_23,group_39
527325070,272000,NWAmes,"1904 BUCHANAN DR, AMES, USA",42.0544907,-93.6351394,BUCHANAN_DR,NWAmes_BUCHANAN_DR,DR,2.2198326824975068,2.5619257192177294,group_7,group_14,group_21,group_35
911175440,115000,IDOTRR,"315 S 4TH ST, AMES, USA",42.0191874,-93.6143952,S_4TH_ST,IDOTRR_S_4TH_ST,ST,1.592956053412117,1.8670788228933304,group_1,group_1,group_1,group_1
903226160,134000,BrkSide,"1222 CURTISS AVE, AMES, USA",42.0340841,-93.6244337,CURTISS_AVE,BrkSide_CURTISS_AVE,AVE,0.6657890020957058,2.048377714149736,group_2,group_3,group_5,group_8
902134100,78000,OldTown,"321 9TH ST, AMES, USA",42.0303663,-93.6150327,9TH_ST,OldTown_9TH_ST,ST,0.3598429140178916,2.510754283286492,group_3,group_6,group_9,group_15
902111010,111500,OldTown,"412 10TH ST, AMES, USA",42.0310955,-93.6164178,10TH_ST,OldTown_10TH_ST,ST,0.2600297586113357,2.495314623303763,group_2,group_3,group_4,group_6
535381040,142900,OldTown,"1311 KELLOGG AVE, AMES, USA",42.03506429999999,-93.6142809,KELLOGG_AVE,OldTown_KELLOGG_AVE,AVE,0.2531289535590572,2.8894136320214368,group_4,group_7,group_11,group_18
910202060,125500,IDOTRR,"109 S MAPLE AVE, AMES, USA",42.0223878,-93.6254809,S_MAPLE_AVE,IDOTRR_S_MAPLE_AVE,AVE,1.4383314661125322,1.2734159285236986,group_2,group_3,group_4,group_7
535477180,125500,NAmes,"1308 MEADOWLANE AVE, AMES, USA",42.034977,-93.6035186,MEADOWLANE_AVE,NAmes_MEADOWLANE_AVE,AVE,1.079246975773147,3.552194133865383,group_5,group_9,group_14,group_22
528429120,423000,Somerst,"2422 DALTON CIR, AMES, USA",42.0539988,-93.6415333,DALTON_CIR,Somerst_DALTON_CIR,CIR,2.7228920847198985,2.3165594093278035,group_10,group_19,group_29,group_48
908127050,119900,Edwards,"211 DOTSON DR, AMES, USA",42.0206676,-93.6716896,DOTSON_DR,Edwards_DOTSON_DR,DR,3.135762887062364,2.372041486174866,group_2,group_3,group_4,group_6
528439010,247000,Somerst,"2625 YORKSHIRE ST, AMES, USA",42.0533457,-93.6445622,YORKSHIRE_ST,Somerst_YORKSHIRE_ST,ST,2.9573086994981703,2.18920197091791,group_9,group_17,group_25,group_41
906223110,226500,SawyerW,"1018 VERMONT CT, AMES, USA",42.0314731,-93.6818551,VERMONT_CT,SawyerW_VERMONT_CT,CT,4.404511135304065,2.7083672598275923,group_8,group_16,group_24,group_39
528358010,260400,NoRidge,"3127 ASPEN RD, AMES, USA",42.0515811,-93.6551659,ASPEN_RD,NoRidge_ASPEN_RD,RD,3.782746862717412,2.019015590266258,group_9,group_17,group_26,group_43
532378160,135000,Sawyer,"3815 ONTARIO ST, AMES, USA",42.0347535,-93.6704643,ONTARIO_ST,Sawyer_ONTARIO_ST,ST,3.8561417104373024,1.7555007498551407,group_4,group_7,group_11,group_17
531450040,175900,SawyerW,"1309 KENTUCKY AVE, AMES, USA",42.0348862,-93.6880567,KENTUCKY_AVE,SawyerW_KENTUCKY_AVE,AVE,5.038564536419476,3.2078903747876697,group_6,group_12,group_17,group_28
527326040,82500,NWAmes,"3412 TAFT AVE, AMES, USA",42.05543429999999,-93.63494,TAFT_AVE,NWAmes_TAFT_AVE,AVE,2.2331109517113354,2.663076645970347,group_1,group_1,group_1,group_2
903204095,79500,BrkSide,"1209 NORTHWESTERN AVE, AMES, USA",42.03369259999999,-93.6259558,NORTHWESTERN_AVE,BrkSide_NORTHWESTERN_AVE,AVE,0.788090771881966,1.922871865842908,group_3,group_5,group_7,group_12
527182170,207500,StoneBr,"3908 STONE BROOKE CIR, AMES, USA",42.0595273,-93.6326951,STONE_BROOKE_CIR,StoneBr_STONE_BROOKE_CIR,CIR,2.2468434806998725,3.153395306179656,group_7,group_14,group_21,group_35
905105040,115000,Sawyer,"1001 ARIZONA AVE, AMES, USA",42.0313766,-93.6758127,ARIZONA_AVE,Sawyer_ARIZONA_AVE,AVE,3.975068992044062,2.213898101734755,group_4,group_7,group_10,group_16
528477020,249700,Somerst,"2617 KINGSTON DR, AMES, USA",42.052378,-93.6442218,KINGSTON_DR,Somerst_KINGSTON_DR,DR,2.9153967973962143,2.0887589892389604,group_9,group_18,group_26,group_43
905202210,164000,ClearCr,"3616 ROSS RD, AMES, USA",42.0320284,-93.6674932,ROSS_RD,ClearCr_ROSS_RD,RD,3.471578448929958,1.5232799973199105,group_5,group_10,group_15,group_24
903425190,220000,OldTown,"609 NORTHWESTERN AVE, AMES, USA",42.0272473,-93.623304,NORTHWESTERN_AVE,OldTown_NORTHWESTERN_AVE,AVE,0.8924872051232563,1.808882635511355,group_3,group_5,group_7,group_12
535150210,135000,NAmes,"2013 CLARK AVE, AMES, USA",42.0424967,-93.6175252,CLARK_AVE,NAmes_CLARK_AVE,AVE,1.0118526172560498,2.785239244154601,group_3,group_5,group_7,group_12
535453160,133700,NAmes,"1426 MAXWELL AVE, AMES, USA",42.0366881,-93.6066015,MAXWELL_AVE,NAmes_MAXWELL_AVE,AVE,0.8879634962116576,3.4999748607690475,group_2,group_4,group_5,group_9
535353130,112500,OldTown,"625 13TH ST, AMES, USA",42.0347383,-93.6197423,13TH_ST,OldTown_13TH_ST,ST,0.310359431451543,2.437298446046638,group_1,group_2,group_3,group_4
535456070,150000,NAmes,"1308 STAFFORD AVE, AMES, USA",42.0348992,-93.6076359,STAFFORD_AVE,NAmes_STAFFORD_AVE,AVE,0.7435449976659374,3.297965703208513,group_2,group_3,group_4,group_7
908250090,99000,Edwards,"3505 COY ST, AMES, USA",42.0180638,-93.6665693,COY_ST,Edwards_COY_ST,ST,2.6454800538741057,2.2752575773446,group_1,group_1,group_2,group_3
527452070,146300,NPkVill,"2951 NORTHWESTERN AVE, AMES, USA",42.0505533,-93.6274511,NORTHWESTERN_AVE,NPkVill_NORTHWESTERN_AVE,AVE,1.5172852835818444,2.576418870765929,group_3,group_5,group_7,group_12
902325100,155000,OldTown,"802 BURNETT AVE, AMES, USA",42.029109,-93.6150933,BURNETT_AVE,OldTown_BURNETT_AVE,AVE,0.4932442298736644,2.4072462267444417,group_3,group_5,group_7,group_11
921126030,298751,Timber,"3217 RED FOX RD, AMES, USA",41.9927551,-93.6535636,RED_FOX_RD,Timber_RED_FOX_RD,RD,2.5552386832774503,2.770948548756484,group_10,group_19,group_28,group_46
905401060,256000,ClearCr,"519 OLIVER CIR, AMES, USA",42.029697,-93.6667329,OLIVER_CIR,ClearCr_OLIVER_CIR,CIR,3.257830978656164,1.5211613504160642,group_9,group_17,group_25,group_42
916402125,176000,Timber,"2513 WHITE OAK DR, AMES, USA",41.9996225,-93.6463962,WHITE_OAK_DR,Timber_WHITE_OAK_DR,DR,1.590525464265548,1.8124465724573824,group_7,group_13,group_19,group_32
531452010,120000,SawyerW,"1302 INDIANA AVE, AMES, USA",42.0348184,-93.6859782,INDIANA_AVE,SawyerW_INDIANA_AVE,AVE,4.888198303265376,3.0360776533523,group_4,group_8,group_12,group_20
528363070,321000,NoRidge,"3202 ASPEN RD, AMES, USA",42.0508698,-93.655571,ASPEN_RD,NoRidge_ASPEN_RD,RD,3.769819185612601,1.951083910493103,group_9,group_17,group_26,group_43
533208090,190000,Somerst,"2732 NORTHRIDGE LN, AMES, USA",42.0475891,-93.6462626,NORTHRIDGE_LN,Somerst_NORTHRIDGE_LN,LN,2.924190577328026,1.5345805101044614,group_7,group_13,group_19,group_31
534401130,174900,NAmes,"1317 COOLIDGE DR, AMES, USA",42.0392363,-93.6277766,COOLIDGE_DR,NAmes_COOLIDGE_DR,DR,1.1383908848393056,1.8665567648171963,group_5,group_10,group_15,group_25
910203230,85000,IDOTRR,"304 S RIVERSIDE DR, AMES, USA",42.0202179,-93.6292165,S_RIVERSIDE_DR,IDOTRR_S_RIVERSIDE_DR,DR,1.1055203019465012,0.8897297968758434,group_1,group_2,group_3,group_4
907420090,164990,CollgCr,"922 POE AVE, AMES, USA",42.0140059,-93.6837769,POE_AVE,CollgCr_POE_AVE,AVE,3.9755154971625952,3.61484740678246,group_7,group_14,group_21,group_35
902303100,144100,OldTown,"609 7TH ST, AMES, USA",42.0280648,-93.618812,7TH_ST,OldTown_7TH_ST,ST,0.6288681480733335,2.1111195771664133,group_1,group_2,group_3,group_5
906392120,294900,CollgCr,"125 HARTFORD DR, AMES, USA",42.0237346,-93.6894636,HARTFORD_DR,CollgCr_HARTFORD_DR,DR,4.637916676120377,3.5121146859429464,group_8,group_15,group_23,group_37
903484080,50000,IDOTRR,"1003 LINCOLN WAY, AMES, USA",42.0230933,-93.6239373,LINCOLN_WAY,IDOTRR_LINCOLN_WAY,WAY,1.3067702051285013,1.4178565787245343,group_1,group_2,group_2,group_3
527301320,260000,NWAmes,"3217 EISENHOWER AVE, AMES, USA",42.0541281,-93.637478,EISENHOWER_AVE,NWAmes_EISENHOWER_AVE,AVE,2.3979218059210985,2.4431116364474885,group_6,group_12,group_18,group_29
527140090,180000,StoneBr,"4029 FLETCHER BLVD, AMES, USA",42.0609321,-93.6341808,FLETCHER_BLVD,StoneBr_FLETCHER_BLVD,BLVD,2.4323451104524194,3.245949767272385,group_6,group_11,group_16,group_26
909428170,236500,Crawfor,"2117 GREENBRIAR CIR, AMES, USA",42.0127932,-93.641751,GREENBRIAR_CIR,Crawfor_GREENBRIAR_CIR,CIR,0.5130322265812031,0.5030136878709802,group_8,group_15,group_23,group_37
905228050,63900,Sawyer,"1101 IOWA AVE, AMES, USA",42.0327686,-93.6597433,IOWA_AVE,Sawyer_IOWA_AVE,AVE,3.080280856764638,0.8780415608658143,group_1,group_1,group_1,group_2
533234020,223000,Somerst,"2517 SHERWOOD AVE, AMES, USA",42.0468442,-93.6436912,SHERWOOD_AVE,Somerst_SHERWOOD_AVE,AVE,2.7010204981290644,1.5033953664643662,group_8,group_15,group_22,group_36
533212100,151000,Somerst,"2611 STANGE RD, AMES, USA",42.0474829,-93.6451715,STANGE_RD,Somerst_STANGE_RD,RD,2.8421591881889494,1.5400174077927653,group_5,group_9,group_13,group_21
534475185,149500,NAmes,"1306 NORTHWESTERN AVE, AMES, USA",42.0350409,-93.6254611,NORTHWESTERN_AVE,NAmes_NORTHWESTERN_AVE,AVE,0.7677812768164604,1.967102587655234,group_3,group_5,group_7,group_12
905452150,149900,Edwards,"318 CRANE AVE, AMES, USA",42.0254914,-93.6659285,CRANE_AVE,Edwards_CRANE_AVE,AVE,2.934245477768526,1.6700602769275965,group_4,group_8,group_12,group_19
528176010,500000,NridgHt,"3807 BRIDGEPORT DR, AMES, USA",42.0580082,-93.6563432,BRIDGEPORT_DR,NridgHt_BRIDGEPORT_DR,DR,4.012908889770742,2.737050641849541,group_10,group_20,group_30,group_50
535450160,92900,NAmes,"1401 CARROLL AVE, AMES, USA",42.0358724,-93.6092838,CARROLL_AVE,NAmes_CARROLL_AVE,AVE,0.6487488307089543,3.282862429554104,group_2,group_3,group_4,group_7
533215040,290000,Somerst,"2505 BRADFORD DR, AMES, USA",42.0465373,-93.6470914,BRADFORD_DR,Somerst_BRADFORD_DR,DR,2.9220781935816924,1.4090309518862438,group_10,group_19,group_28,group_46
528104010,345474,NridgHt,"3131 SEDWICK ST, AMES, USA",42.0632732,-93.6555757,SEDWICK_ST,NridgHt_SEDWICK_ST,ST,4.132162276919715,2.6547558185664832,group_10,group_20,group_30,group_49
535325090,127000,NAmes,"1719 DOUGLAS AVE, AMES, USA",42.0400141,-93.6126571,DOUGLAS_AVE,NAmes_DOUGLAS_AVE,AVE,0.7949353998498595,3.094777700319195,group_3,group_6,group_8,group_13
909250210,102000,SWISU,"424 STANTON AVE, AMES, USA",42.0182619,-93.6482954,STANTON_AVE,SWISU_STANTON_AVE,AVE,1.2757788671172108,1.1358318586068374,group_3,group_5,group_7,group_12
527325110,190000,NWAmes,"1802 BUCHANAN DR, AMES, USA",42.0549343,-93.633932,BUCHANAN_DR,NWAmes_BUCHANAN_DR,DR,2.1372285179857498,2.6519948272177225,group_7,group_14,group_21,group_35
910202030,75200,IDOTRR,"1108 LINCOLN WAY, AMES, USA",42.0226906,-93.6255968,LINCOLN_WAY,IDOTRR_LINCOLN_WAY,WAY,1.4147921754630115,1.2922220362641,group_1,group_2,group_2,group_3
535175180,108538,NAmes,"2304 KELLOGG AVE, AMES, USA",42.045041,-93.6151515,KELLOGG_AVE,NAmes_KELLOGG_AVE,AVE,0.6944029179721809,3.07231836851644,group_4,group_7,group_11,group_18
534202160,142250,NAmes,"1217 25TH ST, AMES, USA",42.0466913,-93.6267633,25TH_ST,NAmes_25TH_ST,ST,1.486208729529665,2.333668290028302,group_4,group_8,group_12,group_20
916403020,180000,Timber,"2722 WHITE OAK CIR, AMES, USA",41.9976078,-93.6461261,WHITE_OAK_CIR,Timber_WHITE_OAK_CIR,CIR,1.770743368918899,2.002224543761047,group_6,group_12,group_17,group_28
535354100,132000,NAmes,"1323 CLARK AVE, AMES, USA",42.0354207,-93.6174289,CLARK_AVE,NAmes_CLARK_AVE,AVE,0.2361032364584514,2.6318089522659625,group_3,group_5,group_7,group_12
905227050,152400,Sawyer,"1202 SCOTT AVE, AMES, USA",42.0336499,-93.6603592,SCOTT_AVE,Sawyer_SCOTT_AVE,AVE,3.188131976984027,0.9194212383125036,group_3,group_5,group_8,group_13
534451020,64000,BrkSide,"1423 RIDGEWOOD AVE, AMES, USA",42.0364391,-93.6291591,RIDGEWOOD_AVE,BrkSide_RIDGEWOOD_AVE,AVE,1.103894585206435,1.6806851582249642,group_3,group_5,group_8,group_13
533120030,302000,NoRidge,"3118 MAPLEWOOD RD, AMES, USA",42.0475031,-93.653967,MAPLEWOOD_RD,NoRidge_MAPLEWOOD_RD,RD,3.4729887471577414,1.5551555105095085,group_10,group_19,group_28,group_46
905352010,182000,ClearCr,"200 TRAIL RIDGE RD, AMES, USA",42.0238627,-93.6739902,TRAIL_RIDGE_RD,ClearCr_TRAIL_RIDGE_RD,RD,3.4413933750934813,2.3329978866148253,group_7,group_14,group_21,group_35
905108220,137000,Sawyer,"1008 MESA VERDE PL, AMES, USA",42.0314064,-93.671072,MESA_VERDE_PL,Sawyer_MESA_VERDE_PL,PL,3.6576622543007526,1.8258716698014985,group_4,group_8,group_11,group_19
527165170,168000,Gilbert,"3715 COLUMBINE CIR, AMES, USA",42.05754719999999,-93.6361687,COLUMBINE_CIR,Gilbert_COLUMBINE_CIR,CIR,2.4081510905566046,2.8354188518788948,group_6,group_11,group_16,group_27
535353190,97500,NAmes,"1404 GRAND AVE, AMES, USA",42.0358017,-93.62009,GRAND_AVE,NAmes_GRAND_AVE,AVE,0.4014789372508423,2.4156879654720838,group_2,group_4,group_6,group_9
528315070,286000,NoRidge,"3136 BAYBERRY RD, AMES, USA",42.0540202,-93.655472,BAYBERRY_RD,NoRidge_BAYBERRY_RD,RD,3.8597117860959176,2.288632477929648,group_10,group_19,group_28,group_47
903232060,115000,BrkSide,"1109 ROOSEVELT AVE, AMES, USA",42.0324403,-93.6227895,ROOSEVELT_AVE,BrkSide_ROOSEVELT_AVE,AVE,0.5375439339652917,2.1907368172046757,group_3,group_5,group_7,group_12
906204180,209000,SawyerW,"1124 IDAHO AVE, AMES, USA",42.0326712,-93.6830438,IDAHO_AVE,SawyerW_IDAHO_AVE,AVE,4.556830724763983,2.7960040522148586,group_8,group_16,group_23,group_39
906475110,187500,ClearCr,"215 PARKRIDGE CIR, AMES, USA",42.0247475,-93.6824146,PARKRIDGE_CIR,ClearCr_PARKRIDGE_CIR,CIR,4.1232369298038245,2.925930320087116,group_6,group_12,group_18,group_30
906223040,220000,SawyerW,"1017 FLORIDA AVE, AMES, USA",42.0314136,-93.6813004,FLORIDA_AVE,SawyerW_FLORIDA_AVE,AVE,4.361615644720192,2.663496544941838,group_8,group_15,group_22,group_37
909253190,91000,SWISU,"612 STANTON AVE, AMES, USA",42.016574,-93.6482289,STANTON_AVE,SWISU_STANTON_AVE,AVE,1.1710573633582917,1.0642875187735164,group_3,group_5,group_7,group_12
923400150,93500,Mitchel,"428 KEN MARIL RD, AMES, USA",41.9863741,-93.6054967,KEN_MARIL_RD,Mitchel_KEN_MARIL_RD,RD,3.754396040643675,3.95871370608158,group_3,group_5,group_7,group_12
923226290,79400,MeadowV,"611 MEADOW PL, AMES, USA",41.9923115,-93.603294,MEADOW_PL,MeadowV_MEADOW_PL,PL,3.431928133509384,3.606812664444998,group_1,group_1,group_1,group_2
909282020,259500,Crawfor,"2124 COUNTRY CLUB BLVD, AMES, USA",42.01563,-93.6428017,COUNTRY_CLUB_BLVD,Crawfor_COUNTRY_CLUB_BLVD,BLVD,0.7370277198391543,0.604876491726277,group_8,group_16,group_24,group_40
528110110,417500,NridgHt,"3323 STOCKBURY ST, AMES, USA",42.0623645,-93.657769,STOCKBURY_ST,NridgHt_STOCKBURY_ST,ST,4.265545090875078,2.536892019316829,group_10,group_20,group_30,group_49
534479320,132000,NAmes,"1526 HARDING AVE, AMES, USA",42.0379283,-93.6212391,HARDING_AVE,NAmes_HARDING_AVE,AVE,0.6388636925604718,2.3537114983873115,group_3,group_6,group_9,group_15
528150110,342000,NridgHt,"3215 HARRISON RD, AMES, USA",42.0597096,-93.656264,HARRISON_RD,NridgHt_HARRISON_RD,RD,4.05582751861034,2.792845455557559,group_9,group_18,group_26,group_43
906380160,194000,CollgCr,"5321 DURANT ST, AMES, USA",42.02479599999999,-93.6900977,DURANT_ST,CollgCr_DURANT_ST,ST,4.723465353132756,3.525754094983222,group_7,group_14,group_20,group_33
911370460,235000,Crawfor,"415 ASPEN RIDGE RD, AMES, USA",42.009569,-93.61521,ASPEN_RIDGE_RD,Crawfor_ASPEN_RIDGE_RD,RD,1.7129788278946845,1.7726735306829584,group_10,group_19,group_28,group_47
535477090,136870,NAmes,"1434 MEADOWLANE AVE, AMES, USA",42.0366047,-93.603491,MEADOWLANE_AVE,NAmes_MEADOWLANE_AVE,AVE,1.124487883219024,3.675672173720857,group_5,group_9,group_14,group_22
534478230,147000,NAmes,"1428 ROOSEVELT AVE, AMES, USA",42.0367817,-93.6223145,ROOSEVELT_AVE,NAmes_ROOSEVELT_AVE,AVE,0.612829299520519,2.2452497806131766,group_3,group_5,group_7,group_12
906426060,277000,ClearCr,"4813 DOVER DR, AMES, USA",42.0278708,-93.6833609,DOVER_DR,ClearCr_DOVER_DR,DR,4.329989571087274,2.89893202824083,group_8,group_16,group_24,group_40
528235190,201490,Gilbert,"4004 WELBECK DR, AMES, USA",42.0609063,-93.6434932,WELBECK_DR,Gilbert_WELBECK_DR,DR,3.1111408047025817,3.032915495279762,group_6,group_12,group_18,group_30
923225440,85000,MeadowV,"535 MEADOW CT, AMES, USA",41.9920025,-93.604478,MEADOW_CT,MeadowV_MEADOW_CT,CT,3.3779892466254102,3.5578857199765723,group_1,group_1,group_2,group_3
923276030,149900,Mitchel,"615 GARDEN RD, AMES, USA",41.9889426,-93.6035431,GARDEN_RD,Mitchel_GARDEN_RD,RD,3.6621731653320775,3.852183034473245,group_4,group_8,group_12,group_20
909425060,174500,Crawfor,"915 GASKILL DR, AMES, USA",42.0143732,-93.6431563,GASKILL_DR,Crawfor_GASKILL_DR,DR,0.6861749636505424,0.6055050579050885,group_8,group_16,group_24,group_39
902332030,133900,OldTown,"621 DOUGLAS AVE, AMES, USA",42.0277858,-93.6124583,DOUGLAS_AVE,OldTown_DOUGLAS_AVE,AVE,0.708179526506557,2.4725197800005048,group_3,group_6,group_8,group_13
528188060,173000,NridgHt,"3716 ASHTON DR, AMES, USA",42.0574435,-93.6501686,ASHTON_DR,NridgHt_ASHTON_DR,DR,3.503368310523924,2.611720525088159,group_6,group_11,group_16,group_27
527105140,225000,Gilbert,"4012 HYDE AVE, AMES, USA",42.0612881,-93.6399694,HYDE_AVE,Gilbert_HYDE_AVE,AVE,2.867721227259977,3.132937502202744,group_7,group_14,group_20,group_33
535477150,109500,NAmes,"1402 MEADOWLANE AVE, AMES, USA",42.0354997,-93.6035257,MEADOWLANE_AVE,NAmes_MEADOWLANE_AVE,AVE,1.0894209015092826,3.590333976733274,group_5,group_9,group_14,group_22
535327210,159000,NAmes,"1704 DOUGLAS AVE, AMES, USA",42.039464,-93.6119462,DOUGLAS_AVE,NAmes_DOUGLAS_AVE,AVE,0.765566153286257,3.1396421809803696,group_3,group_6,group_8,group_13
533213070,179400,Somerst,"2717 BRISTOL DR, AMES, USA",42.0471465,-93.6464133,BRISTOL_DR,Somerst_BRISTOL_DR,DR,2.9085948415393545,1.4840152963599833,group_7,group_13,group_19,group_32
904100100,219000,Sawyer,"1215 HYLAND AVE, AMES, USA",42.034016,-93.6560071,HYLAND_AVE,Sawyer_HYLAND_AVE,AVE,3.0057888697894115,0.5593346494559516,group_7,group_13,group_20,group_33
528188120,175500,NridgHt,"3702 CHILTON AVE, AMES, USA",42.0570917,-93.6508622,CHILTON_AVE,NridgHt_CHILTON_AVE,AVE,3.549160997601001,2.574972162040523,group_8,group_15,group_22,group_36
528480180,261329,Somerst,"2625 CLAYTON DR, AMES, USA",42.05150039999999,-93.6445551,CLAYTON_DR,Somerst_CLAYTON_DR,DR,2.9334130422592315,1.9876702423157129,group_8,group_16,group_23,group_39
528114040,383000,NridgHt,"3310 WESTON DR, AMES, USA",42.0609956,-93.6569663,WESTON_DR,NridgHt_WESTON_DR,DR,4.153556525725918,2.6690313954241423,group_10,group_20,group_29,group_48
528235020,179000,Gilbert,"4005 BRICKMAN AVE, AMES, USA",42.06113810000001,-93.6428795,BRICKMAN_AVE,Gilbert_BRICKMAN_AVE,AVE,3.075855890786662,3.066640449846173,group_7,group_13,group_19,group_32
908275110,103500,Edwards,"246 S FRANKLIN AVE, AMES, USA",42.0193549,-93.6645025,S_FRANKLIN_AVE,Edwards_S_FRANKLIN_AVE,AVE,2.5273070345780915,2.056679958415569,group_1,group_2,group_3,group_5
905103140,164500,Sawyer,"4107 ROSS RD, AMES, USA",42.0323857,-93.6747886,ROSS_RD,Sawyer_ROSS_RD,RD,3.969365408040523,2.117798884225666,group_5,group_10,group_15,group_24
902402260,55000,OldTown,"822 CARROLL AVE, AMES, USA",42.029713,-93.608382,CARROLL_AVE,OldTown_CARROLL_AVE,AVE,0.7822628432469865,2.869670926173626,group_2,group_3,group_4,group_7
528235200,170000,Gilbert,"4010 WELBECK DR, AMES, USA",42.0610981,-93.6435328,WELBECK_DR,Gilbert_WELBECK_DR,DR,3.1229346110586302,3.0534763041785924,group_6,group_12,group_18,group_30
528181060,209500,NridgHt,"2908 ROXBORO DR, AMES, USA",42.0580228,-93.6498969,ROXBORO_DR,NridgHt_ROXBORO_DR,DR,3.498752233531357,2.675556116579124,group_9,group_17,group_25,group_41
923275200,124500,Mitchel,"3827 MINNETONKA AVE, AMES, USA",41.9877585,-93.6051209,MINNETONKA_AVE,Mitchel_MINNETONKA_AVE,AVE,3.662445761253012,3.861197899487713,group_2,group_4,group_5,group_8
903451110,139400,IDOTRR,"318 N RUSSELL AVE, AMES, USA",42.0258624,-93.6280961,N_RUSSELL_AVE,IDOTRR_N_RUSSELL_AVE,AVE,1.2801923426260269,1.4748557675106644,group_3,group_5,group_7,group_11
528181040,202665,NridgHt,"2914 ROXBORO DR, AMES, USA",42.058037,-93.6502301,ROXBORO_DR,NridgHt_ROXBORO_DR,DR,3.525648526295021,2.677837764661656,group_9,group_17,group_25,group_41
908102110,155891,Edwards,"4404 TODD DR, AMES, USA",42.0210379,-93.6777541,TODD_DR,Edwards_TODD_DR,DR,3.62525288964388,2.7596225323217096,group_3,group_6,group_9,group_15
533217050,160000,Somerst,"2710 BRISTOL DR, AMES, USA",42.04688590000001,-93.6461368,BRISTOL_DR,Somerst_BRISTOL_DR,DR,2.8739916700543486,1.4592344273417082,group_7,group_13,group_19,group_32
533350090,150000,Veenker,"1712 AMHERST DR, AMES, USA",42.0375175,-93.6570561,AMHERST_DR,Veenker_AMHERST_DR,DR,3.380631157248641,0.757082427408183,group_9,group_17,group_25,group_41
528445070,221300,Somerst,"2518 YORKSHIRE ST, AMES, USA",42.052944,-93.6429483,YORKSHIRE_ST,Somerst_YORKSHIRE_ST,ST,2.819023409749231,2.173178585396854,group_9,group_17,group_25,group_41
527212040,361919,StoneBr,"4020 EDGEWATER DR, AMES, USA",42.06087489999999,-93.6286078,EDGEWATER_DR,StoneBr_EDGEWATER_DR,DR,2.05163969788045,3.4429501725112077,group_10,group_20,group_29,group_48
907200270,134900,CollgCr,"112 SANDBURG CT, AMES, USA",42.0222688,-93.6873663,SANDBURG_CT,CollgCr_SANDBURG_CT,CT,4.425899504057017,3.4075528818790777,group_5,group_9,group_13,group_21
908201040,118000,Edwards,"117 S FRANKLIN AVE, AMES, USA",42.0221335,-93.6650598,S_FRANKLIN_AVE,Edwards_S_FRANKLIN_AVE,AVE,2.690623659758518,1.854614281594709,group_1,group_2,group_3,group_5
907410100,195800,CollgCr,"809 POE AVE, AMES, USA",42.0157932,-93.6840741,POE_AVE,CollgCr_POE_AVE,AVE,4.018418669760281,3.516375014634962,group_7,group_14,group_21,group_35
903481120,135000,IDOTRR,"1027 N 2ND ST, AMES, USA",42.0242614,-93.6250558,N_2ND_ST,IDOTRR_N_2ND_ST,ST,1.2446176055744214,1.4556424558087109,group_2,group_4,group_6,group_9
535453180,152000,NAmes,"1506 MAXWELL AVE, AMES, USA",42.037094,-93.6066149,MAXWELL_AVE,NAmes_MAXWELL_AVE,AVE,0.9063007807051414,3.532003458304204,group_2,group_4,group_5,group_9
907227110,133900,CollgCr,"212 ROCKWELL AVE, AMES, USA",42.02132690000001,-93.6829682,ROCKWELL_AVE,CollgCr_ROCKWELL_AVE,AVE,4.047810188376257,3.120677796098845,group_2,group_4,group_6,group_10
531453010,152000,SawyerW,"1304 ILLINOIS AVE, AMES, USA",42.0347705,-93.6848476,ILLINOIS_AVE,SawyerW_ILLINOIS_AVE,AVE,4.806353335128749,2.942583439645332,group_5,group_9,group_14,group_23
531478010,107000,SawyerW,"4712 TORONTO ST, AMES, USA",42.035599,-93.6823111,TORONTO_ST,SawyerW_TORONTO_ST,ST,4.682965640158167,2.7377458908960555,group_2,group_4,group_5,group_9
535403200,120000,NAmes,"211 E 16TH ST, AMES, USA",42.0384468,-93.6084166,E_16TH_ST,NAmes_E_16TH_ST,ST,0.8646313914460798,3.4076909080092324,group_3,group_6,group_8,group_13
527254020,372500,StoneBr,"1214 ADAMS ST, AMES, USA",42.0596555,-93.6287068,ADAMS_ST,StoneBr_ADAMS_ST,ST,1.976923821362093,3.3216186713096025,group_10,group_20,group_30,group_49
527366030,220000,Somerst,"2818 SOMERSET DR, AMES, USA",42.0503643,-93.6392369,SOMERSET_DR,Somerst_SOMERSET_DR,DR,2.487352005427451,2.0016242234197583,group_8,group_16,group_23,group_38
535325460,167000,NAmes,"1704 BURNETT AVE, AMES, USA",42.0396113,-93.6152504,BURNETT_AVE,NAmes_BURNETT_AVE,AVE,0.6936438381890463,2.876002423611506,group_3,group_5,group_7,group_11
528110040,479069,NridgHt,"3308 SEDWICK ST, AMES, USA",42.0628095,-93.6570553,SEDWICK_ST,NridgHt_SEDWICK_ST,ST,4.227306023690304,2.5665528113091263,group_10,group_20,group_30,group_49
906392090,233555,CollgCr,"215 HARTFORD DR, AMES, USA",42.0243442,-93.6894529,HARTFORD_DR,CollgCr_HARTFORD_DR,DR,4.657307651014673,3.489889932453382,group_8,group_15,group_23,group_37
535452140,118900,NAmes,"1402 STAFFORD AVE, AMES, USA",42.0358898,-93.6076729,STAFFORD_AVE,NAmes_STAFFORD_AVE,AVE,0.7723026646335573,3.3746700632145847,group_2,group_3,group_4,group_7
535151160,140000,NAmes,"2204 BARR DR, AMES, USA",42.0440557,-93.619465,BARR_DR,NAmes_BARR_DR,DR,1.039748964504018,2.702401135733025,group_3,group_5,group_7,group_11
535456050,130000,NAmes,"313 E 13TH ST, AMES, USA",42.0347409,-93.6071121,E_13TH_ST,NAmes_E_13TH_ST,ST,0.7823523430598225,3.316372671118916,group_2,group_4,group_6,group_10
903429110,179900,OldTown,"716 HODGE AVE, AMES, USA",42.0284487,-93.6213449,HODGE_AVE,OldTown_HODGE_AVE,AVE,0.6875701639016116,2.0118791432117957,group_5,group_9,group_13,group_21
916455150,282000,Timber,"2329 SUNCREST DR, AMES, USA",41.9956088,-93.6482742,SUNCREST_DR,Timber_SUNCREST_DR,DR,2.0516851776127174,2.279763746734873,group_9,group_18,group_26,group_43
909425180,217500,Crawfor,"1036 ASH AVE, AMES, USA",42.012437,-93.6439676,ASH_AVE,Crawfor_ASH_AVE,AVE,0.6843354062723181,0.6902803586887298,group_7,group_14,group_20,group_33
528175050,212500,NridgHt,"2907 ROXBORO DR, AMES, USA",42.0585305,-93.6498456,ROXBORO_DR,NridgHt_ROXBORO_DR,DR,3.5105601855466526,2.731916855149851,group_9,group_17,group_25,group_41
910205010,126000,IDOTRR,"1110 S 2ND ST, AMES, USA",42.02140929999999,-93.6258767,S_2ND_ST,IDOTRR_S_2ND_ST,ST,1.367486565756625,1.1719560059414018,group_2,group_3,group_5,group_8
533206020,280750,Somerst,"2819 BRISTOL DR, AMES, USA",42.0477902,-93.6476353,BRISTOL_DR,Somerst_BRISTOL_DR,DR,3.0320535553423142,1.5428490926913117,group_7,group_13,group_19,group_32
902427040,87000,OldTown,"418 E 6TH ST, AMES, USA",42.0268162,-93.6047703,E_6TH_ST,OldTown_E_6TH_ST,ST,1.211338241421786,2.9411781451117163,group_2,group_3,group_4,group_6
528427020,244600,Somerst,"3211 CULLEN DR, AMES, USA",42.0546078,-93.6443778,CULLEN_DR,Somerst_CULLEN_DR,DR,2.9663562555396457,2.3300477447449826,group_8,group_16,group_24,group_40
528458070,215200,Somerst,"2816 ASPEN RD, AMES, USA",42.0507831,-93.6470291,ASPEN_RD,Somerst_ASPEN_RD,RD,3.1321980611005777,1.8788302971817337,group_9,group_17,group_26,group_43
903401030,162500,BrkSide,"701 RIDGEWOOD AVE, AMES, USA",42.0279173,-93.62577050000002,RIDGEWOOD_AVE,BrkSide_RIDGEWOOD_AVE,AVE,0.986275326160305,1.7656606156478791,group_3,group_5,group_8,group_13
909275040,138000,Crawfor,"311 PEARSON AVE, AMES, USA",42.0198811,-93.6429486,PEARSON_AVE,Crawfor_PEARSON_AVE,AVE,1.0999025347391116,0.8851910256553749,group_6,group_12,group_18,group_30
527163130,181316,Gilbert,"3828 EISENHOWER AVE, AMES, USA",42.0592771,-93.6376335,EISENHOWER_AVE,Gilbert_EISENHOWER_AVE,AVE,2.5958878326796677,2.9730386137770157,group_6,group_12,group_18,group_29
905200350,148000,Sawyer,"3605 ROSS RD, AMES, USA",42.03247349999999,-93.6668594,ROSS_RD,Sawyer_ROSS_RD,RD,3.465258036622544,1.465045132060897,group_5,group_10,group_15,group_24
528363050,315000,NoRidge,"3212 SUMAC CIR, AMES, USA",42.05046249999999,-93.6556304,SUMAC_CIR,NoRidge_SUMAC_CIR,CIR,3.750971009530765,1.9088434761053408,group_10,group_19,group_28,group_46
908154205,184750,Edwards,"4302 COCHRANE PKWY, AMES, USA",42.0167158,-93.6767079,COCHRANE_PKWY,Edwards_COCHRANE_PKWY,PKWY,3.430463200646588,2.971353225624949,group_8,group_16,group_24,group_40
903233140,132000,BrkSide,"1004 ROOSEVELT AVE, AMES, USA",42.0314521,-93.622275,ROOSEVELT_AVE,BrkSide_ROOSEVELT_AVE,AVE,0.5314241423705222,2.2441459743724463,group_3,group_5,group_7,group_12
905107070,149500,Sawyer,"3910 ROSS RD, AMES, USA",42.0320787,-93.6719697,ROSS_RD,Sawyer_ROSS_RD,RD,3.761926065352625,1.8893760249449107,group_5,group_10,group_15,group_24
528240020,183500,Gilbert,"4011 WESTLAWN DR, AMES, USA",42.0613102,-93.6417115,WESTLAWN_DR,Gilbert_WESTLAWN_DR,DR,2.9972001915590947,3.103355493326271,group_7,group_14,group_20,group_33
906225180,224500,SawyerW,"1005 DELAWARE AVE, AMES, USA",42.03151889999999,-93.6801769,DELAWARE_AVE,SawyerW_DELAWARE_AVE,AVE,4.2878945083290985,2.569984036901293,group_6,group_12,group_18,group_29
528114010,415000,NridgHt,"3334 WESTON DR, AMES, USA",42.0609669,-93.6580622,WESTON_DR,NridgHt_WESTON_DR,DR,4.238697948999775,2.5929908776855166,group_10,group_20,group_29,group_48
907126030,155000,CollgCr,"5416 NORRIS ST, AMES, USA",42.0210642,-93.6926143,NORRIS_ST,CollgCr_NORRIS_ST,ST,4.813680892153876,3.8595881225058113,group_6,group_11,group_16,group_26
904100160,135000,Sawyer,"2913 ROSS RD, AMES, USA",42.0334773,-93.6583829,ROSS_RD,Sawyer_ROSS_RD,RD,3.0714373117710174,0.757478996420014,group_5,group_10,group_15,group_24
909254130,164000,Crawfor,"2227 STORM ST, AMES, USA",42.0163229,-93.6456364,STORM_ST,Crawfor_STORM_ST,ST,0.9726027365221748,0.8514085513855082,group_4,group_7,group_11,group_18
535403030,128500,NAmes,"114 E O NEIL DR, AMES, USA",42.03994549999999,-93.6098952,E_O_NEIL_DR,NAmes_E_O_NEIL_DR,DR,0.9025593849794628,3.316255431402281,group_4,group_7,group_10,group_16
907412010,196500,CollgCr,"4919 WALLER ST, AMES, USA",42.0143098,-93.6863527,WALLER_ST,CollgCr_WALLER_ST,ST,4.19017364991175,3.765322861495612,group_7,group_13,group_19,group_31
903228080,131000,BrkSide,"807 12TH ST, AMES, USA",42.0335052,-93.6218958,12TH_ST,BrkSide_12TH_ST,ST,0.4523187413029779,2.258531971223312,group_1,group_2,group_3,group_5
531452100,151000,SawyerW,"1420 INDIANA AVE, AMES, USA",42.03599,-93.6861277,INDIANA_AVE,SawyerW_INDIANA_AVE,AVE,4.968687557727533,3.055217436196453,group_4,group_8,group_12,group_20
526302030,149900,NAmes,"3115 NORTHWOOD DR, AMES, USA",42.053473,-93.6184182,NORTHWOOD_DR,NAmes_NORTHWOOD_DR,DR,0.8894843113772993,3.3437636608906858,group_7,group_14,group_20,group_34
902106090,139900,OldTown,"619 10TH ST, AMES, USA",42.0314085,-93.6195529,10TH_ST,OldTown_10TH_ST,ST,0.3430441991295375,2.3656499632923973,group_2,group_3,group_4,group_6
527161090,180000,Gilbert,"3842 HYDE AVE, AMES, USA",42.0593165,-93.6400486,HYDE_AVE,Gilbert_HYDE_AVE,AVE,2.7796051852804373,2.9191304462188845,group_7,group_14,group_20,group_33
532353120,120750,Sawyer,"1306 WOODSTOCK AVE, AMES, USA",42.0349673,-93.6768232,WOODSTOCK_AVE,Sawyer_WOODSTOCK_AVE,AVE,4.275463215178078,2.281208149360513,group_3,group_6,group_8,group_14
535453070,154000,NAmes,"1429 GLENDALE AVE, AMES, USA",42.0367015,-93.606151,GLENDALE_AVE,NAmes_GLENDALE_AVE,AVE,0.922650723589421,3.526836918053799,group_4,group_8,group_12,group_20
534252110,139900,NAmes,"2115 HUNZIKER DR, AMES, USA",42.0434951,-93.6250059,HUNZIKER_DR,NAmes_HUNZIKER_DR,DR,1.32452034482147,2.2641660638918206,group_4,group_8,group_11,group_19
535327230,100000,NAmes,"1714 DOUGLAS AVE, AMES, USA",42.0398652,-93.6120847,DOUGLAS_AVE,NAmes_DOUGLAS_AVE,AVE,0.7997399274825207,3.137437188789584,group_3,group_6,group_8,group_13
905425125,240000,ClearCr,"3421 OAKLAND ST, AMES, USA",42.0286553,-93.663631,OAKLAND_ST,ClearCr_OAKLAND_ST,ST,2.9857000441166384,1.3275816823954971,group_7,group_14,group_20,group_34
908103280,135000,Edwards,"4125 APLIN RD, AMES, USA",42.020115,-93.6747035,APLIN_RD,Edwards_APLIN_RD,RD,3.354391570046512,2.6072078162536334,group_3,group_6,group_8,group_14
528221060,174000,Gilbert,"4110 CRESTMOOR AVE, AMES, USA",42.0621328,-93.6449978,CRESTMOOR_AVE,Gilbert_CRESTMOOR_AVE,AVE,3.2812290982265053,3.1514908836782194,group_6,group_12,group_17,group_28
921128020,378500,Timber,"2716 COTTONWOOD RD, AMES, USA",41.9928375,-93.6525402,COTTONWOOD_RD,Timber_COTTONWOOD_RD,RD,2.4999042947640686,2.7193319941659917,group_10,group_20,group_29,group_49
528174040,207000,NridgHt,"2914 HARRISON RD, AMES, USA",42.0589755,-93.6504115,HARRISON_RD,NridgHt_HARRISON_RD,RD,3.5697371760465777,2.782629703571306,group_9,group_18,group_26,group_43
909256010,131000,SWISU,"714 STANTON AVE, AMES, USA",42.015632,-93.6482588,STANTON_AVE,SWISU_STANTON_AVE,AVE,1.1271301901721251,1.0425141687152453,group_3,group_5,group_7,group_12
533212060,152000,Somerst,"2621 STANGE RD, AMES, USA",42.04787959999999,-93.6452227,STANGE_RD,Somerst_STANGE_RD,RD,2.8701382112683045,1.5822066819826992,group_5,group_9,group_13,group_21
908204180,61500,Edwards,"3412 TRIPP ST, AMES, USA",42.0199898,-93.6653659,TRIPP_ST,Edwards_TRIPP_ST,ST,2.618863842213722,2.047061081760351,group_1,group_1,group_2,group_2
533223100,147110,Somerst,"2412 EATON AVE, AMES, USA",42.0460522,-93.6452481,EATON_AVE,Somerst_EATON_AVE,AVE,2.7633934298826723,1.383669133163839,group_5,group_9,group_14,group_23
909176180,137000,SWISU,"422 HAYWARD AVE, AMES, USA",42.0183179,-93.6514688,HAYWARD_AVE,SWISU_HAYWARD_AVE,AVE,1.4994031049276062,1.3798046372252837,group_4,group_7,group_11,group_17
903475040,128500,OldTown,"914 6TH ST, AMES, USA",42.0265892,-93.6233436,6TH_ST,OldTown_6TH_ST,ST,0.951999931945984,1.747483315902587,group_2,group_4,group_6,group_10
535426195,207500,NAmes,"1630 CRESTWOOD CIR, AMES, USA",42.0398121,-93.605371,CRESTWOOD_CIR,NAmes_CRESTWOOD_CIR,CIR,1.111480397864102,3.6804211977646215,group_6,group_12,group_18,group_29
905103040,172500,Sawyer,"3913 ROSS RD, AMES, USA",42.0325024,-93.6720093,ROSS_RD,Sawyer_ROSS_RD,RD,3.793271926145509,1.887976858970764,group_5,group_10,group_15,group_24
528110100,380000,NridgHt,"3313 STOCKBURY ST, AMES, USA",42.0623745,-93.6574522,STOCKBURY_ST,NridgHt_STOCKBURY_ST,ST,4.2413134353781805,2.559473111661282,group_10,group_20,group_30,group_49
534431030,137000,NAmes,"806 MURRAY DR, AMES, USA",42.0390333,-93.6219583,MURRAY_DR,NAmes_MURRAY_DR,DR,0.7725645015021759,2.3220899532156904,group_4,group_7,group_11,group_18
905300010,130000,Sawyer,"4418 PHOENIX ST, AMES, USA",42.02932029999999,-93.6785069,PHOENIX_ST,Sawyer_PHOENIX_ST,ST,4.045678920070731,2.4722250967467385,group_7,group_14,group_20,group_33
914474070,215000,Mitchel,"3012 SAPPHIRE CIR, AMES, USA",41.9952118,-93.6035805,SAPPHIRE_CIR,Mitchel_SAPPHIRE_CIR,CIR,3.2211043520281923,3.381785237379592,group_8,group_15,group_22,group_36
534428100,153000,NAmes,"821 NARLAND DR, AMES, USA",42.0404272,-93.6225514,NARLAND_DR,NAmes_NARLAND_DR,DR,0.9279467859547788,2.317844058522136,group_5,group_9,group_13,group_21
533350050,385000,Veenker,"3110 KINGMAN RD, AMES, USA",42.0368737,-93.6578928,KINGMAN_RD,Veenker_KINGMAN_RD,RD,3.356816978413064,0.7847330629068949,group_10,group_19,group_28,group_47
908188130,130000,Edwards,"3830 MARIGOLD DR, AMES, USA",42.0186523,-93.6700714,MARIGOLD_DR,Edwards_MARIGOLD_DR,DR,2.941698906307201,2.421091819140249,group_5,group_9,group_13,group_22
534453150,127000,BrkSide,"1402 RIDGEWOOD AVE, AMES, USA",42.0357511,-93.6280537,RIDGEWOOD_AVE,BrkSide_RIDGEWOOD_AVE,AVE,0.9947626812640364,1.7605628165618163,group_3,group_5,group_8,group_13
528458120,270000,Somerst,"2719 CAMBRIDGE DR, AMES, USA",42.0502443,-93.6473151,CAMBRIDGE_DR,Somerst_CAMBRIDGE_DR,DR,3.15346318889588,1.816997060743195,group_9,group_17,group_26,group_42
535179050,141000,NAmes,"208 22ND ST, AMES, USA",42.043744,-93.6134103,22ND_ST,NAmes_22ND_ST,ST,0.7218003673879123,3.1519923775628693,group_5,group_9,group_14,group_23
527302185,235000,NWAmes,"3416 CLINTON CT, AMES, USA",42.0558709,-93.6362149,CLINTON_CT,NWAmes_CLINTON_CT,CT,2.3481300523291324,2.662452240060532,group_8,group_15,group_22,group_36
534128190,256900,NWAmes,"2531 PIERCE AVE, AMES, USA",42.0468858,-93.6326059,PIERCE_AVE,NWAmes_PIERCE_AVE,AVE,1.9578062972140404,1.9873865580590568,group_8,group_16,group_24,group_39
528180110,336860,NridgHt,"3015 BURNHAM DR, AMES, USA",42.0579411,-93.6519367,BURNHAM_DR,NridgHt_BURNHAM_DR,DR,3.6586576477672974,2.6752313286969214,group_9,group_18,group_27,group_45
916176125,375000,Timber,"2227 TIMBERLAND RD, AMES, USA",42.00138,-93.652119,TIMBERLAND_RD,Timber_TIMBERLAND_RD,RD,1.7616453977983644,1.93631398222857,group_9,group_17,group_26,group_43
903454090,141000,IDOTRR,"1211 N 2ND ST, AMES, USA",42.024256,-93.6274995,N_2ND_ST,IDOTRR_N_2ND_ST,ST,1.3707588629538303,1.340950018224232,group_2,group_4,group_6,group_9
535457010,160000,NAmes,"1321 GLENDALE AVE, AMES, USA",42.035416,-93.6061496,GLENDALE_AVE,NAmes_GLENDALE_AVE,AVE,0.8763889364501873,3.425693779482138,group_4,group_8,group_12,group_20
528462040,182000,Somerst,"2806 YORK DR, AMES, USA",42.0500958,-93.6483239,YORK_DR,Somerst_YORK_DR,DR,3.2208296412527213,1.7951318003655576,group_6,group_12,group_17,group_29
909428120,217000,Crawfor,"2003 GREENBRIAR CIR, AMES, USA",42.0127998,-93.639712,GREENBRIAR_CIR,Crawfor_GREENBRIAR_CIR,CIR,0.3540162030837395,0.3421251035878772,group_8,group_15,group_23,group_37
916460060,195000,Timber,"2902 WHITE OAK DR, AMES, USA",41.9964253,-93.6464225,WHITE_OAK_DR,Timber_WHITE_OAK_DR,DR,1.898167216495544,2.1319620000733157,group_7,group_13,group_19,group_32
528431050,255000,Somerst,"2507 DALTON ST, AMES, USA",42.05442710000001,-93.6426419,DALTON_ST,Somerst_DALTON_ST,ST,2.821877558306528,2.339407124402163,group_9,group_18,group_26,group_44
527110020,168500,Gilbert,"1909 WYNGATE DR, AMES, USA",42.0607992,-93.6371189,WYNGATE_DR,Gilbert_WYNGATE_DR,DR,2.634486861745892,3.1469822413772977,group_6,group_11,group_17,group_27
535352080,118500,NAmes,"419 15TH ST, AMES, USA",42.0372364,-93.6164574,15TH_ST,NAmes_15TH_ST,ST,0.4228194554269537,2.731346531599969,group_2,group_4,group_6,group_10
527402250,149900,NAmes,"1115 GARNER CIR, AMES, USA",42.0546391,-93.6260076,GARNER_CIR,NAmes_GARNER_CIR,CIR,1.5092881154936373,2.993844430536905,group_5,group_10,group_15,group_25
535451040,119000,NAmes,"1517 STAFFORD AVE, AMES, USA",42.037496,-93.6081872,STAFFORD_AVE,NAmes_STAFFORD_AVE,AVE,0.8162811995979159,3.4126889703686536,group_2,group_3,group_4,group_7
905452050,113000,Edwards,"329 FRANKLIN AVE, AMES, USA",42.0259989,-93.6651337,FRANKLIN_AVE,Edwards_FRANKLIN_AVE,AVE,2.909476923236256,1.5840449204507987,group_2,group_3,group_4,group_7
903225090,159000,BrkSide,"1202 NORTHWESTERN AVE, AMES, USA",42.0334021,-93.6254061,NORTHWESTERN_AVE,BrkSide_NORTHWESTERN_AVE,AVE,0.7421762075767253,1.969034433400435,group_3,group_5,group_7,group_12
531363010,159000,SawyerW,"5406 KANSAS DR, AMES, USA",42.0375909,-93.6915912,KANSAS_DR,SawyerW_KANSAS_DR,DR,5.444695884631947,3.5212411523705787,group_5,group_9,group_14,group_22
923205025,168000,Mitchel,"314 PATRICIA DR, AMES, USA",41.9910265,-93.6075542,PATRICIA_DR,Mitchel_PATRICIA_DR,DR,3.262589993606253,3.4562898023514026,group_6,group_11,group_16,group_26
532377060,122000,Sawyer,"1327 ALABAMA LN, AMES, USA",42.0353407,-93.6726432,ALABAMA_LN,Sawyer_ALABAMA_LN,LN,4.034221156332283,1.9392943684682933,group_2,group_4,group_6,group_10
902109160,122250,OldTown,"926 GRAND AVE, AMES, USA",42.0311181,-93.6199993,GRAND_AVE,OldTown_GRAND_AVE,AVE,0.3920550978853964,2.318144046445852,group_2,group_4,group_6,group_9
902128075,120000,OldTown,"1107 KELLOGG AVE, AMES, USA",42.0324026,-93.6141622,KELLOGG_AVE,OldTown_KELLOGG_AVE,AVE,0.2189196134278168,2.7268889668360434,group_4,group_7,group_11,group_18
528178070,421250,NridgHt,"3728 BRIDGEPORT DR, AMES, USA",42.057717,-93.6557888,BRIDGEPORT_DR,NridgHt_BRIDGEPORT_DR,DR,3.96079948669935,2.6958715428844555,group_10,group_20,group_30,group_50
903225160,106900,BrkSide,"1232 NORTHWESTERN AVE, AMES, USA",42.0344029,-93.6254809,NORTHWESTERN_AVE,BrkSide_NORTHWESTERN_AVE,AVE,0.756055175085982,1.962444024600652,group_3,group_5,group_7,group_12
906380170,194000,CollgCr,"5327 DURANT ST, AMES, USA",42.0247884,-93.6903355,DURANT_ST,CollgCr_DURANT_ST,ST,4.74187242632581,3.544804020913389,group_7,group_14,group_20,group_33
528174020,204000,NridgHt,"2920 HARRISON RD, AMES, USA",42.05903259999999,-93.6506874,HARRISON_RD,NridgHt_HARRISON_RD,RD,3.59337218344728,2.789861551135816,group_9,group_18,group_26,group_43
910201110,100000,IDOTRR,"125 S HAZEL AVE, AMES, USA",42.0219116,-93.6271037,S_HAZEL_AVE,IDOTRR_S_HAZEL_AVE,AVE,1.356526113518538,1.145804635944433,group_2,group_3,group_4,group_6
535325400,105000,NAmes,"1606 BURNETT AVE, AMES, USA",42.0385019,-93.615257,BURNETT_AVE,NAmes_BURNETT_AVE,AVE,0.5716523977273268,2.851107237743522,group_3,group_5,group_7,group_11
535150070,104900,NAmes,"2201 BARR DR, AMES, USA",42.0439869,-93.6200585,BARR_DR,NAmes_BARR_DR,DR,1.0845318395538952,2.6546702871017707,group_3,group_5,group_7,group_11
533254100,187000,Veenker,"2106 TORREY PINES RD, AMES, USA",42.0425245,-93.6453344,TORREY_PINES_RD,Veenker_TORREY_PINES_RD,RD,2.59302154666128,1.0047036689331872,group_7,group_14,group_21,group_34
533254130,181500,Veenker,"2124 TORREY PINES RD, AMES, USA",42.0431997,-93.6453542,TORREY_PINES_RD,Veenker_TORREY_PINES_RD,RD,2.624677351590541,1.075599409427108,group_7,group_14,group_21,group_34
907194110,187100,CollgCr,"5344 CLEMENS BLVD, AMES, USA",42.01589999999999,-93.691047,CLEMENS_BLVD,CollgCr_CLEMENS_BLVD,BLVD,4.592239186358823,3.9954729410898993,group_8,group_15,group_22,group_37
531375100,158000,SawyerW,"5321 KANSAS DR, AMES, USA",42.0379247,-93.6908705,KANSAS_DR,SawyerW_KANSAS_DR,DR,5.414378705033497,3.4666265641023544,group_5,group_9,group_14,group_22
532477030,192000,Veenker,"3326 KINGMAN RD, AMES, USA",42.0373562,-93.6621259,KINGMAN_RD,Veenker_KINGMAN_RD,RD,3.601857725687999,1.1294008458094973,group_10,group_19,group_28,group_47
534102025,230000,Somerst,"2651 SOMERSET DR, AMES, USA",42.0487197,-93.6396919,SOMERSET_DR,Somerst_SOMERSET_DR,DR,2.523840400203722,1.8200071121498949,group_8,group_16,group_23,group_38
905452160,128000,Edwards,"322 CRANE AVE, AMES, USA",42.0257232,-93.6659285,CRANE_AVE,Edwards_CRANE_AVE,AVE,2.947940280399067,1.6556513529901444,group_4,group_8,group_12,group_19
533208050,197000,Somerst,"2808 NORTHRIDGE LN, AMES, USA",42.0476561,-93.6468744,NORTHRIDGE_LN,Somerst_NORTHRIDGE_LN,LN,2.9708531139151875,1.5347029819066564,group_7,group_13,group_19,group_31
905427030,415000,Edwards,"3226 OAKLAND ST, AMES, USA",42.0278812,-93.6618232,OAKLAND_ST,Edwards_OAKLAND_ST,ST,2.8159086472706534,1.2404759587174825,group_7,group_14,group_20,group_34
535301010,135960,NAmes,"520 20TH ST, AMES, USA",42.0418428,-93.6183333,20TH_ST,NAmes_20TH_ST,ST,0.9482744127665058,2.6981276910437426,group_3,group_6,group_9,group_14
909280030,250000,Crawfor,"623 AGG AVE, AMES, USA",42.01670499999999,-93.6414739,AGG_AVE,Crawfor_AGG_AVE,AVE,0.7419918378225151,0.5584013433561393,group_9,group_18,group_27,group_45
528116010,296000,NridgHt,"4115 WEMBLEY AVE, AMES, USA",42.06094179999999,-93.6587988,WEMBLEY_AVE,NridgHt_WEMBLEY_AVE,AVE,4.2958563410052655,2.542757625931214,group_10,group_19,group_29,group_48
528228270,172500,Blmngtn,"2421 WESTWIND DR, AMES, USA",42.0625489,-93.643081,WESTWIND_DR,Blmngtn_WESTWIND_DR,DR,3.160303212517742,3.2186426576519787,group_7,group_13,group_20,group_33
907252210,236500,CollgCr,"4707 HEMINGWAY DR, AMES, USA",42.0190043,-93.6830861,HEMINGWAY_DR,CollgCr_HEMINGWAY_DR,DR,3.995815184044413,3.2535983324635698,group_9,group_17,group_25,group_41
909475020,223000,Crawfor,"2166 ASHMORE DR, AMES, USA",42.0114303,-93.6439089,ASHMORE_DR,Crawfor_ASHMORE_DR,DR,0.6724779162224304,0.7206694596416764,group_9,group_18,group_27,group_44
907253110,230500,CollgCr,"4812 HEMINGWAY DR, AMES, USA",42.018555,-93.6847081,HEMINGWAY_DR,CollgCr_HEMINGWAY_DR,DR,4.117265071108445,3.394386993569733,group_9,group_17,group_25,group_41
535325280,130000,NAmes,"1617 DOUGLAS AVE, AMES, USA",42.0389768,-93.612698,DOUGLAS_AVE,NAmes_DOUGLAS_AVE,AVE,0.6887330143018039,3.068479339835124,group_3,group_6,group_8,group_13
532378240,125500,Sawyer,"1322 ALABAMA LN, AMES, USA",42.0352837,-93.6720093,ALABAMA_LN,Sawyer_ALABAMA_LN,LN,3.990642570844301,1.8866065971682888,group_2,group_4,group_6,group_10
908102260,147500,Edwards,"208 TODD CIR, AMES, USA",42.0208611,-93.677239,TODD_CIR,Edwards_TODD_CIR,CIR,3.578829958316984,2.7338257139620743,group_3,group_6,group_9,group_14
908226180,79000,Edwards,"110 S WILMOTH AVE, AMES, USA",42.0222452,-93.661403,S_WILMOTH_AVE,Edwards_S_WILMOTH_AVE,AVE,2.4286183450093146,1.6458122124145569,group_1,group_1,group_1,group_1
527425060,97000,NAmes,"902 TOP O HOLLOW RD, AMES, USA",42.0564397,-93.6235415,TOP_O_HOLLOW_RD,NAmes_TOP_O_HOLLOW_RD,RD,1.423104281398894,3.2781427525416995,group_3,group_5,group_8,group_12
527451540,97000,BrDale,"1428 BRECKINRIDGE CT, AMES, USA",42.0515861,-93.6289749,BRECKINRIDGE_CT,BrDale_BRECKINRIDGE_CT,CT,1.6555481458124284,2.5763972848341443,group_1,group_2,group_3,group_4
902128170,119000,OldTown,"1126 BURNETT AVE, AMES, USA",42.0330581,-93.6152617,BURNETT_AVE,OldTown_BURNETT_AVE,AVE,0.1043977169913914,2.7246381180059784,group_3,group_5,group_7,group_11
903455090,125500,IDOTRR,"1103 N 2ND ST, AMES, USA",42.0242798,-93.6255205,N_2ND_ST,IDOTRR_N_2ND_ST,ST,1.2653585764392723,1.4340846117327484,group_2,group_4,group_6,group_9
910203250,82000,IDOTRR,"228 S RIVERSIDE DR, AMES, USA",42.02052500000001,-93.6293007,S_RIVERSIDE_DR,IDOTRR_S_RIVERSIDE_DR,DR,1.132113323341839,0.9127226958711622,group_1,group_2,group_3,group_4
903228070,93000,BrkSide,"803 12TH ST, AMES, USA",42.033517,-93.6217209,12TH_ST,BrkSide_12TH_ST,ST,0.4379015845314728,2.272943896713341,group_1,group_2,group_3,group_5
527214060,535000,StoneBr,"4008 FRANCES E DAVIS CT, AMES, USA",42.0604129,-93.6273412,FRANCES_E_DAVIS_CT,StoneBr_FRANCES_E_DAVIS_CT,CT,1.9379492691831912,3.4520070558387244,group_10,group_20,group_30,group_50
528427010,235128,Somerst,"3205 CULLEN DR, AMES, USA",42.0544578,-93.644377,CULLEN_DR,Somerst_CULLEN_DR,DR,2.963088866650122,2.313630774705195,group_8,group_16,group_24,group_40
535451250,138000,NAmes,"1518 CARROLL AVE, AMES, USA",42.0375173,-93.6087412,CARROLL_AVE,NAmes_CARROLL_AVE,AVE,0.7799581457981449,3.3675195352551954,group_2,group_3,group_4,group_7
908152270,176000,Edwards,"415 BEEDLE DR, AMES, USA",42.01853879999999,-93.6734944,BEEDLE_DR,Edwards_BEEDLE_DR,DR,3.211929153393355,2.637804211846083,group_5,group_9,group_13,group_21
909452050,208000,Crawfor,"1312 BIG BLUESTEM CT, AMES, USA",42.0105014,-93.6445622,BIG_BLUESTEM_CT,Crawfor_BIG_BLUESTEM_CT,CT,0.7356260180667874,0.8135708076958886,group_7,group_14,group_21,group_34
532354160,141000,Sawyer,"4133 ONTARIO ST, AMES, USA",42.034755,-93.675258,ONTARIO_ST,Sawyer_ONTARIO_ST,ST,4.158976234605206,2.151014208559679,group_4,group_7,group_11,group_17
531453100,162000,SawyerW,"1510 ILLINOIS AVE, AMES, USA",42.03649679999999,-93.6848072,ILLINOIS_AVE,SawyerW_ILLINOIS_AVE,AVE,4.909343209959314,2.951294139043701,group_5,group_9,group_14,group_23
527328050,151500,NWAmes,"1606 TOP O HOLLOW RD, AMES, USA",42.0562947,-93.6318141,TOP_O_HOLLOW_RD,NWAmes_TOP_O_HOLLOW_RD,RD,2.022657069919167,2.8694762688537607,group_3,group_5,group_8,group_12
907418010,218836,CollgCr,"804 POE AVE, AMES, USA",42.0159656,-93.6835194,POE_AVE,CollgCr_POE_AVE,AVE,3.9752289463995374,3.4678739181769718,group_7,group_14,group_21,group_35
528344020,322500,NoRidge,"3040 BAYBERRY RD, AMES, USA",42.0533181,-93.653868,BAYBERRY_RD,NoRidge_BAYBERRY_RD,RD,3.71857624258606,2.1856034204378805,group_10,group_19,group_28,group_47
532353180,151000,Sawyer,"1330 WOODSTOCK AVE, AMES, USA",42.03605630000001,-93.6768428,WOODSTOCK_AVE,Sawyer_WOODSTOCK_AVE,AVE,4.3515114646762685,2.2919049847999347,group_3,group_6,group_8,group_14
902106070,127500,OldTown,"611 10TH ST, AMES, USA",42.0314757,-93.6190693,10TH_ST,OldTown_10TH_ST,ST,0.3086982833322998,2.3947011878327773,group_2,group_3,group_4,group_6
528221050,203000,Gilbert,"4102 CRESTMOOR AVE, AMES, USA",42.0621827,-93.6446414,CRESTMOOR_AVE,Gilbert_CRESTMOOR_AVE,AVE,3.257120264939632,3.160401986576107,group_6,group_12,group_17,group_28
534479300,121000,NAmes,"1512 HARDING AVE, AMES, USA",42.0374016,-93.6212596,HARDING_AVE,NAmes_HARDING_AVE,AVE,0.5953085158555529,2.341793882980264,group_3,group_6,group_9,group_15
906223060,213000,SawyerW,"1005 FLORIDA AVE, AMES, USA",42.03100860000001,-93.6812805,FLORIDA_AVE,SawyerW_FLORIDA_AVE,AVE,4.337569634491006,2.6670482527254764,group_8,group_15,group_22,group_37
535105060,174000,NAmes,"428 26TH ST, AMES, USA",42.0470945,-93.6169928,26TH_ST,NAmes_26TH_ST,ST,0.6975824456138328,3.036537124887028,group_5,group_9,group_13,group_22
528108040,398800,NridgHt,"3106 SEDWICK ST, AMES, USA",42.0628475,-93.6545762,SEDWICK_ST,NridgHt_SEDWICK_ST,ST,4.03797330759163,2.7494563741291103,group_10,group_20,group_30,group_49
909279010,205000,Crawfor,"2159 COUNTRY CLUB BLVD, AMES, USA",42.0158528,-93.6439873,COUNTRY_CLUB_BLVD,Crawfor_COUNTRY_CLUB_BLVD,BLVD,0.8304721075113735,0.7056786726477102,group_8,group_16,group_24,group_40
527183030,189000,StoneBr,"1527 STONE BROOKE RD, AMES, USA",42.059518,-93.632013,STONE_BROOKE_RD,StoneBr_STONE_BROOKE_RD,RD,2.1977499353467245,3.1772699903025683,group_8,group_16,group_23,group_38
527276160,185000,Gilbert,"3616 CALHOUN AVE, AMES, USA",42.0572419,-93.6238185,CALHOUN_AVE,Gilbert_CALHOUN_AVE,AVE,1.492503462626584,3.3321771455259768,group_6,group_12,group_18,group_30
902207130,12789,OldTown,"931 MAXWELL AVE, AMES, USA",42.031265,-93.607092,MAXWELL_AVE,OldTown_MAXWELL_AVE,AVE,0.8072876588406743,3.060378078408004,group_2,group_4,group_5,group_9
903227020,128000,BrkSide,"1225 ROOSEVELT AVE, AMES, USA",42.034251,-93.6228521,ROOSEVELT_AVE,BrkSide_ROOSEVELT_AVE,AVE,0.5389396331252663,2.179187302437484,group_3,group_5,group_7,group_12
908203100,90000,Edwards,"308 VILLAGE DR, AMES, USA",42.019586,-93.6663444,VILLAGE_DR,Edwards_VILLAGE_DR,DR,2.6791881237763984,2.133999917827173,group_1,group_1,group_2,group_3
534152120,167900,NWAmes,"2204 PRAIRIE VIEW EAST, AMES, USA",42.0437693,-93.6377325,PRAIRIE_VIEW_EAST,NWAmes_PRAIRIE_VIEW_EAST,EAST,2.1020428729774587,1.4458957808494617,group_8,group_15,group_22,group_36
907290240,143000,CollgCr,"4715 TWAIN ST, AMES, USA",42.01642289999999,-93.6828802,TWAIN_ST,CollgCr_TWAIN_ST,ST,3.929504945749477,3.395418004339278,group_4,group_7,group_10,group_17
528478030,250000,Somerst,"2419 KINGSTON DR, AMES, USA",42.0524069,-93.6411967,KINGSTON_DR,Somerst_KINGSTON_DR,DR,2.667777531623436,2.1552994360146216,group_9,group_18,group_26,group_43
910201180,150909,IDOTRR,"114 S RUSSELL AVE, AMES, USA",42.0223091,-93.6279956,S_RUSSELL_AVE,IDOTRR_S_RUSSELL_AVE,AVE,1.3578946307421988,1.136807575489201,group_1,group_2,group_3,group_5
533208140,178000,Somerst,"2720 NORTHRIDGE LN, AMES, USA",42.047901,-93.6458654,NORTHRIDGE_LN,Somerst_NORTHRIDGE_LN,LN,2.9155861650781887,1.5742909683330122,group_7,group_13,group_19,group_31
528166150,350000,NridgHt,"3321 FOXLEY DR, AMES, USA",42.0587987,-93.6575908,FOXLEY_DR,NridgHt_FOXLEY_DR,DR,4.13431875944934,2.7580109751617217,group_10,group_20,group_30,group_50
905107140,143500,Sawyer,"911 MESA VERDE PL, AMES, USA",42.0309173,-93.6720489,MESA_VERDE_PL,Sawyer_MESA_VERDE_PL,PL,3.690327388509544,1.914495975788071,group_4,group_8,group_11,group_19
527180100,180500,Gilbert,"3817 FLETCHER BLVD, AMES, USA",42.0588403,-93.6349613,FLETCHER_BLVD,Gilbert_FLETCHER_BLVD,BLVD,2.3759301063871967,3.0065557627832837,group_6,group_11,group_16,group_26
528458080,255000,Somerst,"2810 ASPEN RD, AMES, USA",42.0506808,-93.6467903,ASPEN_RD,Somerst_ASPEN_RD,RD,3.1119686721851934,1.869535510303516,group_9,group_17,group_26,group_43
905101450,154500,Sawyer,"1208 ARIZONA AVE, AMES, USA",42.03354789999999,-93.6752184,ARIZONA_AVE,Sawyer_ARIZONA_AVE,AVE,4.074469650536074,2.1464776612408354,group_4,group_7,group_10,group_16
914460110,245000,Mitchel,"303 RUBY CIR, AMES, USA",41.9961894,-93.6074948,RUBY_CIR,Mitchel_RUBY_CIR,CIR,2.8941787118988795,3.0619777688671728,group_9,group_17,group_25,group_41
534400290,153000,NAmes,"1413 16TH ST, AMES, USA",42.0384749,-93.6286474,16TH_ST,NAmes_16TH_ST,ST,1.154963147429913,1.7726479548020506,group_2,group_4,group_6,group_9
907254020,230000,CollgCr,"519 POE CIR, AMES, USA",42.0176489,-93.6846487,POE_CIR,CollgCr_POE_CIR,CIR,4.094586805797109,3.442196551898318,group_8,group_15,group_23,group_38
528458030,212700,Somerst,"2840 ASPEN RD, AMES, USA",42.0511533,-93.6479129,ASPEN_RD,Somerst_ASPEN_RD,RD,3.2073055663352648,1.9142591359450252,group_9,group_17,group_26,group_43
528480060,339750,Somerst,"2518 KINGSTON DR, AMES, USA",42.0520522,-93.6430584,KINGSTON_DR,Somerst_KINGSTON_DR,DR,2.815970945769465,2.0747680261594037,group_9,group_18,group_26,group_43
905226050,112000,Sawyer,"1203 SCOTT AVE, AMES, USA",42.0335262,-93.661096,SCOTT_AVE,Sawyer_SCOTT_AVE,AVE,3.2167877769940336,0.98082241950571,group_3,group_5,group_8,group_13
528253010,207500,NridgHt,"2839 ROXBORO DR, AMES, USA",42.0585953,-93.6496278,ROXBORO_DR,NridgHt_ROXBORO_DR,DR,3.495446124088751,2.738849053561691,group_9,group_17,group_25,group_41
528228345,195000,Blmngtn,"2309 WESTWIND DR, AMES, USA",42.0628233,-93.6408725,WESTWIND_DR,Blmngtn_WESTWIND_DR,DR,3.0147869095145485,3.28224376235472,group_7,group_13,group_20,group_33
527425140,120500,NAmes,"704 TOP O HOLLOW RD, AMES, USA",42.0564983,-93.6216813,TOP_O_HOLLOW_RD,NAmes_TOP_O_HOLLOW_RD,RD,1.3014585601083453,3.3844080526414784,group_3,group_5,group_8,group_12
907135020,144000,CollgCr,"5409 FROST DR, AMES, USA",42.0192775,-93.6917028,FROST_DR,CollgCr_FROST_DR,DR,4.69996489397004,3.869420809078782,group_4,group_7,group_10,group_17
533206040,176400,Somerst,"2815 BRISTOL DR, AMES, USA",42.0475835,-93.6475137,BRISTOL_DR,Somerst_BRISTOL_DR,DR,3.0114526078095936,1.5208564501515616,group_7,group_13,group_19,group_32
535181140,130000,NAmes,"2104 DOUGLAS AVE, AMES, USA",42.04318689999999,-93.6120847,DOUGLAS_AVE,NAmes_DOUGLAS_AVE,AVE,0.7332465463145557,3.2348125692088363,group_3,group_6,group_8,group_13
902427045,97000,OldTown,"422 E 6TH ST, AMES, USA",42.0268212,-93.6045659,E_6TH_ST,OldTown_E_6TH_ST,ST,1.2244574437289426,2.9562000728978703,group_2,group_3,group_4,group_6
527405130,76500,NAmes,"1202 WHEELER ST, AMES, USA",42.0531586,-93.6271829,WHEELER_ST,NAmes_WHEELER_ST,ST,1.5470298166644765,2.8054488898462133,group_2,group_3,group_4,group_7
528431040,419005,Somerst,"3217 KENT AVE, AMES, USA",42.0548082,-93.6428003,KENT_AVE,Somerst_KENT_AVE,AVE,2.843337488770509,2.3776828637358323,group_10,group_19,group_28,group_46
527450210,83000,BrDale,"1333 TRUMAN PL, AMES, USA",42.0526837,-93.627919,TRUMAN_PL,BrDale_TRUMAN_PL,PL,1.5927474156895125,2.7258536353418337,group_1,group_2,group_3,group_5
532378200,142000,Sawyer,"3905 ONTARIO ST, AMES, USA",42.0347196,-93.6714445,ONTARIO_ST,Sawyer_ONTARIO_ST,ST,3.914208904582779,1.8361831596990603,group_4,group_7,group_11,group_17
909278020,154900,Crawfor,"602 ASH AVE, AMES, USA",42.0169237,-93.6439868,ASH_AVE,Crawfor_ASH_AVE,AVE,0.9042933202680918,0.7505926224699548,group_7,group_14,group_20,group_33
534225110,145000,NAmes,"2624 MELROSE AVE, AMES, USA",42.0482782,-93.6244101,MELROSE_AVE,NAmes_MELROSE_AVE,AVE,1.2671043217141895,2.5952706460060577,group_3,group_5,group_8,group_12
909451130,123900,Blueste,"1505 LITTLE BLUESTEM CT, AMES, USA",42.0095436,-93.6461428,LITTLE_BLUESTEM_CT,Blueste_LITTLE_BLUESTEM_CT,CT,0.8854881783552205,0.9793380157483516,group_4,group_7,group_11,group_17
528142020,250000,NridgHt,"3122 BECKLEY ST, AMES, USA",42.0602968,-93.6546244,BECKLEY_ST,NridgHt_BECKLEY_ST,ST,3.945682082317123,2.8753150388739668,group_10,group_19,group_28,group_46
527404030,143000,NAmes,"1212 JEFFERSON ST, AMES, USA",42.0550975,-93.6269312,JEFFERSON_ST,NAmes_JEFFERSON_ST,ST,1.5993924202081873,2.9855098678480507,group_3,group_6,group_9,group_15
527162180,183000,Gilbert,"3840 BERKSHIRE AVE, AMES, USA",42.0596104,-93.6387303,BERKSHIRE_AVE,Gilbert_BERKSHIRE_AVE,AVE,2.693619480192753,2.9805410853856062,group_7,group_13,group_19,group_31
534151180,255000,NWAmes,"2025 PRAIRIE VIEW EAST, AMES, USA",42.0425109,-93.6378315,PRAIRIE_VIEW_EAST,NWAmes_PRAIRIE_VIEW_EAST,EAST,2.0360385248795576,1.3377897385143762,group_8,group_15,group_22,group_36
908204090,131750,Edwards,"278 VILLAGE DR, AMES, USA",42.01868899999999,-93.66636350000002,VILLAGE_DR,Edwards_VILLAGE_DR,DR,2.649114837036157,2.2107387695186795,group_1,group_1,group_2,group_3
532354070,132500,Sawyer,"4106 TORONTO ST, AMES, USA",42.0357588,-93.6740629,TORONTO_ST,Sawyer_TORONTO_ST,ST,4.153448302474302,2.060173151600948,group_2,group_4,group_5,group_9
527302070,181900,NWAmes,"3306 EISENHOWER AVE, AMES, USA",42.0548788,-93.6376543,EISENHOWER_AVE,NWAmes_EISENHOWER_AVE,AVE,2.431642344266729,2.5143550477664967,group_6,group_12,group_18,group_29
527214030,387000,StoneBr,"4013 FRANCES E DAVIS CT, AMES, USA",42.0606794,-93.6280735,FRANCES_E_DAVIS_CT,StoneBr_FRANCES_E_DAVIS_CT,CT,2.0035989028744816,3.44623458038824,group_10,group_20,group_30,group_50
533128030,268000,NoRidge,"2713 NORTHRIDGE CIR, AMES, USA",42.04851060000001,-93.6508187,NORTHRIDGE_CIR,NoRidge_NORTHRIDGE_CIR,CIR,3.298467190468488,1.6225672473987216,group_9,group_18,group_26,group_43
902330010,122000,OldTown,"114 8TH ST, AMES, USA",42.0287671,-93.6112142,8TH_ST,OldTown_8TH_ST,ST,0.6739181565036536,2.620982853838098,group_3,group_6,group_9,group_14
923228150,97000,MeadowV,"707 MEADOW PL, AMES, USA",41.9923452,-93.6017723,MEADOW_PL,MeadowV_MEADOW_PL,PL,3.5288523334313133,3.699117754221613,group_1,group_1,group_1,group_2
527302080,229000,NWAmes,"3300 EISENHOWER AVE, AMES, USA",42.0546022,-93.6375749,EISENHOWER_AVE,NWAmes_EISENHOWER_AVE,AVE,2.4177693583208035,2.488467728069331,group_6,group_12,group_18,group_29
528344040,340000,NoRidge,"3028 BAYBERRY RD, AMES, USA",42.05324359999999,-93.653175,BAYBERRY_RD,NoRidge_BAYBERRY_RD,RD,3.660783409768818,2.1681251188998805,group_10,group_19,group_28,group_47
535403040,115000,NAmes,"120 E O NEIL DR, AMES, USA",42.0398752,-93.6096795,E_O_NEIL_DR,NAmes_E_O_NEIL_DR,DR,0.9071222767382972,3.3321609537192463,group_4,group_7,group_10,group_16
535375050,135000,OldTown,"1517 KELLOGG AVE, AMES, USA",42.0376898,-93.6143204,KELLOGG_AVE,OldTown_KELLOGG_AVE,AVE,0.5039930948914679,2.9130878574449985,group_4,group_7,group_11,group_18
535376060,149000,OldTown,"1511 DOUGLAS AVE, AMES, USA",42.0375773,-93.6128264,DOUGLAS_AVE,OldTown_DOUGLAS_AVE,AVE,0.5480337746835632,3.033592883510656,group_3,group_6,group_8,group_13
924151040,285000,Mitchel,"3616 JEWEL DR, AMES, USA",41.9894523,-93.5997998,JEWEL_DR,Mitchel_JEWEL_DR,DR,3.856540954994125,4.034230411860433,group_6,group_12,group_17,group_29
528186160,234250,NridgHt,"3703 CHILTON AVE, AMES, USA",42.0572465,-93.65143940000002,CHILTON_AVE,NridgHt_CHILTON_AVE,AVE,3.599559321744699,2.595068996820433,group_8,group_15,group_22,group_36
532351150,119500,Sawyer,"4307 TORONTO ST, AMES, USA",42.0365395,-93.6774371,TORONTO_ST,Sawyer_TORONTO_ST,ST,4.4234353732950495,2.3466751630101763,group_2,group_4,group_5,group_9
905105010,142500,Sawyer,"1019 ARIZONA AVE, AMES, USA",42.0319709,-93.6757683,ARIZONA_AVE,Sawyer_ARIZONA_AVE,AVE,4.009060419942911,2.202618151859911,group_4,group_7,group_10,group_16
527452310,123000,NAmes,"1413 JOHNSON ST, AMES, USA",42.0490425,-93.6297359,JOHNSON_ST,NAmes_JOHNSON_ST,ST,1.7010909699345906,2.32449851954177,group_4,group_8,group_12,group_20
909250200,149000,SWISU,"428 STANTON AVE, AMES, USA",42.0181097,-93.6482831,STANTON_AVE,SWISU_STANTON_AVE,AVE,1.265123416804783,1.1278112853891755,group_3,group_5,group_7,group_12
905101300,136000,Sawyer,"3901 QUEBEC ST, AMES, USA",42.0335232,-93.6714943,QUEBEC_ST,Sawyer_QUEBEC_ST,ST,3.831145034287604,1.8390595682770727,group_3,group_6,group_9,group_15
902329080,119000,OldTown,"219 7TH ST, AMES, USA",42.0281092,-93.6130937,7TH_ST,OldTown_7TH_ST,ST,0.6527254117024087,2.454675110871706,group_1,group_2,group_3,group_5
903225140,124000,BrkSide,"1222 NORTHWESTERN AVE, AMES, USA",42.03409509999999,-93.6254413,NORTHWESTERN_AVE,BrkSide_NORTHWESTERN_AVE,AVE,0.7486884952111819,1.9651703497934052,group_3,group_5,group_7,group_12
533215080,328900,Somerst,"2415 BRADFORD DR, AMES, USA",42.0461873,-93.6473116,BRADFORD_DR,Somerst_BRADFORD_DR,DR,2.918755260999914,1.3681996991096157,group_10,group_19,group_28,group_46
534452060,118000,BrkSide,"1301 RIDGEWOOD AVE, AMES, USA",42.0347205,-93.6279035,RIDGEWOOD_AVE,BrkSide_RIDGEWOOD_AVE,AVE,0.9591475576546508,1.7637530350891448,group_3,group_5,group_8,group_13
532476050,260000,Veenker,"1601 AMHERST DR, AMES, USA",42.0374016,-93.6606999,AMHERST_DR,Veenker_AMHERST_DR,DR,3.536013703672924,1.0210209898798015,group_9,group_17,group_25,group_41
909428110,157000,Crawfor,"2004 MCCARTHY RD, AMES, USA",42.0134137,-93.639695,MCCARTHY_RD,Crawfor_MCCARTHY_RD,RD,0.3847684394598035,0.3222884713546909,group_5,group_9,group_14,group_23
528170040,437154,NridgHt,"3108 ROXBORO DR, AMES, USA",42.0585746,-93.6537096,ROXBORO_DR,NridgHt_ROXBORO_DR,DR,3.818396922386485,2.7611880530101613,group_9,group_17,group_25,group_41
533110130,260000,NoRidge,"2503 RIDGETOP RD, AMES, USA",42.0456147,-93.6532344,RIDGETOP_RD,NoRidge_RIDGETOP_RD,RD,3.328288679262493,1.3367236939091969,group_10,group_20,group_30,group_49
921205030,369900,Timber,"2406 COTTONWOOD RD, AMES, USA",41.993051,-93.6481854,COTTONWOOD_RD,Timber_COTTONWOOD_RD,RD,2.29859443481884,2.534008378036051,group_10,group_20,group_29,group_49
923203090,164000,Mitchel,"3318 EMERALD DR, AMES, USA",41.9924431,-93.6079392,EMERALD_DR,Mitchel_EMERALD_DR,DR,3.1309574127234856,3.3197938454286327,group_5,group_10,group_15,group_24
535104120,187500,NAmes,"510 LUTHER DR, AMES, USA",42.0481221,-93.617882,LUTHER_DR,NAmes_LUTHER_DR,DR,0.7358585436690291,3.030094239011035,group_3,group_6,group_9,group_15
528366070,263000,NoRidge,"3108 SYCAMORE RD, AMES, USA",42.04935570000001,-93.6533928,SYCAMORE_RD,NoRidge_SYCAMORE_RD,RD,3.529382935342585,1.7453644013641034,group_10,group_19,group_28,group_47
923204040,173000,Mitchel,"428 JEWEL DR, AMES, USA",41.9930384,-93.6058622,JEWEL_DR,Mitchel_JEWEL_DR,DR,3.216333994274413,3.3956451956192013,group_6,group_12,group_17,group_29
535378080,128500,OldTown,"1400 BURNETT AVE, AMES, USA",42.03588310000001,-93.6152702,BURNETT_AVE,OldTown_BURNETT_AVE,AVE,0.2884094912400269,2.813196255395588,group_3,group_5,group_7,group_11
533251130,194000,Veenker,"2804 PINEHURST CIR, AMES, USA",42.0445091,-93.6454729,PINEHURST_CIR,Veenker_PINEHURST_CIR,CIR,2.696880818336765,1.212810260296982,group_7,group_14,group_21,group_34
528235130,178000,Gilbert,"3838 WELBECK DR, AMES, USA",42.0597804,-93.6436912,WELBECK_DR,Gilbert_WELBECK_DR,DR,3.076991652873562,2.906706973617636,group_6,group_12,group_18,group_30
903226130,128000,BrkSide,"1210 CURTISS AVE, AMES, USA",42.0337014,-93.6244518,CURTISS_AVE,BrkSide_CURTISS_AVE,AVE,0.664015968086927,2.047058357356123,group_2,group_3,group_5,group_8
903235020,89000,BrkSide,"1018 10TH ST, AMES, USA",42.0310757,-93.6244122,10TH_ST,BrkSide_10TH_ST,ST,0.710273202387086,2.0751975750089864,group_2,group_3,group_4,group_6
527425110,130000,NAmes,"804 TOP O HOLLOW RD, AMES, USA",42.0564842,-93.6223046,TOP_O_HOLLOW_RD,NAmes_TOP_O_HOLLOW_RD,RD,1.3418459366654785,3.3488510146010277,group_3,group_5,group_8,group_12
902327070,160000,OldTown,"803 DUFF AVE, AMES, USA",42.0292194,-93.6109097,DUFF_AVE,OldTown_DUFF_AVE,AVE,0.6532648499717395,2.6722987954858928,group_5,group_10,group_14,group_23
903425270,90000,BrkSide,"616 RIDGEWOOD AVE, AMES, USA",42.0274591,-93.6251642,RIDGEWOOD_AVE,BrkSide_RIDGEWOOD_AVE,AVE,0.9813286391178936,1.7456953453831865,group_3,group_5,group_8,group_13
534127230,150000,NWAmes,"2729 CLEVELAND DR, AMES, USA",42.0491383,-93.6349836,CLEVELAND_DR,NWAmes_CLEVELAND_DR,DR,2.1341175926899854,2.057013950076409,group_7,group_13,group_19,group_31
914478100,143000,Mitchel,"700 DIAMOND CT, AMES, USA",41.9941843,-93.6017778,DIAMOND_CT,Mitchel_DIAMOND_CT,CT,3.40858196551058,3.569523078175745,group_4,group_7,group_10,group_17
535301150,156000,NAmes,"1904 WILSON AVE, AMES, USA",42.0408291,-93.618257,WILSON_AVE,NAmes_WILSON_AVE,AVE,0.8361765243388268,2.66972895356492,group_3,group_6,group_9,group_14
903225150,87000,BrkSide,"1226 NORTHWESTERN AVE, AMES, USA",42.034211,-93.6254413,NORTHWESTERN_AVE,BrkSide_NORTHWESTERN_AVE,AVE,0.7500628558139069,1.9653049527691735,group_3,group_5,group_7,group_12
527402220,148500,NAmes,"3316 GARNER AVE, AMES, USA",42.0549312,-93.6261608,GARNER_AVE,NAmes_GARNER_AVE,AVE,1.5336802193495938,3.010830560918645,group_3,group_5,group_7,group_11
904351240,63000,Edwards,"122 HOWARD AVE, AMES, USA",42.0235537,-93.6582245,HOWARD_AVE,Edwards_HOWARD_AVE,AVE,2.285226781412452,1.3754284569745678,group_1,group_2,group_2,group_3
535452090,128000,NAmes,"1425 MAXWELL AVE, AMES, USA",42.0366873,-93.6071719,MAXWELL_AVE,NAmes_MAXWELL_AVE,AVE,0.845123620545362,3.4675511138320108,group_2,group_4,group_5,group_9
528108020,253293,NridgHt,"3122 SEDWICK ST, AMES, USA",42.0628256,-93.6552184,SEDWICK_ST,NridgHt_SEDWICK_ST,ST,4.086387389321279,2.702343283726357,group_10,group_20,group_30,group_49
528427070,214000,Somerst,"3317 CULLEN DR, AMES, USA",42.05564469999999,-93.6444035,CULLEN_DR,Somerst_CULLEN_DR,DR,2.993009477072835,2.4433574820018387,group_8,group_16,group_24,group_40
902125020,124000,OldTown,"1229 KELLOGG AVE, AMES, USA",42.03440639999999,-93.6143204,KELLOGG_AVE,OldTown_KELLOGG_AVE,AVE,0.2043547659278975,2.884000003798202,group_4,group_7,group_11,group_18
910201050,129850,IDOTRR,"1212 LINCOLN WAY, AMES, USA",42.0226345,-93.6274599,LINCOLN_WAY,IDOTRR_LINCOLN_WAY,WAY,1.4108765379942154,1.19188298064575,group_1,group_2,group_2,group_3
527425090,115000,NAmes,"808 TOP O HOLLOW RD, AMES, USA",42.0564811,-93.6227035,TOP_O_HOLLOW_RD,NAmes_TOP_O_HOLLOW_RD,RD,1.3684627259680051,3.3268096482046614,group_3,group_5,group_8,group_12
909277100,163500,Crawfor,"2011 KILDEE ST, AMES, USA",42.0177472,-93.6402861,KILDEE_ST,Crawfor_KILDEE_ST,ST,0.783579300254862,0.5617937828593018,group_5,group_10,group_14,group_24
531452070,145000,SawyerW,"1408 INDIANA AVE, AMES, USA",42.0356192,-93.6859598,INDIANA_AVE,SawyerW_INDIANA_AVE,AVE,4.934609238321747,3.038624649615803,group_4,group_8,group_12,group_20
528387050,271000,NoRidge,"3015 VALLEY VIEW RD, AMES, USA",42.05072029999999,-93.6517691,VALLEY_VIEW_RD,NoRidge_VALLEY_VIEW_RD,RD,3.4951182279432054,1.8747117991413031,group_10,group_19,group_29,group_48
905480240,95000,Edwards,"3121 LINCOLN WAY, AMES, USA",42.0229632,-93.660997,LINCOLN_WAY,Edwards_LINCOLN_WAY,WAY,2.4399769597258603,1.5622653482158746,group_1,group_2,group_2,group_3
535476350,192000,NAmes,"1522 LINDEN DR, AMES, USA",42.0374399,-93.6046507,LINDEN_DR,NAmes_LINDEN_DR,DR,1.0692070054755696,3.672157955093441,group_5,group_10,group_15,group_25
527258010,394432,StoneBr,"1316 KINYON CIR, AMES, USA",42.0587063,-93.6294193,KINYON_CIR,StoneBr_KINYON_CIR,CIR,1.9678423452030576,3.200834452259532,group_10,group_20,group_30,group_50
906394060,181000,CollgCr,"112 HARTFORD DR, AMES, USA",42.0232913,-93.6888295,HARTFORD_DR,CollgCr_HARTFORD_DR,DR,4.573543635002632,3.4791237252680656,group_8,group_15,group_23,group_37
909282030,381000,Crawfor,"2116 COUNTRY CLUB BLVD, AMES, USA",42.0156689,-93.6424799,COUNTRY_CLUB_BLVD,Crawfor_COUNTRY_CLUB_BLVD,BLVD,0.7190097146645064,0.5811420179026585,group_8,group_16,group_24,group_40
905225040,140000,Sawyer,"1239 WISCONSIN AVE, AMES, USA",42.0340067,-93.6623833,WISCONSIN_AVE,Sawyer_WISCONSIN_AVE,AVE,3.32684246762843,1.085926204219764,group_4,group_7,group_10,group_17
908275130,130500,Edwards,"234 S FRANKLIN AVE, AMES, USA",42.0198373,-93.6645223,S_FRANKLIN_AVE,Edwards_S_FRANKLIN_AVE,AVE,2.547741934782133,2.015596112717526,group_1,group_2,group_3,group_5
527226040,155000,Gilbert,"4014 DAWES DR, AMES, USA",42.0606671,-93.6229478,DAWES_DR,Gilbert_DAWES_DR,DR,1.69322507241542,3.677860338480213,group_4,group_8,group_12,group_20
903458110,89500,IDOTRR,"1107 LINCOLN WAY, AMES, USA",42.0230758,-93.6257184,LINCOLN_WAY,IDOTRR_LINCOLN_WAY,WAY,1.3843622278849257,1.3184571093971136,group_1,group_2,group_2,group_3
535425080,277500,NAmes,"415 PAULSON DR, AMES, USA",42.0410506,-93.6061755,PAULSON_DR,NAmes_PAULSON_DR,DR,0.9610026462595548,3.642294556391857,group_8,group_15,group_22,group_37
907201220,140000,CollgCr,"5140 EMERSON DR, AMES, USA",42.0195952,-93.687819,EMERSON_DR,CollgCr_EMERSON_DR,DR,4.391957335191877,3.565180972090903,group_4,group_8,group_11,group_18
903426160,160000,OldTown,"817 HODGE AVE, AMES, USA",42.0294531,-93.6219583,HODGE_AVE,OldTown_HODGE_AVE,AVE,0.6365400712207316,2.0741695555739863,group_5,group_9,group_13,group_21
905478140,125000,Edwards,"209 HOWARD AVE, AMES, USA",42.0240818,-93.6588108,HOWARD_AVE,Edwards_HOWARD_AVE,AVE,2.358912839466035,1.354078528459282,group_1,group_2,group_2,group_3
906475070,185000,ClearCr,"234 PARKRIDGE CIR, AMES, USA",42.0255009,-93.6825683,PARKRIDGE_CIR,ClearCr_PARKRIDGE_CIR,CIR,4.165550809762139,2.9096379155366106,group_6,group_12,group_18,group_30
907414070,173500,CollgCr,"4818 WALLER ST, AMES, USA",42.01352730000001,-93.6851525,WALLER_ST,CollgCr_WALLER_ST,ST,4.08570921188652,3.737323390468559,group_7,group_13,group_19,group_31
914476050,135000,Mitchel,"702 CRYSTAL ST, AMES, USA",41.9967513,-93.6023719,CRYSTAL_ST,Mitchel_CRYSTAL_ST,ST,3.2130795760635222,3.3609667569583723,group_7,group_13,group_20,group_33
923251180,131000,Mitchel,"413 TEAGARDEN DR, AMES, USA",41.9878681,-93.6061281,TEAGARDEN_DR,Mitchel_TEAGARDEN_DR,DR,3.596455653003068,3.797671460216021,group_3,group_5,group_7,group_11
528235090,200000,Gilbert,"3827 BRICKMAN AVE, AMES, USA",42.0598789,-93.643018,BRICKMAN_AVE,Gilbert_BRICKMAN_AVE,AVE,3.0297244137231973,2.926760374279217,group_7,group_13,group_19,group_32
527355150,278000,NWAmes,"1910 STEVENSON DR, AMES, USA",42.0529447,-93.633538,STEVENSON_DR,NWAmes_STEVENSON_DR,DR,2.0525104534179186,2.476633656398446,group_7,group_14,group_21,group_34
527454130,137900,NPkVill,"1119 JOHNSON ST, AMES, USA",42.0497529,-93.6261484,JOHNSON_ST,NPkVill_JOHNSON_ST,ST,1.404900892743467,2.5915631025681565,group_4,group_8,group_12,group_20
533215020,300000,Somerst,"2509 BRADFORD DR, AMES, USA",42.04673460000001,-93.64698,BRADFORD_DR,Somerst_BRADFORD_DR,DR,2.92513487330774,1.431965829256243,group_10,group_19,group_28,group_46
526302120,169000,NAmes,"627 RIVER OAK DR, AMES, USA",42.0530977,-93.6193067,RIVER_OAK_DR,NAmes_RIVER_OAK_DR,DR,0.934336089765195,3.2608985757465008,group_5,group_10,group_14,group_24
532378220,129200,Sawyer,"1310 ALABAMA LN, AMES, USA",42.0349449,-93.671732,ALABAMA_LN,Sawyer_ALABAMA_LN,LN,3.948574677577647,1.8611968933140293,group_2,group_4,group_6,group_10
907420110,167000,CollgCr,"908 POE AVE, AMES, USA",42.0143575,-93.683658,POE_AVE,CollgCr_POE_AVE,AVE,3.968588519715706,3.583170424689564,group_7,group_14,group_21,group_35
527354100,187500,NWAmes,"1915 STEVENSON DR, AMES, USA",42.0527409,-93.6341859,STEVENSON_DR,NWAmes_STEVENSON_DR,DR,2.1009273973893845,2.4295570190768885,group_7,group_14,group_21,group_34
535404080,129900,NAmes,"1603 CARROLL AVE, AMES, USA",42.0384537,-93.6092885,CARROLL_AVE,NAmes_CARROLL_AVE,AVE,0.8114412584673537,3.3365882252981827,group_2,group_3,group_4,group_7
906223090,236000,SawyerW,"1006 VERMONT CT, AMES, USA",42.0310095,-93.6818551,VERMONT_CT,SawyerW_VERMONT_CT,CT,4.378821599465913,2.714137564416398,group_8,group_16,group_24,group_39
527450080,125500,BrDale,"1437 TRUMAN PL, AMES, USA",42.0526323,-93.6292189,TRUMAN_PL,BrDale_TRUMAN_PL,PL,1.69619380755044,2.653327826281553,group_1,group_2,group_3,group_5
905352030,192000,ClearCr,"212 TRAIL RIDGE RD, AMES, USA",42.0243064,-93.67401,TRAIL_RIDGE_RD,ClearCr_TRAIL_RIDGE_RD,RD,3.462799571487814,2.3110863142763773,group_7,group_14,group_21,group_35
