,PID,SalePrice,Neighborhood,Prop_Addr,latitude,longitude
0,909176150,126000,SWISU,"436 HAYWARD AVE, AMES, USA",42.01856448979592,-93.65161918367347
1,905476230,139500,Edwards,"3416 WEST ST, AMES, USA",42.024855315930424,-93.66367099341755
2,905476230,139500,Edwards,"3416 WEST ST, AMES, USA",42.024855315930424,-93.66367099341755
3,911128020,124900,IDOTRR,"320 S 2ND ST, AMES, USA",42.021547615297024,-93.61406809992513
4,535377150,114000,OldTown,"1524 DOUGLAS AVE, AMES, USA",42.03739146938776,-93.61220695918368
5,534177230,227000,NWAmes,"2304 FILLMORE AVE, AMES, USA",42.04455376067282,-93.63181831620726
6,908128060,198500,Edwards,"4003 MARIGOLD DR, AMES, USA",42.018988,-93.6715721070941
7,902135020,93000,OldTown,"212 10TH ST 210, AMES, USA",42.031162,-93.61256091846626
8,528228540,187687,Blmngtn,"2431 LAKESIDE DR, AMES, USA",42.063308,-93.64230583853364
9,923426010,137500,Mitchel,"602 KEN MARIL RD, AMES, USA",41.986495735956744,-93.6036188257733
10,908186050,140000,Edwards,"3901 MARIGOLD DR, AMES, USA",42.018963681474496,-93.67006654263754
11,528186170,219500,NridgHt,"3629 CHILTON AVE, AMES, USA",42.057112,-93.6514196
12,923426070,136000,Mitchel,"700 KEN MARIL RD, AMES, USA",41.98649987838884,-93.60213991860324
13,902204080,80000,OldTown,"1102 CARROLL AVE, AMES, USA",42.039218,-93.609681
14,535105100,159000,NAmes,"2519 KELLOGG AVE, AMES, USA",42.04690161396658,-93.61572103026556
15,907405020,214000,CollgCr,"812 TENNYSON AVE, AMES, USA",42.01590809090909,-93.68765221212121
16,531382110,163000,SawyerW,"5220 MARYLAND ST, AMES, USA",42.03586941394644,-93.68920687419867
17,906380120,203000,CollgCr,"319 HARTFORD DR, AMES, USA",42.02481975297594,-93.68911130789053
18,909101060,67000,Edwards,"2910 WOOD ST, AMES, USA",42.02208247765018,-93.65692684113985
19,534152050,205000,NWAmes,"2102 PRAIRIE VIEW EAST, AMES, USA",42.04331646337044,-93.63727919577093
20,923252075,131250,Mitchel,"424 TEAGARDEN DR, AMES, USA",41.98752773737374,-93.60618059595959
21,531376060,181000,SawyerW,"1514 CALIFORNIA AVE, AMES, USA",42.03717083511299,-93.69121204722514
22,902201120,115000,OldTown,"1216 CARROLL AVE, AMES, USA",42.039218,-93.609681
23,923228080,98000,MeadowV,"626 MEADOW PL, AMES, USA",41.99215551070729,-93.60308638866339
24,902326030,265979,OldTown,"829 DOUGLAS AVE, AMES, USA",42.02935814285714,-93.61228857142856
25,527451330,105500,BrDale,"1342 BARKLEY CT, AMES, USA",42.051676299375686,-93.62760442259349
26,528218100,168165,Gilbert,"4205 CRESTMOOR AVE, AMES, USA",42.062191904710154,-93.64570992596711
27,916386140,201000,Timber,"3028 COTTONTAIL LN, AMES, USA",41.994931209457846,-93.650374
28,533221090,177500,Somerst,"2711 HAMPTON ST, AMES, USA",42.046150735023375,-93.6457721435571
29,534128010,200000,NWAmes,"1636 JOHNSON ST, AMES, USA",42.04903420384354,-93.63264578650906
30,528106110,450000,NridgHt,"3331 WESTON DR, AMES, USA",42.06129117942748,-93.65753648637376
31,902206260,91300,OldTown,"926 DUFF AVE, AMES, USA",42.03109366137248,-93.61045453926471
32,528222090,173500,Gilbert,"4302 WELBECK DR, AMES, USA",42.06322648533865,-93.64433362330249
33,528218150,199500,Gilbert,"4103 CRESTMOOR AVE, AMES, USA",42.06188691068189,-93.64448387960195
34,903400180,207000,BrkSide,"816 BROOKRIDGE AVE, AMES, USA",42.02954372815348,-93.62737676136398
35,535453210,155000,NAmes,"1522 MAXWELL AVE, AMES, USA",42.037273779743664,-93.60675880919582
36,916386010,220000,Timber,"3005 CEDAR LN, AMES, USA",41.99523381632653,-93.64923497959184
37,907181090,196000,CollgCr,"5408 CERVANTES DR, AMES, USA",42.017335540535086,-93.69270120197211
38,902206020,61500,OldTown,"118 E 11TH ST, AMES, USA",42.03195016326531,-93.61018020408163
39,902206020,61500,OldTown,"118 E 11TH ST, AMES, USA",42.03195016326531,-93.61018020408163
40,527327050,195000,NWAmes,"3323 BUCHANAN CT, AMES, USA",42.05450581967213,-93.6315601147541
41,527455250,129250,NAmes,"1115 28TH ST, AMES, USA",42.048851159119046,-93.62539763059881
42,527455250,129250,NAmes,"1115 28TH ST, AMES, USA",42.048851159119046,-93.62539763059881
43,528326110,291000,NoRidge,"3013 ALMOND RD, AMES, USA",42.05578479212245,-93.65110150218392
44,914452190,134000,Mitchel,"302 OPAL CIR, AMES, USA",41.99419902380953,-93.60742948809524
45,914452190,134000,Mitchel,"302 OPAL CIR, AMES, USA",41.99419902380953,-93.60742948809524
46,535425060,186000,NAmes,"1903 MEADOWLANE AVE, AMES, USA",42.04129604081633,-93.60521567346939
47,532376250,133500,Sawyer,"4015 TORONTO ST, AMES, USA",42.035861571428576,-93.672579
48,532376250,133500,Sawyer,"4015 TORONTO ST, AMES, USA",42.035861571428576,-93.672579
49,535379110,148000,OldTown,"1412 KELLOGG AVE, AMES, USA",42.03594679591837,-93.61386489795919
50,528118010,325300,NridgHt,"3335 PRESTON CIR, AMES, USA",42.06042873469387,-93.65768375510204
51,528235160,215000,Gilbert,"3908 WELBECK DR, AMES, USA",42.05971268357939,-93.64377151492386
52,905478030,131000,Edwards,"3218 WEST ST, AMES, USA",42.024861032246065,-93.66069363575488
53,902106130,109500,OldTown,"1010 GRAND AVE, AMES, USA",42.031462469387755,-93.62020822448979
54,902102080,110000,OldTown,"1203 BURNETT AVE, AMES, USA",42.03339248979592,-93.61561781632653
55,909176170,150000,SWISU,"426 HAYWARD AVE 428, AMES, USA",42.01869102040816,-93.65162163265306
56,533206070,193800,Somerst,"2807 BRISTOL DR, AMES, USA",42.04744045286655,-93.64761628687974
57,527302020,178000,NWAmes,"3414 EISENHOWER AVE, AMES, USA",42.05547019086042,-93.63783989426827
58,907414060,179600,CollgCr,"4824 WALLER ST, AMES, USA",42.01355127272727,-93.68477896969698
59,904301060,179000,Edwards,"3012 OAKLAND ST 3014, AMES, USA",42.02811888524044,-93.6587373332222
60,532479020,140000,Sawyer,"1306 SCOTT CIR, AMES, USA",42.034612217391306,-93.660487
61,528110070,395000,NridgHt,"3207 STOCKBURY ST, AMES, USA",42.062261091033875,-93.65618536506653
62,534429130,151500,NAmes,"808 NARLAND DR, AMES, USA",42.04013450915821,-93.62208412387304
63,528365060,341000,NoRidge,"2900 RIDGETOP RD, AMES, USA",42.049582,-93.655958
64,533135020,235000,NoRidge,"2614 SOUTHRIDGE CIR, AMES, USA",42.04729657142857,-93.65029642857142
65,910203100,72000,IDOTRR,"301 S RUSSELL AVE, AMES, USA",42.020318,-93.628408
66,905451390,154000,Edwards,"310 WESTWOOD DR, AMES, USA",42.0245466193626,-93.66738084341767
67,533213010,222000,Somerst,"2805 BRISTOL DR, AMES, USA",42.04742736392327,-93.6475996487335
68,528118030,390000,NridgHt,"3317 PRESTON CIR, AMES, USA",42.06042781632653,-93.6575430612245
69,907200340,128200,CollgCr,"5203 SCHUBERT ST, AMES, USA",42.021390115667074,-93.68792039017747
70,528164060,615000,NridgHt,"3320 FOXLEY DR, AMES, USA",42.05847504704884,-93.65680995634683
71,907202010,158000,CollgCr,"410 THACKERAY AVE, AMES, USA",42.01967954096487,-93.68657648378274
72,528186180,254000,NridgHt,"3623 CHILTON AVE, AMES, USA",42.056956,-93.6514172
73,909250060,169000,SWISU,"2320 KNAPP ST, AMES, USA",42.019084346938776,-93.64689269387755
74,528315060,284500,NoRidge,"3142 BAYBERRY RD, AMES, USA",42.05392142671923,-93.65478466554772
75,528231020,184500,Gilbert,"3917 WELBECK DR, AMES, USA",42.06011711190303,-93.64407676418914
76,528456230,210400,Somerst,"2841 ASPEN RD, AMES, USA",42.05118981781087,-93.64722440955204
77,907180120,214000,CollgCr,"5325 CERVANTES DR, AMES, USA",42.01751131982996,-93.69065122622848
78,911370410,392500,Crawfor,"433 ASPEN RIDGE RD, AMES, USA",42.00941067078177,-93.6155758230605
79,527108090,274725,Gilbert,"4316 HARRISON CIR, AMES, USA",42.062991697905794,-93.63605879162317
80,528222050,156932,Gilbert,"4210 WELBECK DR, AMES, USA",42.0622131258519,-93.64426567751813
81,528429110,282922,Somerst,"2416 DALTON CIR, AMES, USA",42.0539704,-93.64182679999999
82,902328100,144000,OldTown,"704 BURNETT AVE, AMES, USA",42.02806730612245,-93.61530573469389
83,527451410,88000,BrDale,"1314 BARKLEY CT, AMES, USA",42.05168394906352,-93.62743413389023
84,914476130,148000,Mitchel,"3007 DIAMOND ST, AMES, USA",41.9957645,-93.601227
85,535453020,159000,NAmes,"1523 GLENDALE AVE, AMES, USA",42.03713342424243,-93.60600708080808
86,535379100,120000,OldTown,"1408 KELLOGG AVE, AMES, USA",42.035903530612245,-93.61386526530612
87,905108190,134900,Sawyer,"934 MESA VERDE PL, AMES, USA",42.03087976925107,-93.67154223074894
88,905201110,185000,Sawyer,"1124 SCHOLL RD, AMES, USA",42.032558897959184,-93.6653221632653
89,903227090,132500,BrkSide,"1206 MARSTON AVE, AMES, USA",42.033455469387754,-93.62348414285714
90,905107300,160500,Sawyer,"3902 ARKANSAS DR, AMES, USA",42.03134108089813,-93.67281318639581
91,903401070,165000,BrkSide,"611 RIDGEWOOD AVE, AMES, USA",42.02701343509556,-93.62547046323006
92,903230100,100000,BrkSide,"1015 CURTISS AVE, AMES, USA",42.03150042455403,-93.62472727699644
93,527105010,189900,Gilbert,"4025 BERKSHIRE AVE, AMES, USA",42.06086624608271,-93.6389765770365
94,528480020,227875,Somerst,"2616 KINGSTON DR, AMES, USA",42.052132986853664,-93.64365631551216
95,527402130,111900,NAmes,"1217 JEFFERSON ST, AMES, USA",42.05536916392078,-93.6266190612291
96,909251080,145000,Crawfor,"507 LYNN AVE, AMES, USA",42.01780281632653,-93.64647512244898
97,908201120,118000,Edwards,"3411 TRIPP ST 3413, AMES, USA",42.020221,-93.664918
98,533221080,166000,Somerst,"2713 HAMPTON ST, AMES, USA",42.04615068202805,-93.64578297226852
99,535178100,148000,NAmes,"2004 BURNETT AVE, AMES, USA",42.042223554111345,-93.61584551930625
100,535457050,99000,NAmes,"1302 MAXWELL AVE, AMES, USA",42.034682897959186,-93.60670769387755
101,923226270,86000,MeadowV,"615 MEADOW PL, AMES, USA",41.992332618748165,-93.60312324722655
102,535105090,165000,NAmes,"2527 KELLOGG AVE, AMES, USA",42.046992315952615,-93.61572734636202
103,533253070,211500,Greens,"2024 PINEHURST DR, AMES, USA",42.04299352441229,-93.64930425966442
104,907280170,210000,CollgCr,"4619 CLEMENS BLVD, AMES, USA",42.018014,-93.6813538557042
105,914476450,228500,Mitchel,"703 ONYX ST, AMES, USA",41.996073,-93.602595
106,535327200,132000,NAmes,"1624 DOUGLAS AVE, AMES, USA",42.038608571428576,-93.61221769387755
107,528441090,468000,Somerst,"2426 YORKSHIRE CIR, AMES, USA",42.05310115636974,-93.64139716702556
108,906426195,240000,ClearCr,"601 CHELSEA CT, AMES, USA",42.027877,-93.67912
109,534275170,151500,NAmes,"2009 ROOSEVELT CIR, AMES, USA",42.04216255555556,-93.62367055555556
110,923226180,73000,MeadowV,"633 MEADOW PL, AMES, USA",41.99253552569278,-93.60262134872586
111,923226320,75500,MeadowV,"605 MEADOW PL, AMES, USA",41.992212332620966,-93.60339916510804
112,528118050,500067,NridgHt,"3305 PRESTON CIR, AMES, USA",42.06042720408163,-93.65744926530613
113,904300150,107500,ClearCr,"3021 OAKLAND ST, AMES, USA",42.02828955914435,-93.65878627384562
114,533236050,172500,Somerst,"2510 BRISTOL DR, AMES, USA",42.04715891357376,-93.64181224655658
115,527354160,185000,NWAmes,"2009 STEVENSON DR, AMES, USA",42.0525554028463,-93.6355961810786
116,528435040,311872,Somerst,"2604 DALTON ST, AMES, USA",42.054149095181536,-93.64371993188
117,534129230,165150,NWAmes,"2705 HOOVER AVE, AMES, USA",42.04817947474747,-93.630294
118,535325350,125000,NAmes,"225 16TH ST, AMES, USA",42.038378,-93.61280176470588
119,902408080,159500,OldTown,"508 CARROLL AVE, AMES, USA",42.02619203943843,-93.60864389206752
120,916455050,180500,Timber,"2829 WHITE OAK DR, AMES, USA",41.99703640663635,-93.64683644623203
121,909276200,160000,Crawfor,"418 PEARSON AVE, AMES, USA",42.01867749991436,-93.64234020531468
122,534277060,109008,NAmes,"2125 FURMAN DR, AMES, USA",42.044865,-93.621618
123,905107280,153000,Sawyer,"3914 ARKANSAS DR, AMES, USA",42.03134156628693,-93.67289230477071
124,923204050,132250,Mitchel,"3309 SOUTHDALE DR, AMES, USA",41.99297998782015,-93.60554288541539
125,531376050,184900,SawyerW,"1508 CALIFORNIA AVE, AMES, USA",42.037137314031035,-93.69121340618793
126,903454010,127000,IDOTRR,"1218 N 3RD ST, AMES, USA",42.02510548979591,-93.62720573469387
127,906412010,475000,CollgCr,"532 WESTFIELD RD, AMES, USA",42.02721361270797,-93.68678307886384
128,535301060,142000,NAmes,"1907 CLARK AVE, AMES, USA",42.041233315036166,-93.61727799531303
129,534453080,112000,BrkSide,"1430 RIDGEWOOD AVE, AMES, USA",42.03602586446804,-93.62847008877344
130,911102180,80900,IDOTRR,"202 S WALNUT AVE, AMES, USA",42.021476657417224,-93.6168112727172
131,535403210,135000,NAmes,"1604 CARROLL AVE, AMES, USA",42.039218,-93.609681
132,531382120,193500,SawyerW,"5214 MARYLAND ST, AMES, USA",42.03586988976251,-93.68915891193907
133,916455120,232500,Timber,"2311 SUNCREST DR, AMES, USA",41.99551603030303,-93.6469074949495
134,905475510,114000,Edwards,"310 COLORADO CIR, AMES, USA",42.025082734693875,-93.6633366122449
135,916326090,257000,Timber,"2320 TIMBERLAND RD, AMES, USA",42.00072925266047,-93.64966625676165
136,909101140,117000,Edwards,"2812 WOOD ST, AMES, USA",42.022083404893664,-93.65586234297449
137,907260050,213000,CollgCr,"5110 CLEMENS BLVD, AMES, USA",42.016945472759005,-93.68795145142214
138,907131090,212000,CollgCr,"5300 NORRIS ST, AMES, USA",42.020881,-93.690581
139,903206160,202500,BrkSide,"910 BROOKRIDGE AVE, AMES, USA",42.0307129108596,-93.62732297324361
140,528222020,185101,Gilbert,"4116 WELBECK DR, AMES, USA",42.06165534795861,-93.64400952242133
141,526352090,167000,NAmes,"3010 KELLOGG AVE, AMES, USA",42.05145469964584,-93.61846427481623
142,534201280,138500,NAmes,"1237 24TH ST, AMES, USA",42.04574050623812,-93.62654775999262
143,908102330,102000,Edwards,"301 ABRAHAM DR, AMES, USA",42.020343414141415,-93.67639185858586
144,906385010,198900,CollgCr,"5505 DURANT ST, AMES, USA",42.02461337755501,-93.69205532625902
145,534276230,145000,NAmes,"2002 MELROSE AVE, AMES, USA",42.04224059534753,-93.62228029253552
146,906420020,220000,SawyerW,"923 VERMONT CIR, AMES, USA",42.0297174048556,-93.68220220455852
147,527404120,126000,NAmes,"3203 GARNER AVE, AMES, USA",42.053514279505634,-93.62714799845187
148,907192010,200000,CollgCr,"5301 CLEMENS BLVD, AMES, USA",42.016892,-93.689424
149,527131030,278000,StoneBr,"4239 STONE BROOKE RD, AMES, USA",42.06221430156738,-93.63419894544032
150,527452290,145000,NAmes,"1401 JOHNSON ST, AMES, USA",42.04895500520409,-93.62913307832436
151,907250030,318000,CollgCr,"509 SMILEY AVE, AMES, USA",42.01855820993013,-93.68789159060451
152,909251040,146500,Crawfor,"2322 BAKER ST, AMES, USA",42.01788108163265,-93.64693432653061
153,535377100,86900,OldTown,"1502 DOUGLAS AVE, AMES, USA",42.037159122448976,-93.61220516326532
154,528174050,213000,NridgHt,"2910 HARRISON RD, AMES, USA",42.05923777869763,-93.64939269814306
155,533128090,262000,NoRidge,"2700 NORTHRIDGE CIR, AMES, USA",42.047999,-93.650289
156,533250110,217500,Veenker,"2869 GREENSBORO CIR, AMES, USA",42.04482523153892,-93.64810611298782
157,908186040,148000,Edwards,"3905 MARIGOLD DR, AMES, USA",42.01896239856682,-93.6701125847686
158,903231050,113000,BrkSide,"1113 MARSTON AVE, AMES, USA",42.0323832020202,-93.6236834040404
159,908152110,160500,Edwards,"414 WELLONS DR, AMES, USA",42.01879497674418,-93.67513790697674
160,535476110,145000,NAmes,"1603 MEADOWLANE AVE 1605, AMES, USA",42.03797473457034,-93.6039140588975
161,533250050,245500,Veenker,"2845 GREENSBORO CIR, AMES, USA",42.04474817188798,-93.64791854964817
162,535325340,133500,NAmes,"221 16TH ST, AMES, USA",42.038378,-93.61274980392156
163,909475050,198000,Crawfor,"2152 ASHMORE DR, AMES, USA",42.01119537789834,-93.64359939425104
164,907196020,205000,CollgCr,"5216 CLEMENS BLVD, AMES, USA",42.016904971498526,-93.68856952271435
165,533130160,285000,NoRidge,"2424 RIDGETOP CIR, AMES, USA",42.04577395463849,-93.65232379747752
166,535102010,175000,NAmes,"2729 NORTHWOOD DR, AMES, USA",42.04888004672891,-93.61700179201883
167,531475220,160000,SawyerW,"1404 IDAHO AVE, AMES, USA",42.035663809096576,-93.68392168757799
168,527325070,272000,NWAmes,"1904 BUCHANAN DR, AMES, USA",42.054547400000004,-93.63530666666668
169,911175440,115000,IDOTRR,"315 S 4TH ST, AMES, USA",42.019100407352354,-93.61476988525514
170,903226160,134000,BrkSide,"1222 CURTISS AVE, AMES, USA",42.03363191836735,-93.6245344897959
171,902134100,78000,OldTown,"321 9TH ST, AMES, USA",42.03025391265237,-93.61426001934532
172,902111010,111500,OldTown,"412 10TH ST, AMES, USA",42.031192483150555,-93.61581118310563
173,535381040,142900,OldTown,"1311 KELLOGG AVE, AMES, USA",42.03476542857143,-93.61408520408163
174,910202060,125500,IDOTRR,"109 S MAPLE AVE, AMES, USA",42.0226691058526,-93.62532593181547
175,535477180,125500,NAmes,"1308 MEADOWLANE AVE, AMES, USA",42.03487444444444,-93.60366755555556
176,528429120,423000,Somerst,"2422 DALTON CIR, AMES, USA",42.0539988,-93.64153329999999
177,908127050,119900,Edwards,"211 DOTSON DR, AMES, USA",42.021015163265304,-93.67148908163266
178,528439010,247000,Somerst,"2625 YORKSHIRE ST, AMES, USA",42.05319034438527,-93.64376476899723
179,906223110,226500,SawyerW,"1018 VERMONT CT, AMES, USA",42.03093013690148,-93.68199716308956
180,528358010,260400,NoRidge,"3127 ASPEN RD, AMES, USA",42.05171935144844,-93.65428032490837
181,532378160,135000,Sawyer,"3815 ONTARIO ST, AMES, USA",42.034588484848484,-93.66994189898989
182,531450040,175900,SawyerW,"1309 KENTUCKY AVE, AMES, USA",42.03471223334514,-93.68785679065101
183,527326040,82500,NWAmes,"3412 TAFT AVE, AMES, USA",42.055129455191484,-93.63508069267212
184,903204095,79500,BrkSide,"1209 NORTHWESTERN AVE, AMES, USA",42.03348381632653,-93.62577067346939
185,527182170,207500,StoneBr,"3908 STONE BROOKE CIR, AMES, USA",42.059300612982,-93.63312900362668
186,905105040,115000,Sawyer,"1001 ARIZONA AVE, AMES, USA",42.03108467910268,-93.67588045842474
187,528477020,249700,Somerst,"2617 KINGSTON DR, AMES, USA",42.052302992576074,-93.64365697352228
188,905202210,164000,ClearCr,"3616 ROSS RD, AMES, USA",42.03214923147222,-93.66717891980687
189,903425190,220000,OldTown,"609 NORTHWESTERN AVE, AMES, USA",42.026954661556644,-93.62286472313643
190,535150210,135000,NAmes,"2013 CLARK AVE, AMES, USA",42.04218612244898,-93.61728436734694
191,535453160,133700,NAmes,"1426 MAXWELL AVE, AMES, USA",42.036146841115006,-93.60671839298679
192,535353130,112500,OldTown,"625 13TH ST, AMES, USA",42.034562891030866,-93.61907956662775
193,535456070,150000,NAmes,"1308 STAFFORD AVE, AMES, USA",42.03473895918367,-93.6077650612245
194,908250090,99000,Edwards,"3505 COY ST, AMES, USA",42.01805245,-93.66655328915087
195,527452070,146300,NPkVill,"2951 NORTHWESTERN AVE, AMES, USA",42.050471,-93.627279
196,902325100,155000,OldTown,"802 BURNETT AVE, AMES, USA",42.02906930612245,-93.61532728571427
197,921126030,298751,Timber,"3217 RED FOX RD, AMES, USA",41.992989950256344,-93.65327529754713
198,905401060,256000,ClearCr,"519 OLIVER CIR, AMES, USA",42.02864482351206,-93.66624914356966
199,916402125,176000,Timber,"2513 WHITE OAK DR, AMES, USA",41.99958722865255,-93.64609469150162
200,531452010,120000,SawyerW,"1302 INDIANA AVE, AMES, USA",42.03465549651289,-93.68622907491604
201,528363070,321000,NoRidge,"3202 ASPEN RD, AMES, USA",42.051065,-93.655506
202,533208090,190000,Somerst,"2732 NORTHRIDGE LN, AMES, USA",42.04772986946443,-93.64603878546191
203,534401130,174900,NAmes,"1317 COOLIDGE DR, AMES, USA",42.0392109,-93.6294784
204,910203230,85000,IDOTRR,"304 S RIVERSIDE DR, AMES, USA",42.0208634872324,-93.62945981841197
205,907420090,164990,CollgCr,"922 POE AVE, AMES, USA",42.014522271441884,-93.68374009310392
206,902303100,144100,OldTown,"609 7TH ST, AMES, USA",42.02795584333695,-93.6186268970768
207,906392120,294900,CollgCr,"125 HARTFORD DR, AMES, USA",42.02326647986106,-93.68911880614316
208,903484080,50000,IDOTRR,"1003 LINCOLN WAY, AMES, USA",42.02295797959184,-93.62398130612245
209,527301320,260000,NWAmes,"3217 EISENHOWER AVE, AMES, USA",42.05361420021923,-93.63735972351776
210,527140090,180000,StoneBr,"4029 FLETCHER BLVD, AMES, USA",42.06055687660365,-93.63422767405338
211,909428170,236500,Crawfor,"2117 GREENBRIAR CIR, AMES, USA",42.01264838383838,-93.64039073737374
212,905228050,63900,Sawyer,"1101 IOWA AVE, AMES, USA",42.032688,-93.659392
213,533234020,223000,Somerst,"2517 SHERWOOD AVE, AMES, USA",42.04661079961037,-93.64350378515023
214,533212100,151000,Somerst,"2611 STANGE RD, AMES, USA",42.04749027140474,-93.64492734127276
215,534475185,149500,NAmes,"1306 NORTHWESTERN AVE, AMES, USA",42.03475926805175,-93.62560211863473
216,905452150,149900,Edwards,"318 CRANE AVE, AMES, USA",42.0258097972012,-93.66607205192382
217,528176010,500000,NridgHt,"3807 BRIDGEPORT DR, AMES, USA",42.05735590330952,-93.65612294798628
218,535450160,92900,NAmes,"1401 CARROLL AVE 1403, AMES, USA",42.039218,-93.609681
219,533215040,290000,Somerst,"2505 BRADFORD DR, AMES, USA",42.04657878629308,-93.64688583408538
220,528104010,345474,NridgHt,"3131 SEDWICK ST, AMES, USA",42.063149387238916,-93.65417937402002
221,535325090,127000,NAmes,"1719 DOUGLAS AVE, AMES, USA",42.0400426,-93.61245539999999
222,909250210,102000,SWISU,"424 STANTON AVE, AMES, USA",42.018795670013375,-93.64838541912323
223,527325110,190000,NWAmes,"1802 BUCHANAN DR, AMES, USA",42.055141,-93.633802
224,910202030,75200,IDOTRR,"1108 LINCOLN WAY, AMES, USA",42.0227918367347,-93.62548479591837
225,535175180,108538,NAmes,"2304 KELLOGG AVE, AMES, USA",42.04484653880461,-93.61509322351316
226,534202160,142250,NAmes,"1217 25TH ST, AMES, USA",42.046580774503724,-93.62633287305052
227,916403020,180000,Timber,"2722 WHITE OAK CIR, AMES, USA",41.9980307755102,-93.64656387755102
228,535354100,132000,NAmes,"1323 CLARK AVE, AMES, USA",42.03484223074918,-93.61721855921348
229,905227050,152400,Sawyer,"1202 SCOTT AVE, AMES, USA",42.033383,-93.660485
230,534451020,64000,BrkSide,"1423 RIDGEWOOD AVE, AMES, USA",42.03605240841249,-93.62874606568023
231,533120030,302000,NoRidge,"3118 MAPLEWOOD RD, AMES, USA",42.04741032017221,-93.65330321505161
232,905352010,182000,ClearCr,"200 TRAIL RIDGE RD, AMES, USA",42.0238627,-93.67399019999999
233,905108220,137000,Sawyer,"1008 MESA VERDE PL, AMES, USA",42.03156251472419,-93.67123417821566
234,527165170,168000,Gilbert,"3715 COLUMBINE CIR, AMES, USA",42.057411971538116,-93.63599502545436
235,535353190,97500,NAmes,"1404 GRAND AVE, AMES, USA",42.03586727206577,-93.62030063844821
236,528315070,286000,NoRidge,"3136 BAYBERRY RD, AMES, USA",42.053875936692656,-93.65469929085654
237,903232060,115000,BrkSide,"1109 ROOSEVELT AVE, AMES, USA",42.032363181818184,-93.62260554545455
238,906204180,209000,SawyerW,"1124 IDAHO AVE, AMES, USA",42.03261395653461,-93.683206
239,906475110,187500,ClearCr,"215 PARKRIDGE CIR, AMES, USA",42.024522800247645,-93.68225547575491
240,906223040,220000,SawyerW,"1017 FLORIDA AVE, AMES, USA",42.03089965686291,-93.68109655740692
241,909253190,91000,SWISU,"612 STANTON AVE, AMES, USA",42.0167937755102,-93.64838363265305
242,923400150,93500,Mitchel,"428 KEN MARIL RD, AMES, USA",41.986502525252526,-93.60612031313131
243,923226290,79400,MeadowV,"611 MEADOW PL, AMES, USA",41.992285539793606,-93.60323406682329
244,909282020,259500,Crawfor,"2124 COUNTRY CLUB BLVD, AMES, USA",42.015826475536294,-93.6427680895134
245,528110110,417500,NridgHt,"3323 STOCKBURY ST, AMES, USA",42.062256904358904,-93.6574877363118
246,534479320,132000,NAmes,"1526 HARDING AVE, AMES, USA",42.03736035134902,-93.62139680717897
247,528150110,342000,NridgHt,"3215 HARRISON RD, AMES, USA",42.05969691592808,-93.6553784014037
248,906380160,194000,CollgCr,"5321 DURANT ST, AMES, USA",42.024647108395335,-93.6894175696057
249,911370460,235000,Crawfor,"415 ASPEN RIDGE RD, AMES, USA",42.009410175867174,-93.61543940059218
250,535477090,136870,NAmes,"1434 MEADOWLANE AVE, AMES, USA",42.036550780194254,-93.6036697126137
251,534478230,147000,NAmes,"1428 ROOSEVELT AVE, AMES, USA",42.03619649733313,-93.62245830908866
252,906426060,277000,ClearCr,"4813 DOVER DR, AMES, USA",42.028262360054484,-93.68179635857511
253,528235190,201490,Gilbert,"4004 WELBECK DR, AMES, USA",42.06055030637491,-93.64365786824767
254,923225440,85000,MeadowV,"535 MEADOW CT, AMES, USA",41.99189830612245,-93.60429612244897
255,923276030,149900,Mitchel,"615 GARDEN RD, AMES, USA",41.98891501194138,-93.60371822707666
256,909425060,174500,Crawfor,"915 GASKILL DR, AMES, USA",42.014630529934195,-93.64298118780833
257,902332030,133900,OldTown,"621 DOUGLAS AVE 101, AMES, USA",42.02722873813198,-93.61222826161584
258,528188060,173000,NridgHt,"3716 ASHTON DR, AMES, USA",42.0574435,-93.6501686
259,527105140,225000,Gilbert,"4012 HYDE AVE, AMES, USA",42.060855970275746,-93.64016214507029
260,535477150,109500,NAmes,"1402 MEADOWLANE AVE, AMES, USA",42.036222982244986,-93.60366895117828
261,535327210,159000,NAmes,"1704 DOUGLAS AVE, AMES, USA",42.039464510204084,-93.61222924489796
262,533213070,179400,Somerst,"2717 BRISTOL DR, AMES, USA",42.047118766917635,-93.64634438338976
263,904100100,219000,Sawyer,"1215 HYLAND AVE, AMES, USA",42.03358356636981,-93.65572973167485
264,528188120,175500,NridgHt,"3702 CHILTON AVE, AMES, USA",42.0570917,-93.65086219999999
265,528480180,261329,Somerst,"2625 CLAYTON DR, AMES, USA",42.05138551893792,-93.64384909097967
266,528114040,383000,NridgHt,"3310 WESTON DR, AMES, USA",42.06113041399615,-93.65728995301231
267,528235020,179000,Gilbert,"4005 BRICKMAN AVE, AMES, USA",42.061163581911515,-93.64270906146292
268,908275110,103500,Edwards,"246 S FRANKLIN AVE, AMES, USA",42.0193813,-93.6644765
269,905103140,164500,Sawyer,"4107 ROSS RD, AMES, USA",42.03229221822774,-93.67466926377168
270,902402260,55000,OldTown,"822 CARROLL AVE, AMES, USA",42.039218,-93.609681
271,528235200,170000,Gilbert,"4010 WELBECK DR, AMES, USA",42.060604411485215,-93.64364459718287
272,528181060,209500,NridgHt,"2908 ROXBORO DR, AMES, USA",42.0582276512523,-93.64954088846123
273,923275200,124500,Mitchel,"3827 MINNETONKA AVE, AMES, USA",41.988232259809486,-93.60435779961487
274,903451110,139400,IDOTRR,"318 N RUSSELL AVE, AMES, USA",42.025507323779635,-93.62826987704071
275,528181040,202665,NridgHt,"2914 ROXBORO DR, AMES, USA",42.05821100049504,-93.64963653495818
276,908102110,155891,Edwards,"4404 TODD DR, AMES, USA",42.02116183673469,-93.6776827755102
277,533217050,160000,Somerst,"2710 BRISTOL DR, AMES, USA",42.04694863364057,-93.64577722964749
278,533350090,150000,Veenker,"1712 AMHERST DR, AMES, USA",42.03744755908851,-93.6575664153229
279,528445070,221300,Somerst,"2518 YORKSHIRE ST, AMES, USA",42.0530506292041,-93.64243274242689
280,527212040,361919,StoneBr,"4020 EDGEWATER DR, AMES, USA",42.06057809473684,-93.62884491578947
281,907200270,134900,CollgCr,"112 SANDBURG CT, AMES, USA",42.02221155838693,-93.687930042606
282,908201040,118000,Edwards,"117 S FRANKLIN AVE 119, AMES, USA",42.022373232949136,-93.66488768470606
283,907410100,195800,CollgCr,"809 POE AVE, AMES, USA",42.0146232814465,-93.68394391958672
284,903481120,135000,IDOTRR,"1027 N 2ND ST, AMES, USA",42.024135294184624,-93.62415224239898
285,535453180,152000,NAmes,"1506 MAXWELL AVE, AMES, USA",42.03708595663889,-93.60675207316099
286,907227110,133900,CollgCr,"212 ROCKWELL AVE, AMES, USA",42.021695122448975,-93.68313389795918
287,531453010,152000,SawyerW,"1304 ILLINOIS AVE, AMES, USA",42.034671747183744,-93.6849951387715
288,531478010,107000,SawyerW,"4712 TORONTO ST, AMES, USA",42.03577746938775,-93.68175228571428
289,535403200,120000,NAmes,"211 E 16TH ST, AMES, USA",42.03834740816327,-93.60874928571428
290,527254020,372500,StoneBr,"1214 ADAMS ST, AMES, USA",42.05985571428571,-93.62815914285714
291,527366030,220000,Somerst,"2818 SOMERSET DR, AMES, USA",42.05005399823367,-93.63933355890704
292,535325460,167000,NAmes,"1704 BURNETT AVE, AMES, USA",42.0456477,-93.6165081
293,528110040,479069,NridgHt,"3308 SEDWICK ST, AMES, USA",42.0630493,-93.6559183
294,906392090,233555,CollgCr,"215 HARTFORD DR, AMES, USA",42.02387559248089,-93.68912167103053
295,535452140,118900,NAmes,"1402 STAFFORD AVE, AMES, USA",42.03584051515152,-93.60777784848484
296,535151160,140000,NAmes,"2204 BARR DR, AMES, USA",42.0430122,-93.6197207
297,535456050,130000,NAmes,"313 E 13TH ST 315, AMES, USA",42.03461982419273,-93.60761720639057
298,903429110,179900,OldTown,"716 HODGE AVE, AMES, USA",42.028075545683585,-93.62147152372344
299,903429110,179900,OldTown,"716 HODGE AVE, AMES, USA",42.028075545683585,-93.62147152372344
300,916455150,282000,Timber,"2329 SUNCREST DR, AMES, USA",41.99551248484848,-93.64710458585859
301,909425180,217500,Crawfor,"1036 ASH AVE, AMES, USA",42.01339983344091,-93.64416302842115
302,528175050,212500,NridgHt,"2907 ROXBORO DR, AMES, USA",42.05833398088454,-93.65013950947724
303,910205010,126000,IDOTRR,"1110 S 2ND ST, AMES, USA",42.0215383877551,-93.62551346938776
304,533206020,280750,Somerst,"2819 BRISTOL DR, AMES, USA",42.0477401256381,-93.64778782365163
305,902427040,87000,OldTown,"418 E 6TH ST, AMES, USA",42.0268162,-93.6047703
306,528427020,244600,Somerst,"3211 CULLEN DR, AMES, USA",42.05442958419464,-93.64415341205857
307,528458070,215200,Somerst,"2816 ASPEN RD, AMES, USA",42.05079679398725,-93.64676290642836
308,903401030,162500,BrkSide,"701 RIDGEWOOD AVE, AMES, USA",42.027913299999994,-93.62575915436877
309,909275040,138000,Crawfor,"311 PEARSON AVE, AMES, USA",42.020092543879066,-93.6433134674271
310,527163130,181316,Gilbert,"3828 EISENHOWER AVE, AMES, USA",42.058718595852945,-93.63789395842964
311,905200350,148000,Sawyer,"3605 ROSS RD, AMES, USA",42.03231091899866,-93.66686222837315
312,528363050,315000,NoRidge,"3212 SUMAC CIR, AMES, USA",42.05062963265306,-93.65620536734694
313,908154205,184750,Edwards,"4302 COCHRANE PKWY, AMES, USA",42.0167158,-93.6767079
314,903233140,132000,BrkSide,"1004 ROOSEVELT AVE, AMES, USA",42.031439636363636,-93.62236668686869
315,905107070,149500,Sawyer,"3910 ROSS RD, AMES, USA",42.03220831608917,-93.67253772940806
316,528240020,183500,Gilbert,"4011 WESTLAWN DR, AMES, USA",42.061178285695185,-93.641526
317,906225180,224500,SawyerW,"1005 DELAWARE AVE 1007, AMES, USA",42.03150314601391,-93.67996952877063
318,528114010,415000,NridgHt,"3334 WESTON DR, AMES, USA",42.061122147279214,-93.65757749527188
319,907126030,155000,CollgCr,"5416 NORRIS ST, AMES, USA",42.02116749369187,-93.69218022846147
320,904100160,135000,Sawyer,"2913 ROSS RD, AMES, USA",42.033505289394334,-93.65783559113645
321,909254130,164000,Crawfor,"2227 STORM ST, AMES, USA",42.01622585714286,-93.64491606122449
322,535403030,128500,NAmes,"114 E O NEIL DR, AMES, USA",42.040139806766824,-93.61038558320043
323,907412010,196500,CollgCr,"4919 WALLER ST, AMES, USA",42.01396975757576,-93.68569576767676
324,903228080,131000,BrkSide,"807 12TH ST, AMES, USA",42.033347285714285,-93.6216614489796
325,531452100,151000,SawyerW,"1420 INDIANA AVE, AMES, USA",42.035628790773586,-93.68623349496264
326,526302030,149900,NAmes,"3115 NORTHWOOD DR, AMES, USA",42.053668,-93.618459
327,902106090,139900,OldTown,"619 10TH ST, AMES, USA",42.03136811566622,-93.61886691410051
328,527161090,180000,Gilbert,"3842 HYDE AVE, AMES, USA",42.05897712282691,-93.640518123423
329,532353120,120750,Sawyer,"1306 WOODSTOCK AVE, AMES, USA",42.03478771651257,-93.67697466213608
330,535453070,154000,NAmes,"1429 GLENDALE AVE, AMES, USA",42.03602821212121,-93.60600470707071
331,534252110,139900,NAmes,"2115 HUNZIKER DR, AMES, USA",42.04316111859127,-93.62477456483307
332,535327230,100000,NAmes,"1714 DOUGLAS AVE, AMES, USA",42.039533285714285,-93.61222985714285
333,905425125,240000,ClearCr,"3421 OAKLAND ST, AMES, USA",42.02839073708279,-93.6632647299644
334,908103280,135000,Edwards,"4125 APLIN RD, AMES, USA",42.02000134693878,-93.67378595918368
335,528221060,174000,Gilbert,"4110 CRESTMOOR AVE, AMES, USA",42.062043813707085,-93.64460160186941
336,921128020,378500,Timber,"2716 COTTONWOOD RD, AMES, USA",41.992886874408,-93.65205791896162
337,528174040,207000,NridgHt,"2914 HARRISON RD, AMES, USA",42.05923104269617,-93.64942373186408
338,909256010,131000,SWISU,"714 STANTON AVE, AMES, USA",42.01599771428572,-93.64837885714286
339,533212060,152000,Somerst,"2621 STANGE RD, AMES, USA",42.047554433193056,-93.644926896477
340,908204180,61500,Edwards,"3412 TRIPP ST 3414, AMES, USA",42.02005709090909,-93.66493243181817
341,533223100,147110,Somerst,"2412 EATON AVE, AMES, USA",42.046223593854705,-93.64544340848364
342,909176180,137000,SWISU,"422 HAYWARD AVE, AMES, USA",42.01874163265306,-93.6516226122449
343,903475040,128500,OldTown,"914 6TH ST, AMES, USA",42.0267141023798,-93.62297073103441
344,535426195,207500,NAmes,"1630 CRESTWOOD CIR, AMES, USA",42.039054300535824,-93.60570357400623
345,905103040,172500,Sawyer,"3913 ROSS RD, AMES, USA",42.03237701034279,-93.67255115119521
346,528110100,380000,NridgHt,"3313 STOCKBURY ST, AMES, USA",42.062257812827184,-93.65737546477388
347,534431030,137000,NAmes,"806 MURRAY DR, AMES, USA",42.03919368684427,-93.6217385362576
348,905300010,130000,Sawyer,"4418 PHOENIX ST, AMES, USA",42.02944714893617,-93.67829025531914
349,914474070,215000,Mitchel,"3012 SAPPHIRE CIR, AMES, USA",41.995241269011075,-93.6035056538022
350,534428100,153000,NAmes,"821 NARLAND DR, AMES, USA",42.040302797857635,-93.62214108540458
351,533350050,385000,Veenker,"3110 KINGMAN RD, AMES, USA",42.03728964083625,-93.65819855808627
352,908188130,130000,Edwards,"3830 MARIGOLD DR, AMES, USA",42.01879748684436,-93.66928026366276
353,534453150,127000,BrkSide,"1402 RIDGEWOOD AVE, AMES, USA",42.03574847468436,-93.62824103741373
354,528458120,270000,Somerst,"2719 CAMBRIDGE DR, AMES, USA",42.0503128,-93.6481626
355,535179050,141000,NAmes,"208 22ND ST, AMES, USA",42.04396232081264,-93.61316938402076
356,527302185,235000,NWAmes,"3416 CLINTON CT, AMES, USA",42.055303816598176,-93.6364751856661
357,534128190,256900,NWAmes,"2531 PIERCE AVE, AMES, USA",42.04649121414232,-93.63312312052932
358,528180110,336860,NridgHt,"3015 BURNHAM DR, AMES, USA",42.05779497875085,-93.65146345283424
359,916176125,375000,Timber,"2227 TIMBERLAND RD, AMES, USA",42.00149914254683,-93.64995508984912
360,903454090,141000,IDOTRR,"1211 N 2ND ST, AMES, USA",42.024106530612244,-93.62709063265306
361,535457010,160000,NAmes,"1321 GLENDALE AVE, AMES, USA",42.03482142857143,-93.6059824897959
362,528462040,182000,Somerst,"2806 YORK DR, AMES, USA",42.050214596203936,-93.64835153270799
363,909428120,217000,Crawfor,"2003 GREENBRIAR CIR, AMES, USA",42.01265586868687,-93.63955761616162
364,916460060,195000,Timber,"2902 WHITE OAK DR, AMES, USA",41.996394780494285,-93.64660354427207
365,528431050,255000,Somerst,"2507 DALTON ST, AMES, USA",42.0544825,-93.64259794157329
366,527110020,168500,Gilbert,"1909 WYNGATE DR, AMES, USA",42.060674292874886,-93.63712424040322
367,535352080,118500,NAmes,"419 15TH ST, AMES, USA",42.037116510204086,-93.61595657142857
368,527402250,149900,NAmes,"1115 GARNER CIR, AMES, USA",42.054583217391304,-93.62643386956522
369,535451040,119000,NAmes,"1517 STAFFORD AVE, AMES, USA",42.03718187878788,-93.60799021212122
370,905452050,113000,Edwards,"329 FRANKLIN AVE, AMES, USA",42.02541185461348,-93.66493873192312
371,903225090,159000,BrkSide,"1202 NORTHWESTERN AVE, AMES, USA",42.03342520408163,-93.62554691836735
372,531363010,159000,SawyerW,"5406 KANSAS DR, AMES, USA",42.03771545869594,-93.69140194782878
373,923205025,168000,Mitchel,"314 PATRICIA DR, AMES, USA",41.991206827994795,-93.60722957089274
374,532377060,122000,Sawyer,"1327 ALABAMA LN, AMES, USA",42.03492614970521,-93.67217225423155
375,902109160,122250,OldTown,"926 GRAND AVE, AMES, USA",42.03053925526278,-93.62018697987196
376,902128075,120000,OldTown,"1107 KELLOGG AVE, AMES, USA",42.03226914285714,-93.61400865306122
377,528178070,421250,NridgHt,"3728 BRIDGEPORT DR, AMES, USA",42.057185848985235,-93.65531279784706
378,903225160,106900,BrkSide,"1232 NORTHWESTERN AVE, AMES, USA",42.03374326530612,-93.62556069387755
379,906380170,194000,CollgCr,"5327 DURANT ST, AMES, USA",42.024647,-93.68949394140166
380,528174020,204000,NridgHt,"2920 HARRISON RD, AMES, USA",42.05922094551288,-93.64947028383989
381,910201110,100000,IDOTRR,"125 S HAZEL AVE, AMES, USA",42.022501592513066,-93.62691449706047
382,535325400,105000,NAmes,"1606 BURNETT AVE, AMES, USA",42.0456477,-93.6165081
383,535150070,104900,NAmes,"2201 BARR DR, AMES, USA",42.043539499351745,-93.61986377477628
384,533254100,187000,Veenker,"2106 TORREY PINES RD, AMES, USA",42.042245,-93.647022
385,533254130,181500,Veenker,"2124 TORREY PINES RD, AMES, USA",42.043196,-93.645509
386,907194110,187100,CollgCr,"5344 CLEMENS BLVD, AMES, USA",42.016516626222796,-93.69015542114965
387,531375100,158000,SawyerW,"5321 KANSAS DR, AMES, USA",42.03779751992414,-93.69060626586594
388,532477030,192000,Veenker,"3326 KINGMAN RD, AMES, USA",42.037359639964464,-93.66125796344346
389,534102025,230000,Somerst,"2651 SOMERSET DR, AMES, USA",42.04844622222222,-93.639552
390,905452160,128000,Edwards,"322 CRANE AVE, AMES, USA",42.02583595734114,-93.66607259932762
391,533208050,197000,Somerst,"2808 NORTHRIDGE LN, AMES, USA",42.04769447845684,-93.64663943537053
392,905427030,415000,Edwards,"3226 OAKLAND ST, AMES, USA",42.0281873047507,-93.66086579008223
393,535301010,135960,NAmes,"520 20TH ST 522, AMES, USA",42.04199377551021,-93.61754234693878
394,909280030,250000,Crawfor,"623 AGG AVE, AMES, USA",42.0169293039374,-93.64118843764037
395,528116010,296000,NridgHt,"4115 WEMBLEY AVE, AMES, USA",42.060779229751596,-93.65860293118872
396,528228270,172500,Blmngtn,"2421 WESTWIND DR, AMES, USA",42.06259555537441,-93.64189535276586
397,907252210,236500,CollgCr,"4707 HEMINGWAY DR, AMES, USA",42.01885693993959,-93.68289296919987
398,909475020,223000,Crawfor,"2166 ASHMORE DR, AMES, USA",42.011654,-93.643556
399,907253110,230500,CollgCr,"4812 HEMINGWAY DR, AMES, USA",42.01869977841745,-93.68464309104452
400,535325280,130000,NAmes,"1617 DOUGLAS AVE, AMES, USA",42.03854471428571,-93.61243779591837
401,532378240,125500,Sawyer,"1322 ALABAMA LN, AMES, USA",42.03489390322482,-93.67191825955149
402,908102260,147500,Edwards,"208 TODD CIR, AMES, USA",42.0211584,-93.6774686
403,908226180,79000,Edwards,"110 S WILMOTH AVE, AMES, USA",42.022556599869965,-93.66149567643896
404,527425060,97000,NAmes,"902 TOP O HOLLOW RD, AMES, USA",42.056585,-93.6235075
405,527451540,97000,BrDale,"1428 BRECKINRIDGE CT, AMES, USA",42.05165547608443,-93.62960010095907
406,902128170,119000,OldTown,"1126 BURNETT AVE, AMES, USA",42.032449285714286,-93.61540881632654
407,903455090,125500,IDOTRR,"1103 N 2ND ST, AMES, USA",42.0241246122449,-93.62542132653061
408,910203250,82000,IDOTRR,"228 S RIVERSIDE DR, AMES, USA",42.02132716963949,-93.62946068188015
409,903228070,93000,BrkSide,"803 12TH ST, AMES, USA",42.03334642857143,-93.62163181632653
410,527214060,535000,StoneBr,"4008 FRANCES E DAVIS CT, AMES, USA",42.06007471428571,-93.62771
411,527214060,535000,StoneBr,"4008 FRANCES E DAVIS CT, AMES, USA",42.06007471428571,-93.62771
412,528427010,235128,Somerst,"3205 CULLEN DR, AMES, USA",42.054377573521414,-93.6441540674731
413,535451250,138000,NAmes,"1518 CARROLL AVE, AMES, USA",42.039218,-93.609681
414,908152270,176000,Edwards,"415 BEEDLE DR, AMES, USA",42.01872699002386,-93.67328616654791
415,909452050,208000,Crawfor,"1312 BIG BLUESTEM CT, AMES, USA",42.01052241853046,-93.6447411423989
416,532354160,141000,Sawyer,"4133 ONTARIO ST, AMES, USA",42.034622285714285,-93.67426804081633
417,531453100,162000,SawyerW,"1510 ILLINOIS AVE, AMES, USA",42.03568872714663,-93.68500228550349
418,527328050,151500,NWAmes,"1606 TOP O HOLLOW RD, AMES, USA",42.05645099500372,-93.63156375802194
419,907418010,218836,CollgCr,"804 POE AVE, AMES, USA",42.016003067952575,-93.68366082946746
420,528344020,322500,NoRidge,"3040 BAYBERRY RD, AMES, USA",42.053416930353976,-93.65323766252466
421,532353180,151000,Sawyer,"1330 WOODSTOCK AVE, AMES, USA",42.03514258197271,-93.67698065927453
422,902106070,127500,OldTown,"611 10TH ST, AMES, USA",42.03136939759234,-93.61873850783361
423,528221050,203000,Gilbert,"4102 CRESTMOOR AVE, AMES, USA",42.06205631734757,-93.6445071184154
424,534479300,121000,NAmes,"1512 HARDING AVE, AMES, USA",42.037195530778,-93.62139599190822
425,906223060,213000,SawyerW,"1005 FLORIDA AVE, AMES, USA",42.03074241421573,-93.68109763935173
426,535105060,174000,NAmes,"428 26TH ST, AMES, USA",42.0472850574594,-93.61637686541748
427,528108040,398800,NridgHt,"3106 SEDWICK ST, AMES, USA",42.062987,-93.65399520765304
428,909279010,205000,Crawfor,"2159 COUNTRY CLUB BLVD 2157, AMES, USA",42.01580493115075,-93.64382077985354
429,527183030,189000,StoneBr,"1527 STONE BROOKE RD, AMES, USA",42.0610026,-93.6325959
430,527276160,185000,Gilbert,"3616 CALHOUN AVE, AMES, USA",42.056910619747676,-93.62394609055035
431,902207130,12789,OldTown,"931 MAXWELL AVE, AMES, USA",42.03047530489075,-93.60682804611989
432,903227020,128000,BrkSide,"1225 ROOSEVELT AVE, AMES, USA",42.03366324489796,-93.62263804081633
433,908203100,90000,Edwards,"308 VILLAGE DR, AMES, USA",42.01961035,-93.66634920000001
434,534152120,167900,NWAmes,"2204 PRAIRIE VIEW EAST, AMES, USA",42.043653874687614,-93.63785692655183
435,907290240,143000,CollgCr,"4715 TWAIN ST, AMES, USA",42.016272436436154,-93.6821187933657
436,528478030,250000,Somerst,"2419 KINGSTON DR, AMES, USA",42.05226690017801,-93.64060076646571
437,910201180,150909,IDOTRR,"114 S RUSSELL AVE, AMES, USA",42.02259728571429,-93.62822157142857
438,533208140,178000,Somerst,"2720 NORTHRIDGE LN, AMES, USA",42.047816063070826,-93.64598659483785
439,528166150,350000,NridgHt,"3321 FOXLEY DR, AMES, USA",42.058640890740634,-93.65675772325477
440,905107140,143500,Sawyer,"911 MESA VERDE PL, AMES, USA",42.03066861357932,-93.6720386563243
441,527180100,180500,Gilbert,"3817 FLETCHER BLVD, AMES, USA",42.058859,-93.634762
442,528458080,255000,Somerst,"2810 ASPEN RD, AMES, USA",42.05073962729427,-93.64662739398727
443,905101450,154500,Sawyer,"1208 ARIZONA AVE, AMES, USA",42.033396918367345,-93.67536573469388
444,914460110,245000,Mitchel,"303 RUBY CIR, AMES, USA",41.996211194217395,-93.60711752442691
445,534400290,153000,NAmes,"1413 16TH ST, AMES, USA",42.03835418428905,-93.62832041301807
446,907254020,230000,CollgCr,"519 POE CIR, AMES, USA",42.017735289970865,-93.68445533701973
447,528458030,212700,Somerst,"2840 ASPEN RD, AMES, USA",42.05103227664718,-93.64730202075965
448,528480060,339750,Somerst,"2518 KINGSTON DR, AMES, USA",42.05217516802972,-93.6424376975465
449,905226050,112000,Sawyer,"1203 SCOTT AVE, AMES, USA",42.03338,-93.660706
450,528253010,207500,NridgHt,"2839 ROXBORO DR, AMES, USA",42.058398539747806,-93.649542301261
451,528228345,195000,Blmngtn,"2309 WESTWIND DR, AMES, USA",42.063341906833216,-93.64031889686983
452,527425140,120500,NAmes,"704 TOP O HOLLOW RD, AMES, USA",42.05663491840557,-93.62176390413987
453,907135020,144000,CollgCr,"5409 FROST DR, AMES, USA",42.01909123815859,-93.69137515829989
454,533206040,176400,Somerst,"2815 BRISTOL DR, AMES, USA",42.047505,-93.647671
455,535181140,130000,NAmes,"2104 DOUGLAS AVE, AMES, USA",42.04313344897959,-93.61226375510203
456,902427045,97000,OldTown,"422 E 6TH ST, AMES, USA",42.026947690553214,-93.60479012759878
457,527405130,76500,NAmes,"1202 WHEELER ST, AMES, USA",42.05328469387755,-93.62721524489797
458,528431040,419005,Somerst,"3217 KENT AVE, AMES, USA",42.05445930526654,-93.64231225354779
459,527450210,83000,BrDale,"1333 TRUMAN PL, AMES, USA",42.0525671934726,-93.62765172237602
460,532378200,142000,Sawyer,"3905 ONTARIO ST, AMES, USA",42.03459803030303,-93.67086053535353
461,909278020,154900,Crawfor,"602 ASH AVE, AMES, USA",42.0118554,-93.6456983
462,534225110,145000,NAmes,"2624 MELROSE AVE, AMES, USA",42.04764304782165,-93.62458843657075
463,909451130,123900,Blueste,"1505 LITTLE BLUESTEM CT UNIT 116, AMES, USA",42.0095432,-93.646143
464,528142020,250000,NridgHt,"3122 BECKLEY ST, AMES, USA",42.06043498193772,-93.65414661216343
465,527404030,143000,NAmes,"1212 JEFFERSON ST, AMES, USA",42.055185353622385,-93.6267052291767
466,527162180,183000,Gilbert,"3840 BERKSHIRE AVE, AMES, USA",42.05934421119287,-93.63897183030831
467,534151180,255000,NWAmes,"2025 PRAIRIE VIEW EAST, AMES, USA",42.04311905624381,-93.63698612936075
468,908204090,131750,Edwards,"278 VILLAGE DR, AMES, USA",42.018681900000004,-93.6663829759606
469,532354070,132500,Sawyer,"4106 TORONTO ST, AMES, USA",42.03586555102041,-93.67407142857142
470,527302070,181900,NWAmes,"3306 EISENHOWER AVE, AMES, USA",42.05455169737027,-93.63779464883544
471,527214030,387000,StoneBr,"4013 FRANCES E DAVIS CT, AMES, USA",42.060110571428574,-93.627926
472,533128030,268000,NoRidge,"2713 NORTHRIDGE CIR, AMES, USA",42.04804412244898,-93.65051097959183
473,902330010,122000,OldTown,"114 8TH ST, AMES, USA",42.028892633438076,-93.61086585885806
474,923228150,97000,MeadowV,"707 MEADOW PL, AMES, USA",41.9925693,-93.6021357
475,527302080,229000,NWAmes,"3300 EISENHOWER AVE, AMES, USA",42.054501,-93.637788
476,528344040,340000,NoRidge,"3028 BAYBERRY RD, AMES, USA",42.05342209992673,-93.65304393958789
477,535403040,115000,NAmes,"120 E O NEIL DR, AMES, USA",42.04013764071213,-93.61031392353992
478,535375050,135000,OldTown,"1517 KELLOGG AVE, AMES, USA",42.037295428571426,-93.6140802857143
479,535376060,149000,OldTown,"1511 DOUGLAS AVE, AMES, USA",42.0372426122449,-93.61242581632654
480,924151040,285000,Mitchel,"3616 JEWEL DR, AMES, USA",41.989745529068436,-93.59996872621437
481,528186160,234250,NridgHt,"3703 CHILTON AVE, AMES, USA",42.0572465,-93.65143940000002
482,532351150,119500,Sawyer,"4307 TORONTO ST, AMES, USA",42.03637796697601,-93.677257350006
483,905105010,142500,Sawyer,"1019 ARIZONA AVE, AMES, USA",42.03121063779482,-93.67573680093105
484,527452310,123000,NAmes,"1413 JOHNSON ST, AMES, USA",42.04895463333342,-93.62924181330851
485,909250200,149000,SWISU,"428 STANTON AVE, AMES, USA",42.01875678168227,-93.64838682231043
486,905101300,136000,Sawyer,"3901 QUEBEC ST 3903, AMES, USA",42.033392602944204,-93.67123834844583
487,902329080,119000,OldTown,"219 7TH ST, AMES, USA",42.02804460246242,-93.61253632831034
488,903225140,124000,BrkSide,"1222 NORTHWESTERN AVE, AMES, USA",42.03363724489796,-93.62555610204082
489,533215080,328900,Somerst,"2415 BRADFORD DR, AMES, USA",42.046291522056016,-93.64706809744942
490,534452060,118000,BrkSide,"1301 RIDGEWOOD AVE 1303, AMES, USA",42.034683,-93.627695
491,532476050,260000,Veenker,"1601 AMHERST DR, AMES, USA",42.037211,-93.660602
492,909428110,157000,Crawfor,"2004 MCCARTHY RD, AMES, USA",42.0134524,-93.6396547
493,528170040,437154,NridgHt,"3108 ROXBORO DR, AMES, USA",42.05852329023244,-93.65218318239246
494,533110130,260000,NoRidge,"2503 RIDGETOP RD, AMES, USA",42.04575485977505,-93.6539210146762
495,921205030,369900,Timber,"2406 COTTONWOOD RD, AMES, USA",41.993253,-93.64787321806948
496,923203090,164000,Mitchel,"3318 EMERALD DR, AMES, USA",41.99306538458213,-93.60816367708647
497,535104120,187500,NAmes,"510 LUTHER DR, AMES, USA",42.04818346460969,-93.61800109327203
498,528366070,263000,NoRidge,"3108 SYCAMORE RD, AMES, USA",42.04950416439778,-93.65311839997617
499,923204040,173000,Mitchel,"428 JEWEL DR, AMES, USA",41.99317600351737,-93.60623275724798
500,535378080,128500,OldTown,"1400 BURNETT AVE, AMES, USA",42.0456477,-93.6165081
501,533251130,194000,Veenker,"2804 PINEHURST CIR, AMES, USA",42.044755845575516,-93.64596875881587
502,528235130,178000,Gilbert,"3838 WELBECK DR, AMES, USA",42.0602303,-93.6439316
503,903226130,128000,BrkSide,"1210 CURTISS AVE, AMES, USA",42.03350432653061,-93.62453204081632
504,903235020,89000,BrkSide,"1018 10TH ST, AMES, USA",42.03118540718059,-93.62385053019987
505,527425110,130000,NAmes,"804 TOP O HOLLOW RD, AMES, USA",42.0566141520629,-93.6222984445571
506,902327070,160000,OldTown,"803 DUFF AVE, AMES, USA",42.02912002366332,-93.61062325031136
507,903425270,90000,BrkSide,"616 RIDGEWOOD AVE, AMES, USA",42.02743925,-93.62515039490023
508,534127230,150000,NWAmes,"2729 CLEVELAND DR, AMES, USA",42.04894545931406,-93.63454246820592
509,914478100,143000,Mitchel,"700 DIAMOND CT, AMES, USA",41.994432,-93.601624
510,535301150,156000,NAmes,"1904 WILSON AVE, AMES, USA",42.0382469,-93.6185178
511,903225150,87000,BrkSide,"1226 NORTHWESTERN AVE, AMES, USA",42.03367965306122,-93.62555793877551
512,527402220,148500,NAmes,"3316 GARNER AVE, AMES, USA",42.05470832653061,-93.62648085714287
513,904351240,63000,Edwards,"122 HOWARD AVE, AMES, USA",42.02304640816327,-93.65834769387754
514,535452090,128000,NAmes,"1425 MAXWELL AVE, AMES, USA",42.03611175102567,-93.60694141044607
515,528108020,253293,NridgHt,"3122 SEDWICK ST, AMES, USA",42.062985606756705,-93.6541551783833
516,528427070,214000,Somerst,"3317 CULLEN DR, AMES, USA",42.055349838388075,-93.6441992173775
517,902125020,124000,OldTown,"1229 KELLOGG AVE, AMES, USA",42.033675714285714,-93.61405285714285
518,910201050,129850,IDOTRR,"1212 LINCOLN WAY, AMES, USA",42.022788142857145,-93.6271091632653
519,527425090,115000,NAmes,"808 TOP O HOLLOW RD, AMES, USA",42.05661342218788,-93.62231982989509
520,909277100,163500,Crawfor,"2011 KILDEE ST, AMES, USA",42.01764715939968,-93.63973588049143
521,531452070,145000,SawyerW,"1408 INDIANA AVE, AMES, USA",42.03552981169623,-93.68623304546638
522,528387050,271000,NoRidge,"3015 VALLEY VIEW RD, AMES, USA",42.05055927360286,-93.65166036668946
523,905480240,95000,Edwards,"3121 LINCOLN WAY, AMES, USA",42.02284059853292,-93.66017316218903
524,535476350,192000,NAmes,"1522 LINDEN DR, AMES, USA",42.036844606060605,-93.60480541414141
525,527258010,394432,StoneBr,"1316 KINYON CIR, AMES, USA",42.05884043624161,-93.6291108657718
526,906394060,181000,CollgCr,"112 HARTFORD DR, AMES, USA",42.023161639829276,-93.688895
527,909282030,381000,Crawfor,"2116 COUNTRY CLUB BLVD, AMES, USA",42.015873,-93.642674
528,905225040,140000,Sawyer,"1239 WISCONSIN AVE, AMES, USA",42.03378981113612,-93.66217073409716
529,908275130,130500,Edwards,"234 S FRANKLIN AVE, AMES, USA",42.0197906,-93.664509
530,527226040,155000,Gilbert,"4014 DAWES DR, AMES, USA",42.06022015058052,-93.62295726356056
531,903458110,89500,IDOTRR,"1107 LINCOLN WAY, AMES, USA",42.02295687755102,-93.62546034693877
532,535425080,277500,NAmes,"415 PAULSON DR, AMES, USA",42.04078546204856,-93.60656958697224
533,907201220,140000,CollgCr,"5140 EMERSON DR, AMES, USA",42.020059778607575,-93.68718591763705
534,903426160,160000,OldTown,"817 HODGE AVE, AMES, USA",42.02911295918368,-93.62171457142857
535,905478140,125000,Edwards,"209 HOWARD AVE, AMES, USA",42.023976828047495,-93.65858202077327
536,906475070,185000,ClearCr,"234 PARKRIDGE CIR, AMES, USA",42.02469308728671,-93.6820369359333
537,907414070,173500,CollgCr,"4818 WALLER ST, AMES, USA",42.01353445454545,-93.68471572727273
538,914476050,135000,Mitchel,"702 CRYSTAL ST, AMES, USA",41.996899895960425,-93.60299219600131
539,923251180,131000,Mitchel,"413 TEAGARDEN DR, AMES, USA",41.987693343434344,-93.60636698989899
540,528235090,200000,Gilbert,"3827 BRICKMAN AVE, AMES, USA",42.059454259012924,-93.64319327177769
541,527355150,278000,NWAmes,"1910 STEVENSON DR, AMES, USA",42.05291513617854,-93.63375536933796
542,527454130,137900,NPkVill,"1119 JOHNSON ST, AMES, USA",42.05011223963888,-93.62586720306223
543,533215020,300000,Somerst,"2509 BRADFORD DR, AMES, USA",42.04659135169006,-93.64687694636557
544,526302120,169000,NAmes,"627 RIVER OAK DR, AMES, USA",42.05285252734815,-93.61867770937495
545,532378220,129200,Sawyer,"1310 ALABAMA LN, AMES, USA",42.03476522873856,-93.67190502706886
546,907420110,167000,CollgCr,"908 POE AVE, AMES, USA",42.01458634071595,-93.6837257559237
547,527354100,187500,NWAmes,"1915 STEVENSON DR, AMES, USA",42.05291637350058,-93.63398195443641
548,535404080,129900,NAmes,"1603 CARROLL AVE, AMES, USA",42.039218,-93.609681
549,906223090,236000,SawyerW,"1006 VERMONT CT, AMES, USA",42.03079004563383,-93.68199438769652
550,527450080,125500,BrDale,"1437 TRUMAN PL, AMES, USA",42.05260930263202,-93.62917921696385
551,905352030,192000,ClearCr,"212 TRAIL RIDGE RD, AMES, USA",42.0243064,-93.67401
552,923275040,165500,Mitchel,"521 ELY CIR, AMES, USA",41.988754497238666,-93.60495553528983
553,906477110,155000,ClearCr,"4804 WESTBEND DR, AMES, USA",42.02423292307692,-93.68243961538462
554,908103310,127500,Edwards,"200 WELLONS DR 202, AMES, USA",42.020201,-93.675132
555,531477040,144000,SawyerW,"1505 NORTH DAKOTA AVE, AMES, USA",42.03611733333334,-93.67890566666667
556,534176230,171000,NWAmes,"2226 HAYES AVE, AMES, USA",42.043777478580154,-93.63251732040536
557,907187060,217000,CollgCr,"5200 CERVANTES DR, AMES, USA",42.017765,-93.689101
558,528385050,260000,NoRidge,"3014 ASPEN RD, AMES, USA",42.051606908616456,-93.65170730227655
559,908204160,82500,Edwards,"238 VILLAGE DR 240, AMES, USA",42.0195893,-93.6654029
560,924100020,172000,Mitchel,"3402 JEWEL DR, AMES, USA",41.99082077407747,-93.60022157484228
561,907401080,195000,CollgCr,"917 TENNYSON AVE, AMES, USA",42.01511921212121,-93.68786538383839
562,528108120,376162,NridgHt,"3033 STOCKBURY ST, AMES, USA",42.06234669940753,-93.65333767490483
563,916403230,175000,Timber,"2609 GREEN HILLS DR, AMES, USA",41.999163329763924,-93.64441173641647
564,903236040,126500,BrkSide,"720 10TH ST, AMES, USA",42.03119946938776,-93.62063910204083
565,903475060,122000,OldTown,"519 NORTHWESTERN AVE 521, AMES, USA",42.025981634565824,-93.62218509239744
566,527302090,213000,NWAmes,"2009 BUCHANAN DR, AMES, USA",42.054475,-93.637326
567,923230120,138000,Mitchel,"704 GARNET DR, AMES, USA",41.99123401860321,-93.60243061324627
568,534403420,147000,NAmes,"1912 BEL AIR DR, AMES, USA",42.04126429351552,-93.62754452265993
569,902304060,130000,OldTown,"709 CLARK AVE 709 1/2, AMES, USA",42.028287,-93.617386
570,1007100110,103000,IDOTRR,"2520 E LINCOLN WAY, AMES, USA",42.02265498235664,-93.57832729307644
571,907290090,213000,CollgCr,"4614 WEBSTER ST, AMES, USA",42.016954285714284,-93.68117685714286
572,907203090,110000,CollgCr,"4915 SCHUBERT ST, AMES, USA",42.021225,-93.684411
573,905102060,131500,Sawyer,"4018 QUEBEC ST, AMES, USA",42.033241419293034,-93.67282384824915
574,907275150,275000,CollgCr,"4639 HEMINGWAY DR, AMES, USA",42.01887520909529,-93.68128598545967
575,535152150,165500,NAmes,"2026 JENSEN AVE, AMES, USA",42.04291583082946,-93.61760893209153
576,528365090,290000,NoRidge,"3133 SYCAMORE RD, AMES, USA",42.04969847336652,-93.65379020401356
577,910200080,126000,IDOTRR,"121 S RUSSELL AVE, AMES, USA",42.02253369387755,-93.62844153061225
578,923225080,124000,MeadowV,"3334 SOUTHDALE DR, AMES, USA",41.992492403615074,-93.60530083890698
579,906402200,320000,SawyerW,"926 IDAHO AVE, AMES, USA",42.030479,-93.68318
580,921128050,425000,Timber,"2624 COTTONWOOD RD, AMES, USA",41.993090368244026,-93.65077168001568
581,909250160,96500,Crawfor,"2321 BAKER ST, AMES, USA",42.018046346938775,-93.6469003877551
582,908225170,91900,Edwards,"3319 TRIPP ST, AMES, USA",42.02011791418733,-93.66201652254809
583,906380060,272500,CollgCr,"5332 TABOR DR, AMES, USA",42.02587218003842,-93.68961370743756
584,527175130,154204,Gilbert,"1711 TOP O HOLLOW RD, AMES, USA",42.05659525375694,-93.63278756748916
585,528480110,200825,Somerst,"2517 CLAYTON DR, AMES, USA",42.05142301513821,-93.64265836776028
586,528150070,611657,NridgHt,"4101 VALLEY VIEW RD, AMES, USA",42.060462,-93.655516
587,923400040,160000,Mitchel,"300 KEN MARIL RD, AMES, USA",41.986498,-93.608125
588,910205020,78000,IDOTRR,"203 S MAPLE AVE, AMES, USA",42.021477530612245,-93.6253292244898
589,535103050,201800,NAmes,"2702 NORTHWOOD DR, AMES, USA",42.04892890817189,-93.61662458579933
590,528240150,195500,Gilbert,"4010 BRICKMAN AVE, AMES, USA",42.061224524473666,-93.64249212714206
591,906226120,142953,SawyerW,"1001 NORTH DAKOTA AVE 1003, AMES, USA",42.03231420003687,-93.6786209631735
592,535327140,107500,NAmes,"117 16TH ST, AMES, USA",42.038369856900076,-93.61107609317202
593,528427040,213133,Somerst,"3223 CULLEN DR, AMES, USA",42.054533812179464,-93.644148
594,528435020,297900,Somerst,"2616 DALTON ST, AMES, USA",42.054149,-93.644192
595,534431130,122000,NAmes,"803 16TH ST, AMES, USA",42.0384108367347,-93.62169385714286
596,923203110,162000,Mitchel,"3322 EMERALD DR, AMES, USA",41.99302302560038,-93.6081644942168
597,527356020,250000,NWAmes,"2935 EISENHOWER AVE, AMES, USA",42.05050176633044,-93.63749315294264
598,527252090,318000,StoneBr,"3807 HOOVER AVE, AMES, USA",42.05778268719642,-93.62986759861607
599,527258020,260000,StoneBr,"3802 HOOVER AVE, AMES, USA",42.0580958832001,-93.629625753887
600,533253060,155000,Greens,"2020 PINEHURST DR, AMES, USA",42.04292843701024,-93.64930738305368
601,905107380,120000,Sawyer,"1008 ARKANSAS AVE, AMES, USA",42.03166456924505,-93.67415414231127
602,531375040,159000,SawyerW,"5425 KANSAS DR, AMES, USA",42.03789478718914,-93.69152303149954
603,535355100,112000,OldTown,"427 13TH ST, AMES, USA",42.034592382673324,-93.61600823920722
604,907192120,226000,CollgCr,"5421 CLEMENS BLVD, AMES, USA",42.016317023596216,-93.69159318608705
605,528138010,324000,NridgHt,"2908 WESTON DR, AMES, USA",42.06162466808756,-93.65221048846105
606,908229020,99900,Edwards,"203 STATE AVE, AMES, USA",42.02138447474748,-93.65922493939395
607,528480090,271500,Somerst,"2505 CLAYTON DR, AMES, USA",42.05142825378456,-93.64252609194007
608,527108070,377500,Gilbert,"4302 HARRISON CIR, AMES, USA",42.06297980174738,-93.63597536209686
609,906226060,131000,SawyerW,"1110 DELAWARE AVE, AMES, USA",42.0324048560419,-93.679752
610,908275290,125000,Edwards,"3334 MORNINGSIDE ST, AMES, USA",42.017731142857144,-93.66219771428571
611,531375070,142500,SawyerW,"5409 KANSAS DR, AMES, USA",42.037880984107865,-93.69138693054298
612,528480070,266000,Somerst,"2512 KINGSTON DR, AMES, USA",42.05218586544711,-93.64236547683238
613,905300080,142500,Sawyer,"733 ARIZONA AVE, AMES, USA",42.02890321194663,-93.676399360278
614,907203040,149900,CollgCr,"201 ROCKWELL AVE, AMES, USA",42.021766,-93.683356
615,535450180,135000,NAmes,"115 E 14TH ST, AMES, USA",42.03578971428571,-93.61032328571429
616,531382070,257000,SawyerW,"1340 CALIFORNIA AVE, AMES, USA",42.035478157326274,-93.691368353397
617,527216080,591587,StoneBr,"4120 LAURA CT, AMES, USA",42.06084660866363,-93.62614208665285
618,906394050,176432,CollgCr,"118 HARTFORD DR, AMES, USA",42.02320307609885,-93.688895
619,527252070,392000,StoneBr,"3817 HOOVER AVE, AMES, USA",42.05789536974548,-93.62985262130675
620,534250010,135000,NWAmes,"1504 24TH ST, AMES, USA",42.04553058199126,-93.63036795695383
621,904100090,150000,Sawyer,"2800 ONTARIO ST, AMES, USA",42.034476,-93.655797
622,905453040,186000,Edwards,"218 CRANE AVE, AMES, USA",42.02515574286182,-93.66606191273536
623,527326150,215000,NWAmes,"1709 BUCHANAN DR, AMES, USA",42.05528206355001,-93.63425011897093
624,909101050,116000,Edwards,"2912 WOOD ST, AMES, USA",42.02208263383202,-93.65694856603419
625,923203140,160500,Mitchel,"3328 EMERALD DR, AMES, USA",41.992959487127756,-93.60816571991228
626,906230020,269500,SawyerW,"907 NORTH DAKOTA AVE, AMES, USA",42.030538597973475,-93.67893732726276
627,528218060,170440,Gilbert,"4221 CRESTMOOR AVE, AMES, USA",42.0623665183045,-93.64583124495203
628,906380040,246500,CollgCr,"5408 TABOR DR, AMES, USA",42.02539048178546,-93.69056946137641
629,528228360,246990,Blmngtn,"2304 WESTWIND DR, AMES, USA",42.063176890925995,-93.64022440631767
630,532377130,131400,Sawyer,"1304 ALBERTA AVE, AMES, USA",42.0347092512174,-93.6734836316701
631,527256040,455000,StoneBr,"1303 KINYON CIR, AMES, USA",42.05900058389262,-93.6290162818792
632,903400030,109000,BrkSide,"829 RIDGEWOOD AVE, AMES, USA",42.02949532172788,-93.62581691295279
633,535453200,132500,NAmes,"1516 MAXWELL AVE, AMES, USA",42.03720334607937,-93.60675628318276
634,528240080,230500,Gilbert,"3903 WESTLAWN DR, AMES, USA",42.060176458179896,-93.6414130851072
635,534476320,128900,NAmes,"1530 CURTISS AVE, AMES, USA",42.037385798657716,-93.62458487248323
636,902125080,107400,OldTown,"1203 KELLOGG AVE, AMES, USA",42.03339740816326,-93.6140427755102
637,528327010,405000,NoRidge,"3124 ALMOND RD, AMES, USA",42.055592,-93.653209853281
638,916455070,220000,Timber,"2909 WHITE OAK DR, AMES, USA",41.99633696806935,-93.64682732432733
639,535350030,144900,NAmes,"618 16TH ST, AMES, USA",42.038242857142855,-93.61898336734694
640,905226170,137000,Sawyer,"1248 WISCONSIN AVE, AMES, USA",42.033870269370155,-93.66194959440077
641,528488140,230348,Somerst,"2612 CLAYTON DR, AMES, USA",42.05122208592715,-93.64372242237481
642,528228580,246578,Blmngtn,"2420 LAKESIDE DR, AMES, USA",42.062995452109085,-93.6415741695409
643,527453130,149900,NPkVill,"1113 KENNEDY ST, AMES, USA",42.05068821188921,-93.62609425309661
644,534127210,183000,NWAmes,"2741 CLEVELAND DR, AMES, USA",42.04886393696468,-93.63474361913696
645,531452020,99500,SawyerW,"1308 INDIANA AVE, AMES, USA",42.03470498605157,-93.68622929966418
646,911175430,35311,IDOTRR,"313 S 4TH ST, AMES, USA",42.019100274194074,-93.61476109680883
647,531452180,194500,SawyerW,"1528 INDIANA AVE, AMES, USA",42.03651955306964,-93.68624346346671
648,902300110,139500,OldTown,"813 WILSON AVE, AMES, USA",42.02912142857143,-93.61848014285715
649,924152030,231000,Mitchel,"3715 JEWEL DR, AMES, USA",41.98920287894761,-93.60018413490596
650,902110120,111500,OldTown,"916 WILSON AVE 918, AMES, USA",42.030841,-93.6181419
651,528439080,249000,Somerst,"2511 YORKSHIRE ST, AMES, USA",42.05322338850979,-93.64235043856486
652,908151040,147000,Edwards,"413 WELLONS CIR, AMES, USA",42.01901087755102,-93.67531048979592
653,528390020,301500,NoRidge,"2948 CYPRESS CIR, AMES, USA",42.04946678372613,-93.65117696467397
654,531453140,144000,SawyerW,"1501 ILLINOIS AVE, AMES, USA",42.035634898410905,-93.68522470040688
655,905226110,145000,ClearCr,"3219 ROSS RD, AMES, USA",42.03266153193981,-93.66098447742898
656,531363080,139500,SawyerW,"5510 KANSAS DR, AMES, USA",42.037805872725784,-93.69228547634813
657,527450520,100500,BrDale,"1208 TRUMAN PL, AMES, USA",42.05146405037852,-93.62707910309375
658,534252040,144000,NAmes,"2303 MELROSE AVE, AMES, USA",42.04467577213927,-93.62479946563464
659,527453140,123000,NPkVill,"1115 KENNEDY ST, AMES, USA",42.05068774720407,-93.62611562861271
660,531385020,189000,SawyerW,"1516 NEBRASKA AVE, AMES, USA",42.03698944897959,-93.68877371428572
661,534151175,243500,NWAmes,"2029 PRAIRIE VIEW EAST, AMES, USA",42.043132443732944,-93.63701692058576
662,914452060,145000,Mitchel,"411 OPAL CIR 413, AMES, USA",41.99436430952381,-93.6064848452381
663,535426130,135000,NAmes,"621 CARR DR, AMES, USA",42.03893266606289,-93.60524586740931
664,905200220,139000,Sawyer,"3613 ANNEAR ST, AMES, USA",42.03343549761995,-93.6667508603405
665,903425280,153575,BrkSide,"622 RIDGEWOOD AVE, AMES, USA",42.027622,-93.62515444596775
666,527326130,175000,NWAmes,"1717 BUCHANAN DR, AMES, USA",42.05527671524565,-93.63428082858952
667,902105110,132000,OldTown,"1112 CLARK AVE, AMES, USA",42.0254672,-93.6168856
668,528477050,310000,Somerst,"2525 KINGSTON DR, AMES, USA",42.052361100598375,-93.64250793879313
669,909282130,144800,Crawfor,"707 BEACH AVE, AMES, USA",42.0178156,-93.639429
670,534402170,177500,NAmes,"1405 ARTHUR DR, AMES, USA",42.03990752355813,-93.6281476385107
671,528228340,215000,Blmngtn,"2313 WESTWIND DR, AMES, USA",42.063332643566966,-93.64039482796149
672,911128180,68400,IDOTRR,"212 WASHINGTON AVE, AMES, USA",42.02136264484655,-93.61524020165535
673,527404020,128000,NAmes,"1218 JEFFERSON ST, AMES, USA",42.055197743096855,-93.62675858329791
674,908103350,125200,Edwards,"215 WELLONS DR, AMES, USA",42.02017885714286,-93.67535371428572
675,527126030,251000,StoneBr,"4321 STONE BROOKE RD, AMES, USA",42.063184675,-93.634378025
676,916475040,315000,Timber,"2320 SUNCREST DR, AMES, USA",41.99535006060606,-93.64701198989899
677,905452110,127000,Edwards,"307 FRANKLIN AVE, AMES, USA",42.025120447677985,-93.66493964599474
678,533208020,194000,Somerst,"2816 NORTHRIDGE LN, AMES, USA",42.04771201799954,-93.64670427559805
679,902103120,103500,OldTown,"621 11TH ST 619, AMES, USA",42.032211292796056,-93.61892575481906
680,527359180,197500,NWAmes,"2985 MONROE DR, AMES, USA",42.051508,-93.63471
681,535475020,140000,NAmes,"1531 LINDEN DR, AMES, USA",42.03693412121212,-93.60502794949495
682,923227100,140000,Mitchel,"3330 JEWEL DR, AMES, USA",41.9933402,-93.6041191
683,528150090,378000,NridgHt,"3203 HARRISON RD, AMES, USA",42.059710469537016,-93.6552007059271
684,914475030,173000,Mitchel,"627 CRYSTAL ST, AMES, USA",41.9970794347026,-93.60409578337028
685,923225240,127000,MeadowV,"3472 SOUTHDALE DR, AMES, USA",41.99058305966545,-93.60383229513143
686,527108060,309000,Gilbert,"4301 HARRISON CIR, AMES, USA",42.062807,-93.635963
687,528482090,340000,Somerst,"2307 CLAYTON DR, AMES, USA",42.05105825602237,-93.63971724582727
688,527358060,175000,NWAmes,"2944 MONROE DR, AMES, USA",42.0507044,-93.6352344
689,903235100,68500,BrkSide,"916 NORTHWESTERN AVE, AMES, USA",42.03046517167965,-93.62447142863358
690,903225040,135000,BrkSide,"1217 CURTISS AVE, AMES, USA",42.03356512244898,-93.62475426530612
691,903225040,135000,BrkSide,"1217 CURTISS AVE, AMES, USA",42.03356512244898,-93.62475426530612
692,905453080,308030,Edwards,"3520 STORY ST, AMES, USA",42.02407498695896,-93.6625751725542
693,903227080,120000,BrkSide,"1204 MARSTON AVE, AMES, USA",42.03343397959184,-93.62348342857142
694,908102140,123000,Edwards,"221 TODD CIR, AMES, USA",42.02086615826354,-93.67758435907253
695,534275060,141500,NAmes,"2103 MELROSE AVE, AMES, USA",42.043157545707366,-93.62321486965608
696,907202080,136500,CollgCr,"5008 EMERSON DR, AMES, USA",42.019786954284356,-93.68472770538007
697,532351090,125000,Sawyer,"4203 TORONTO ST 4205, AMES, USA",42.036257673469386,-93.67609259183673
698,923226300,85500,MeadowV,"609 MEADOW PL, AMES, USA",41.992261665241934,-93.60328933021607
699,923226300,85500,MeadowV,"609 MEADOW PL, AMES, USA",41.992261665241934,-93.60328933021607
700,923226300,85500,MeadowV,"609 MEADOW PL, AMES, USA",41.992261665241934,-93.60328933021607
701,907180130,204000,CollgCr,"5333 CERVANTES DR, AMES, USA",42.01743548190004,-93.69085450610454
702,907412040,186500,CollgCr,"4901 WALLER ST, AMES, USA",42.013919303030306,-93.68550604040404
703,535456100,109500,NAmes,"1322 STAFFORD AVE, AMES, USA",42.0348683877551,-93.60776691836735
704,528172020,275000,NridgHt,"3038 HARRISON RD, AMES, USA",42.059185858900804,-93.65040116571043
705,907175080,226001,CollgCr,"5315 THACKERAY DR, AMES, USA",42.01849162205524,-93.69079671519896
706,534427140,150750,NAmes,"1922 ROOSEVELT AVE, AMES, USA",42.041287123174314,-93.62325760777752
707,905200010,129000,Sawyer,"3732 ONTARIO ST, AMES, USA",42.03441534858317,-93.66861455432976
708,528228555,185485,Blmngtn,"2421 LAKESIDE DR, AMES, USA",42.0633081553146,-93.64218655574228
709,905300020,144000,Sawyer,"4410 PHOENIX ST, AMES, USA",42.029447063829785,-93.67826268085106
710,533253030,214000,Greens,"2008 PINEHURST DR, AMES, USA",42.0427331748041,-93.64931675322147
711,923228250,75000,MeadowV,"723 GARNET DR, AMES, USA",41.99172278896287,-93.60157702884217
712,534128100,162000,NWAmes,"1607 PIERCE CIR, AMES, USA",42.04787,-93.6323818
713,908103090,110000,Edwards,"206 ABRAHAM DR, AMES, USA",42.02110648484849,-93.67618415151516
714,531369010,193000,SawyerW,"5404 MARYLAND ST, AMES, USA",42.03601702285148,-93.69162303599694
715,535426350,148000,NAmes,"1810 GEORGE ALLEN AVE, AMES, USA",42.04003007162375,-93.6070279042265
716,527210050,356383,StoneBr,"1407 PANORAMIC CT, AMES, USA",42.060522673469386,-93.62919155102041
717,923225190,104500,MeadowV,"3442 SOUTHDALE DR, AMES, USA",41.99100085550783,-93.604222598044
718,923228210,79500,MeadowV,"719 MEADOW PL, AMES, USA",41.9925693,-93.6021357
719,902401090,93500,OldTown,"115 E 7TH ST, AMES, USA",42.028074708774916,-93.61014271429373
720,528174080,185850,NridgHt,"2902 HARRISON RD, AMES, USA",42.05925125070055,-93.64933063070106
721,910200040,115000,IDOTRR,"103 S RUSSELL AVE, AMES, USA",42.022718469387755,-93.62844465306122
722,528294060,185900,Gilbert,"3816 HYDE AVE, AMES, USA",42.05866265772722,-93.64084551761728
723,902128150,155000,OldTown,"1116 BURNETT AVE 1118, AMES, USA",42.032355714285714,-93.61541004081633
724,535451010,116000,NAmes,"214 E 16TH ST, AMES, USA",42.03818257142857,-93.608716
725,533221060,177000,Somerst,"2717 HAMPTON ST, AMES, USA",42.0461505760374,-93.64580462969136
726,535175050,155000,NAmes,"2315 DUFF AVE, AMES, USA",42.04484298006625,-93.61406195922254
727,909451100,137000,Blueste,"1505 LITTLE BLUESTEM CT UNIT 119, AMES, USA",42.0099409,-93.64605069999999
728,905104210,125000,Sawyer,"823 YUMA AVE, AMES, USA",42.02996191433617,-93.6781799948893
729,907275080,228000,CollgCr,"4539 HEMINGWAY DR, AMES, USA",42.01847041777077,-93.67948936241542
730,907285080,210000,CollgCr,"4532 CLEMENS BLVD, AMES, USA",42.01785786161569,-93.6801774863413
731,907285050,191000,CollgCr,"4606 CLEMENS BLVD, AMES, USA",42.01784829160197,-93.68118917350554
732,528118040,418000,NridgHt,"3311 PRESTON CIR, AMES, USA",42.06042751020408,-93.65749616326531
733,907255050,275000,CollgCr,"503 BROWN CT, AMES, USA",42.01777557142857,-93.68560220408163
734,905105190,130000,Sawyer,"822 YUMA AVE, AMES, USA",42.02992519260834,-93.6779561719857
735,923201100,139500,Mitchel,"601 JEWEL DR, AMES, USA",41.993425,-93.604106
736,528120030,335000,NridgHt,"3112 WESTON DR, AMES, USA",42.06125391005535,-93.65429293465563
737,907135170,138000,CollgCr,"5449 FROST DR, AMES, USA",42.018872376132634,-93.69251180861552
738,535478010,134500,NAmes,"510 E 14TH ST, AMES, USA",42.0354431086131,-93.60569883577747
739,535180120,133000,NAmes,"217 20TH ST, AMES, USA",42.04210733692971,-93.61285385715064
740,534426110,124500,NAmes,"1926 HUNZIKER DR, AMES, USA",42.04122444683396,-93.62456660627306
741,535403150,159500,NAmes,"313 E 16TH ST, AMES, USA",42.03835063265306,-93.60764075510204
742,531376010,173000,SawyerW,"1410 CALIFORNIA AVE, AMES, USA",42.03624601645499,-93.69123942575058
743,911102170,40000,IDOTRR,"208 S WALNUT AVE, AMES, USA",42.02140362966889,-93.61680909086884
744,905475520,80000,Edwards,"309 COLORADO CIR, AMES, USA",42.02508203703704,-93.66355788888889
745,907175030,235000,CollgCr,"5423 THACKERAY DR, AMES, USA",42.018169045677084,-93.69174026119212
746,527212050,325000,StoneBr,"4014 EDGEWATER DR, AMES, USA",42.060552547368424,-93.62885495789475
747,902201110,129500,OldTown,"1212 CARROLL AVE, AMES, USA",42.039218,-93.609681
748,906201030,178000,SawyerW,"1149 OKLAHOMA DR, AMES, USA",42.03318050758283,-93.68572630529711
749,535325130,127000,NAmes,"209 17TH ST, AMES, USA",42.039393076923076,-93.61263997435897
750,533213040,172500,Somerst,"2723 BRISTOL DR, AMES, USA",42.047117,-93.646828
751,527352150,154000,NWAmes,"2108 STEVENSON DR, AMES, USA",42.05183843368243,-93.6379785407475
752,903226060,164900,BrkSide,"1209 MARSTON AVE, AMES, USA",42.03347295918367,-93.62370485714285
753,923227080,160000,Mitchel,"3318 JEWEL DR, AMES, USA",41.9933402,-93.6041191
754,907252060,254750,CollgCr,"4923 HEMINGWAY DR, AMES, USA",42.01849059534388,-93.68659668498663
755,907252060,254750,CollgCr,"4923 HEMINGWAY DR, AMES, USA",42.01849059534388,-93.68659668498663
756,528102010,315000,NridgHt,"4205 WEMBLEY AVE, AMES, USA",42.06176391836735,-93.65861987755102
757,533208040,199900,Somerst,"2810 NORTHRIDGE LN, AMES, USA",42.04769896383669,-93.6466556166478
758,534128090,185000,NWAmes,"2703 PIERCE AVE, AMES, USA",42.04772546508857,-93.63152308199787
759,908103260,165000,Edwards,"4117 APLIN RD, AMES, USA",42.02000289795919,-93.67364530612245
760,903231180,132000,BrkSide,"1018 CURTISS AVE, AMES, USA",42.031539081816845,-93.62450668469695
761,533206050,196000,Somerst,"2813 BRISTOL DR, AMES, USA",42.04748696849148,-93.64765887536495
762,535403280,153000,NAmes,"1640 CARROLL AVE, AMES, USA",42.039218,-93.609681
763,907192030,195000,CollgCr,"5313 CLEMENS BLVD, AMES, USA",42.01683112623088,-93.68964000369685
764,914465060,271000,Mitchel,"305 TOPAZ CT, AMES, USA",41.99713146754121,-93.6072490569355
765,903228120,119000,BrkSide,"1214 ROOSEVELT AVE, AMES, USA",42.03356314285715,-93.62241285714285
766,903229040,119900,OldTown,"1209 GRAND AVE, AMES, USA",42.03347219306265,-93.62047117158787
767,535101120,124000,NAmes,"2718 LUTHER DR, AMES, USA",42.048325165604545,-93.61985953456579
768,527180040,171500,Gilbert,"3629 FLETCHER BLVD, AMES, USA",42.057391,-93.634738
769,902110080,135000,OldTown,"509 9TH ST, AMES, USA",42.03028234502641,-93.61727963334769
770,902405120,119000,OldTown,"618 CARROLL AVE, AMES, USA",42.039218,-93.609681
771,924100070,170000,Mitchel,"3508 JEWEL DR, AMES, USA",41.99121668853178,-93.60002553480204
772,903454020,72000,IDOTRR,"1214 N 3RD ST, AMES, USA",42.02510471428571,-93.62715557142857
773,527110120,169000,Gilbert,"2036 WYNGATE DR, AMES, USA",42.0607983,-93.6364315
774,902136110,95000,OldTown,"111 9TH ST, AMES, USA",42.03024178915276,-93.61083832613981
775,907130060,177500,CollgCr,"5250 SCHUBERT ST, AMES, USA",42.021200447533985,-93.68889377734922
776,526350040,105000,NAmes,"3109 GROVE AVE, AMES, USA",42.052806,-93.619783
777,535352090,113000,NAmes,"425 15TH ST, AMES, USA",42.037115346938776,-93.61603242857143
778,907295100,185000,CollgCr,"4551 TWAIN CIR, AMES, USA",42.01627236360775,-93.68043987816779
779,528431060,245000,Somerst,"2515 DALTON ST, AMES, USA",42.05431157972937,-93.64253480339607
780,535126040,190000,NAmes,"2613 DUFF AVE, AMES, USA",42.047395443263106,-93.6142805154145
781,534477110,140000,NAmes,"1411 ROOSEVELT AVE, AMES, USA",42.03598415118583,-93.62268006475738
782,528222010,258000,Gilbert,"4106 WELBECK DR, AMES, USA",42.06162825548448,-93.643988570908
783,923203010,140000,Mitchel,"3302 EMERALD DR, AMES, USA",41.99323482050913,-93.60816040856515
784,535154060,176000,NAmes,"2215 KELLOGG AVE, AMES, USA",42.04410238605175,-93.61493435062951
785,533125120,334000,NoRidge,"3130 GREENWOOD RD, AMES, USA",42.04859977363349,-93.65367775597777
786,902301150,114000,OldTown,"830 WILSON AVE, AMES, USA",42.02932957142857,-93.61826685714286
787,533250160,324000,Veenker,"2878 GREENSBORO CIR, AMES, USA",42.044657567685334,-93.64823284612062
788,528106010,342643,NridgHt,"3332 STOCKBURY ST, AMES, USA",42.06209099209688,-93.65759867203336
789,532376040,129000,Sawyer,"1304 GARFIELD AVE, AMES, USA",42.03464492397396,-93.66951756572132
790,535151130,132500,NAmes,"2110 BARR DR, AMES, USA",42.04300283036514,-93.61880678521356
791,528240070,216500,Gilbert,"3907 WESTLAWN DR, AMES, USA",42.060213257327135,-93.64141992057222
792,527184020,182000,StoneBr,"1530 STONE BROOKE RD, AMES, USA",42.0610026,-93.6325959
793,907135230,156000,CollgCr,"5430 FROST DR, AMES, USA",42.01907195177884,-93.6919548486722
794,527402150,143250,NAmes,"3323 JEFFERSON CIR, AMES, USA",42.05526655102041,-93.62635424489795
795,532378070,137000,Sawyer,"3828 WINDSOR CT, AMES, USA",42.035543921953604,-93.67104108534794
796,910201020,87000,IDOTRR,"1224 LINCOLN WAY, AMES, USA",42.02278728571429,-93.62725732653061
797,905103060,121500,Sawyer,"3925 ROSS RD, AMES, USA",42.032380331779315,-93.67266393241763
798,923228110,80000,MeadowV,"632 MEADOW PL, AMES, USA",41.992184963279854,-93.60301436490518
799,904100170,131000,Sawyer,"2925 ROSS RD, AMES, USA",42.0334156649055,-93.6580366031701
800,533242090,301000,Somerst,"2311 CAMDEN DR, AMES, USA",42.04614997430092,-93.64005835540581
801,528456180,252678,Somerst,"2811 ASPEN RD, AMES, USA",42.050894770020435,-93.64654466536167
802,907285100,237000,CollgCr,"4520 CLEMENS BLVD, AMES, USA",42.01785941350981,-93.6800134289633
803,535104020,163000,NAmes,"2619 KELLOGG AVE, AMES, USA",42.04781114704566,-93.61670524078161
804,528439040,260000,Somerst,"2607 YORKSHIRE ST, AMES, USA",42.053192821097824,-93.64354139484782
805,528439040,260000,Somerst,"2607 YORKSHIRE ST, AMES, USA",42.053192821097824,-93.64354139484782
806,908225320,113000,Edwards,"148 S FRANKLIN AVE, AMES, USA",42.021705410251386,-93.66465472502972
807,527216070,538000,StoneBr,"4126 LAURA CT, AMES, USA",42.060878739096815,-93.62613914098549
808,527451290,85400,BrDale,"1358 BARKLEY CT, AMES, USA",42.051671928125494,-93.62770173042392
809,907410050,213500,CollgCr,"839 POE AVE, AMES, USA",42.014511424224295,-93.6839763848764
810,909254050,231000,Crawfor,"603 ASH AVE, AMES, USA",42.0118554,-93.6456983
811,531373060,192500,SawyerW,"5426 TENNESSEE ST, AMES, USA",42.03512185445334,-93.69195838073597
812,534451130,79900,BrkSide,"1414 SUMMIT AVE, AMES, USA",42.0355057683593,-93.62930107326689
813,902206220,129000,OldTown,"916 DUFF AVE, AMES, USA",42.030781871272076,-93.61044502247243
814,527164020,166000,Gilbert,"3823 COLUMBINE AVE, AMES, USA",42.05826323456243,-93.63585790740748
815,527107130,189000,Gilbert,"1952 WYNGATE DR, AMES, USA",42.06162008936728,-93.63567359736633
816,923225200,129500,MeadowV,"3448 SOUTHDALE DR, AMES, USA",41.990917268587395,-93.60414456756043
817,909251030,136500,Crawfor,"2328 BAKER ST, AMES, USA",42.017880285714284,-93.64704514285714
818,907194130,192500,CollgCr,"5408 CLEMENS BLVD, AMES, USA",42.016202425140804,-93.69133679337209
819,907250070,250000,CollgCr,"5115 CLEMENS BLVD, AMES, USA",42.01711058562838,-93.68799230779719
820,903454080,119500,IDOTRR,"1207 N 2ND ST, AMES, USA",42.02410591836735,-93.62703997959184
821,534250335,170000,NWAmes,"2313 MCKINLEY CIR, AMES, USA",42.04470455277747,-93.62980991056969
822,528108130,404000,NridgHt,"3107 STOCKBURY ST, AMES, USA",42.06226769607274,-93.65441192506607
823,923230010,157000,Mitchel,"601 GARDEN RD, AMES, USA",41.9882466,-93.6027426
824,909281030,104000,Crawfor,"2006 KILDEE ST, AMES, USA",42.017493196411195,-93.63963199612057
825,527451320,112000,BrDale,"1346 BARKLEY CT, AMES, USA",42.05167520656314,-93.62762874955109
826,535303110,131000,NAmes,"608 DURRELL CIR, AMES, USA",42.039664625,-93.61868875
827,528456200,198600,Somerst,"2823 ASPEN RD, AMES, USA",42.05101239213435,-93.64681678195528
828,528120010,260116,NridgHt,"4120 VALLEY VIEW RD, AMES, USA",42.060677470544995,-93.65539242272703
829,902207170,99500,OldTown,"911 MAXWELL AVE, AMES, USA",42.030307768296915,-93.6068260153733
830,923204140,143000,Mitchel,"3310 OPAL DR 3312, AMES, USA",41.99308116084478,-93.60743936126562
831,906223080,239900,SawyerW,"1002 VERMONT CT, AMES, USA",42.03074334854461,-93.68199346256552
832,532378050,120875,Sawyer,"3900 WINDSOR CT, AMES, USA",42.0355977,-93.6709053
833,906204140,228500,SawyerW,"1102 IDAHO AVE, AMES, USA",42.03220343981452,-93.68319406749146
834,923202137,146000,Mitchel,"107 GARDEN RD, AMES, USA",41.99006190909091,-93.60997548484848
835,907280040,240000,CollgCr,"4616 HEMINGWAY DR, AMES, USA",42.01871460122548,-93.68100702779306
836,528170070,284000,NridgHt,"3026 ROXBORO DR, AMES, USA",42.058482936980404,-93.65149763205174
837,909451020,116500,Blueste,"1505 LITTLE BLUESTEM CT UNIT 103, AMES, USA",42.0098577,-93.6469637
838,902300260,132000,OldTown,"832 GRAND AVE, AMES, USA",42.029323454669566,-93.62015225124317
839,911226010,81000,IDOTRR,"130 CHERRY AVE, AMES, USA",42.0223864145049,-93.60415458704887
840,535375160,114000,OldTown,"1532 BURNETT AVE, AMES, USA",42.0456477,-93.6165081
841,527405160,120500,NAmes,"1122 WHEELER ST, AMES, USA",42.053298017748844,-93.62584077426474
842,534200030,130000,NAmes,"1406 JOHNSON ST, AMES, USA",42.04878818681946,-93.62915074903395
843,528186110,310090,NridgHt,"3032 BURNHAM DR, AMES, USA",42.05757013131882,-93.65196413300134
844,527450110,103400,BrDale,"1425 TRUMAN PL, AMES, USA",42.05260986231037,-93.62900207876737
845,528292030,245000,Gilbert,"2417 GRANT CIR, AMES, USA",42.05709294424635,-93.6415073065371
846,535177020,120000,NAmes,"126 24TH ST, AMES, USA",42.04566290558734,-93.61184232632132
847,535478110,124000,NAmes,"515 E 13TH ST, AMES, USA",42.03462175437361,-93.60557498097913
848,528142070,329900,NridgHt,"3016 BECKLEY ST, AMES, USA",42.06056202980451,-93.65273732220116
849,527276040,133000,Gilbert,"3805 DAWES DR, AMES, USA",42.05844882894972,-93.62175577659416
850,908127070,110000,Edwards,"227 DOTSON DR, AMES, USA",42.0208362244898,-93.6714876122449
851,908186090,142500,Edwards,"3821 MARIGOLD DR, AMES, USA",42.01896050792869,-93.66914556457004
852,916403290,187500,Timber,"2721 BURR OAK CIR, AMES, USA",41.99799866666667,-93.644516
853,528327070,327000,NoRidge,"3016 ALMOND RD, AMES, USA",42.055620175711475,-93.65117019771789
854,535453040,125900,NAmes,"1511 GLENDALE AVE, AMES, USA",42.03699233333333,-93.60600677777778
855,923276180,139000,Mitchel,"636 GARDEN RD, AMES, USA",41.988449381188026,-93.60331614523712
856,534430110,137000,NAmes,"1605 ROOSEVELT AVE, AMES, USA",42.03846308598738,-93.62270412862706
857,907187030,188000,CollgCr,"5213 CERVANTES DR, AMES, USA",42.01793884070354,-93.68915161739481
858,535383120,78500,OldTown,"1326 DOUGLAS AVE, AMES, USA",42.03524663636364,-93.61222263636363
859,902205070,46500,OldTown,"1101 MAXWELL AVE, AMES, USA",42.032131,-93.606876
860,535453100,138000,NAmes,"1411 GLENDALE AVE, AMES, USA",42.03581657575758,-93.60600425252525
861,528488100,185000,Somerst,"2520 CLAYTON DR, AMES, USA",42.05125546848755,-93.64269276238963
862,534403370,158000,NAmes,"1902 BEL AIR CIR, AMES, USA",42.04097965601346,-93.62684278990056
863,535455080,105500,NAmes,"201 E 13TH ST, AMES, USA",42.034627,-93.608814
864,535455080,105500,NAmes,"201 E 13TH ST, AMES, USA",42.034627,-93.608814
865,532479120,171000,Sawyer,"1318 WISCONSIN CIR, AMES, USA",42.03468253846154,-93.66195007692308
866,531452260,184000,SawyerW,"5103 KANSAS DR, AMES, USA",42.03763878770042,-93.68794560760955
867,528488130,187750,Somerst,"2606 CLAYTON DR, AMES, USA",42.0512234774297,-93.64365523268008
868,923229010,146800,Mitchel,"3401 SOUTHDALE DR, AMES, USA",41.99152844292028,-93.60500455620638
869,528382020,290000,NoRidge,"2913 ARROWWOOD CIR, AMES, USA",42.052652020595886,-93.65083023795216
870,914478045,169900,Mitchel,"3100 DIAMOND ST, AMES, USA",41.994589418510536,-93.60122804548455
871,535478040,130000,NAmes,"608 E 14TH ST, AMES, USA",42.035209948063226,-93.60468306987144
872,907227080,123000,CollgCr,"306 ROCKWELL AVE, AMES, USA",42.0208892,-93.68312365714286
873,532376090,143900,Sawyer,"1328 GARFIELD AVE, AMES, USA",42.03477656100864,-93.66951124378872
874,907196050,223500,CollgCr,"718 WILDER BLVD, AMES, USA",42.016592642992194,-93.68899743746088
875,907265100,207000,CollgCr,"619 POE AVE, AMES, USA",42.017270154955895,-93.6840958795833
876,528114050,440000,NridgHt,"3218 WESTON DR, AMES, USA",42.06127303702146,-93.65619674912348
877,907260030,198500,CollgCr,"5014 CLEMENS BLVD, AMES, USA",42.01696585714286,-93.68690285714285
878,905200510,149350,Sawyer,"1219 GARFIELD CIR, AMES, USA",42.0336325176661,-93.66938175037308
879,527106050,165000,Gilbert,"4009 EISENHOWER AVE, AMES, USA",42.06079867245493,-93.63774189850938
880,527325160,235000,NWAmes,"1624 BUCHANAN DR, AMES, USA",42.054181,-93.6323624
881,535403190,143500,NAmes,"217 E 16TH ST, AMES, USA",42.03834765306122,-93.60870085714285
882,907410040,203160,CollgCr,"903 POE AVE, AMES, USA",42.01427780382489,-93.68406111340154
883,531384070,191750,SawyerW,"1311 NEBRASKA AVE, AMES, USA",42.03521695575414,-93.68951234693058
884,528290170,187000,Gilbert,"2420 WELBECK DR, AMES, USA",42.05783958157351,-93.6417927062154
885,903457130,99500,IDOTRR,"108 N RUSSELL AVE, AMES, USA",42.02306402527244,-93.62823044963443
886,902402250,122500,OldTown,"818 CARROLL AVE 816, AMES, USA",42.039218,-93.609681
887,533223050,148800,Somerst,"2504 EATON AVE, AMES, USA",42.04644281340748,-93.64544654019153
888,527376090,153500,NWAmes,"1509 TRUMAN DR, AMES, USA",42.05252870596256,-93.63054914493678
889,528168040,285000,NridgHt,"3818 VALLEY VIEW RD, AMES, USA",42.058083423844494,-93.65472971810732
890,528174070,184500,NridgHt,"2904 HARRISON RD, AMES, USA",42.059247882699815,-93.64934614756156
891,527106140,195500,Gilbert,"4008 BERKSHIRE AVE, AMES, USA",42.06075994872547,-93.63873755367473
892,909281080,257500,Crawfor,"2009 CESSNA ST, AMES, USA",42.016308079544864,-93.63960037779923
893,534250410,185000,NWAmes,"2304 VAN BUREN AVE, AMES, USA",42.04472415943532,-93.6306693908486
894,907200250,160000,CollgCr,"206 SANDBURG CT, AMES, USA",42.021890285714285,-93.68760908163266
895,907200170,132500,CollgCr,"5107 SCHUBERT ST, AMES, USA",42.02139934187503,-93.68666765624916
896,527182190,212000,StoneBr,"3904 STONE BROOKE CIR, AMES, USA",42.059273306491,-93.63312500181334
897,528290090,176000,Gilbert,"3813 WELBECK DR, AMES, USA",42.05939,-93.643553
898,528228440,192000,Blmngtn,"2408 WESTWIND DR, AMES, USA",42.06241774557579,-93.64173415044885
899,905476225,130000,Edwards,"3418 WEST ST, AMES, USA",42.0248537545739,-93.66369532455674
900,907260040,192000,CollgCr,"5020 CLEMENS BLVD, AMES, USA",42.01696536734694,-93.68695036734694
901,535376090,117000,OldTown,"217 15TH ST, AMES, USA",42.037093072943854,-93.61269650911262
902,526302040,157500,NAmes,"3113 NORTHWOOD DR, AMES, USA",42.05357834520508,-93.61827582597934
903,528188160,200000,NridgHt,"3709 ASHTON DR, AMES, USA",42.0571932,-93.65061349999999
904,527451450,89000,BrDale,"1464 BRECKINRIDGE CT, AMES, USA",42.051664961514234,-93.6298432321745
905,535453150,140000,NAmes,"1422 MAXWELL AVE, AMES, USA",42.03609989665396,-93.60671648211698
906,907412020,190000,CollgCr,"4915 WALLER ST, AMES, USA",42.01395854545455,-93.6856536060606
907,907412020,190000,CollgCr,"4915 WALLER ST, AMES, USA",42.01395854545455,-93.6856536060606
908,907252220,261500,CollgCr,"4701 HEMINGWAY DR, AMES, USA",42.018855,-93.682787
909,535354260,156000,NAmes,"1424 WILSON AVE, AMES, USA",42.0382469,-93.6185178
910,910206010,68104,IDOTRR,"328 S RUSSELL AVE, AMES, USA",42.020109857142856,-93.62818671428572
911,903232030,81300,BrkSide,"1119 ROOSEVELT AVE, AMES, USA",42.03245227272727,-93.62260726262626
912,921201060,370000,Timber,"2311 COTTONWOOD RD, AMES, USA",41.993447992458734,-93.64681158483924
913,535353040,145500,NAmes,"1335 WILSON AVE, AMES, USA",42.0382469,-93.6185178
914,534427040,142000,NAmes,"804 20TH ST, AMES, USA",42.04200866666667,-93.62169166666666
915,527368020,216000,Somerst,"2738 SOMERSET DR, AMES, USA",42.049145333333335,-93.639331
916,905103110,123000,Sawyer,"4027 ROSS RD, AMES, USA",42.03239792399196,-93.67362276162545
917,528477080,254900,Somerst,"2505 KINGSTON DR, AMES, USA",42.052356,-93.64225902147986
918,903230120,79000,BrkSide,"1005 CURTISS AVE, AMES, USA",42.03141083558686,-93.62472565057041
919,906475050,180000,ClearCr,"228 PARKRIDGE CIR, AMES, USA",42.02464895423611,-93.68203606488625
920,528429070,240000,Somerst,"3220 KENT AVE, AMES, USA",42.05451639362017,-93.64210105760621
921,905426010,243000,Edwards,"3432 OAKLAND ST, AMES, USA",42.02822981289852,-93.66349395424875
922,528150080,372397,NridgHt,"4017 VALLEY VIEW RD, AMES, USA",42.05981703400088,-93.6551864675853
923,534450090,39300,BrkSide,"1501 SUMMIT AVE, AMES, USA",42.036499771402205,-93.62970391791234
924,534403440,157500,NAmes,"1924 BEL AIR DR, AMES, USA",42.04131004433642,-93.62774527117209
925,905201080,187000,Sawyer,"3425 ROSS RD, AMES, USA",42.03230660297078,-93.66484362593185
926,914476380,173000,Mitchel,"3010 TURQUOISE CIR, AMES, USA",41.9958225,-93.602322
927,533223110,139000,Somerst,"2410 EATON AVE, AMES, USA",42.046218828212254,-93.64544334040303
928,534426040,145500,NAmes,"1909 ROOSEVELT AVE, AMES, USA",42.04110597278998,-93.62338267151682
929,527358140,190000,NWAmes,"2851 MONROE DR, AMES, USA",42.0502301379245,-93.63430969696306
930,528102030,394617,NridgHt,"4221 WEMBLEY AVE, AMES, USA",42.06181159183674,-93.65861938775511
931,905107320,158900,Sawyer,"3909 ARKANSAS DR, AMES, USA",42.03156547245381,-93.67234434223374
932,528228290,174000,Blmngtn,"2409 WESTWIND DR, AMES, USA",42.062586860572075,-93.64170654972129
933,527427210,190000,NAmes,"3405 POLARIS DR, AMES, USA",42.0554806326207,-93.6244069848543
934,909100110,128000,SWISU,"109 S HYLAND AVE, AMES, USA",42.022505897959185,-93.6556846734694
935,528228415,178740,Blmngtn,"2338 WESTWIND DR, AMES, USA",42.062657645458366,-93.6404592288353
936,909281130,315000,Crawfor,"618 AGG AVE, AMES, USA",42.017082540110366,-93.6409719833404
937,907202240,163000,CollgCr,"307 SCHUBERT CIR, AMES, USA",42.0210402,-93.68444199999999
938,903400040,180500,BrkSide,"821 RIDGEWOOD AVE, AMES, USA",42.02943135849678,-93.62580581729026
939,532351060,129500,Sawyer,"4133 TORONTO ST, AMES, USA",42.03608293877551,-93.67452128571429
940,532377100,133000,Sawyer,"1305 ALABAMA LN, AMES, USA",42.03468518793098,-93.67212195721362
941,527325240,161000,NWAmes,"1502 BUCHANAN DR, AMES, USA",42.054201817523875,-93.63046370018368
942,528390210,248000,NoRidge,"3038 REDBUD CIR, AMES, USA",42.050904800001526,-93.65094213329934
943,532354150,135000,Sawyer,"4127 ONTARIO ST, AMES, USA",42.03462185714285,-93.67417240816327
944,903452025,93850,IDOTRR,"1114 N 4TH ST, AMES, USA",42.02547327808115,-93.62550722701606
945,528456240,208300,Somerst,"2847 ASPEN RD, AMES, USA",42.051244347699615,-93.64736223447908
946,534225120,142600,NAmes,"2704 MELROSE AVE, AMES, USA",42.04820777421599,-93.62460230980588
947,906382060,212999,CollgCr,"314 HARTFORD DR, AMES, USA",42.02479737104799,-93.68888958084088
948,528166060,386250,NridgHt,"3214 HARRISON RD, AMES, USA",42.05952628460094,-93.65536529707039
949,533253180,213750,Greens,"2866 TORREY PINES RD, AMES, USA",42.04217177819932,-93.64625071872993
950,528315110,315000,NoRidge,"3110 BAYBERRY RD, AMES, USA",42.05372201688925,-93.65430887943941
951,535150280,124000,NAmes,"617 20TH ST, AMES, USA",42.042162530612245,-93.61893795918367
952,902305110,150000,OldTown,"722 CLARK AVE, AMES, USA",42.02816779591837,-93.61685391836734
953,907125040,139500,CollgCr,"5419 SCHUBERT ST, AMES, USA",42.02223673469388,-93.69211408163265
954,910203020,120500,IDOTRR,"1312 S 2ND ST, AMES, USA",42.02153085714286,-93.62859538775511
955,528363020,290000,NoRidge,"3226 SUMAC CIR, AMES, USA",42.050650204081634,-93.65621279591836
956,923202025,215000,Mitchel,"3309 EMERALD DR, AMES, USA",41.99317417475513,-93.6083826859676
957,528429100,336820,Somerst,"2421 DALTON CIR, AMES, USA",42.0545344,-93.6416917
958,533236040,174000,Somerst,"2512 BRISTOL DR, AMES, USA",42.04715923663277,-93.64183001480237
959,535151110,142100,NAmes,"2102 BARR DR, AMES, USA",42.04308351145873,-93.61853604176454
960,905377020,130000,Edwards,"117 MCDONALD DR, AMES, USA",42.023239018214404,-93.6710654882045
961,903401020,184000,BrkSide,"711 RIDGEWOOD AVE, AMES, USA",42.028311429749316,-93.62558708257562
962,906230010,269500,SawyerW,"906 DELAWARE AVE, AMES, USA",42.030704995815555,-93.67974620831589
963,534479140,146500,NAmes,"1317 GRAND AVE, AMES, USA",42.03485555126173,-93.62053642728075
964,909253180,145000,SWISU,"618 STANTON AVE, AMES, USA",42.016757163265304,-93.64838344897959
965,531379030,187000,SawyerW,"5217 NEVADA CIR, AMES, USA",42.036860243728135,-93.68918278391689
966,907227090,119900,CollgCr,"300 ROCKWELL AVE, AMES, USA",42.020933,-93.683124
967,909282110,210000,Crawfor,"2018 CESSNA ST, AMES, USA",42.01601802360942,-93.6402420555802
968,528166120,412500,NridgHt,"3301 FOXLEY DR, AMES, USA",42.058667,-93.656246
969,914467050,213000,Mitchel,"607 CRYSTAL ST, AMES, USA",41.99707492449542,-93.6046475171096
970,905427140,182000,Edwards,"3209 WOODLAND ST, AMES, USA",42.026465793737074,-93.66032570849042
971,527165010,185000,Gilbert,"2018 TAYLOR CIR, AMES, USA",42.0569344489796,-93.63765912244898
972,527359050,152000,NWAmes,"2838 MONROE DR, AMES, USA",42.04983192979639,-93.63478873225071
973,535180030,135000,NAmes,"232 21ST ST, AMES, USA",42.04289140503031,-93.61287066175693
974,902427150,115500,OldTown,"425 E 6TH ST, AMES, USA",42.027112674708874,-93.60476359890073
975,905451300,121500,Edwards,"3642 STORY ST, AMES, USA",42.0241288,-93.66786760000001
976,903233100,149000,BrkSide,"1015 HARDING AVE, AMES, USA",42.03154212121212,-93.62152304040404
977,902301030,125000,OldTown,"825 CLARK AVE, AMES, USA",42.02928091836735,-93.6171027755102
978,534275010,136500,NAmes,"2127 MELROSE AVE, AMES, USA",42.04322796774737,-93.62353145339101
979,908152070,148000,Edwards,"300 WELLONS DR, AMES, USA",42.01978,-93.67514
980,905104090,125000,Sawyer,"1005 YUMA AVE, AMES, USA",42.0314912306776,-93.6770425386448
981,535375040,99800,OldTown,"1521 KELLOGG AVE, AMES, USA",42.037338285714284,-93.61408085714287
982,907202220,120000,CollgCr,"4922 SCHUBERT ST, AMES, USA",42.021082,-93.684519
983,907227050,127000,CollgCr,"324 ROCKWELL AVE, AMES, USA",42.0207578,-93.68312262857144
984,535382020,160000,OldTown,"1327 DOUGLAS AVE, AMES, USA",42.03524363636364,-93.61244363636364
985,905403060,125600,Edwards,"427 FRANKLIN AVE, AMES, USA",42.02701554963833,-93.66494477445994
986,531376090,224243,SawyerW,"5308 KANSAS DR, AMES, USA",42.037596789612756,-93.6902622220076
987,535427070,242000,NAmes,"1724 MEADOWLANE AVE, AMES, USA",42.03966656627249,-93.60412723685246
988,923228270,88250,MeadowV,"719 GARNET DR, AMES, USA",41.99170768611459,-93.60181710725479
989,528228445,191000,Blmngtn,"2412 WESTWIND DR, AMES, USA",42.062422758977426,-93.64179030054719
990,907125020,148000,CollgCr,"5407 SCHUBERT ST, AMES, USA",42.02223624489796,-93.69205469387755
991,533206060,166000,Somerst,"2809 BRISTOL DR, AMES, USA",42.04745090547442,-93.64763462609487
992,528275060,172400,Gilbert,"3817 WESTLAWN DR, AMES, USA",42.05868119250007,-93.64258983323604
993,534403290,224500,NAmes,"1700 BEL AIR DR, AMES, USA",42.039192,-93.626753
994,526351100,157000,NAmes,"3010 GROVE AVE, AMES, USA",42.05148839215905,-93.61952556769373
995,534201300,140000,NAmes,"1249 24TH ST, AMES, USA",42.04573429879347,-93.62670637526621
996,527105060,183500,Gilbert,"3907 BERKSHIRE AVE, AMES, USA",42.06002552297214,-93.63908853643554
997,904302020,80000,SWISU,"2818 OAKLAND ST, AMES, USA",42.02789525,-93.6566373245119
998,527107210,175000,Gilbert,"2023 WYNGATE DR, AMES, USA",42.0607983,-93.6364315
999,534425080,181900,NAmes,"110 HUNZIKER CIR, AMES, USA",42.04073415384615,-93.62447853846153
1000,528354110,315750,NoRidge,"3216 TUPELO CIR, AMES, USA",42.0524282721338,-93.65583139715453
1001,907290250,145000,CollgCr,"4717 TWAIN ST, AMES, USA",42.01627218093503,-93.68213896517913
1002,528480150,197000,Somerst,"2609 CLAYTON DR, AMES, USA",42.05138919534893,-93.64367262325129
1003,534427010,84900,NAmes,"904 20TH ST 906, AMES, USA",42.04199908695652,-93.62296382608696
1004,905106140,158000,Sawyer,"806 ARIZONA AVE, AMES, USA",42.02984275524341,-93.67670051724056
1005,914452120,156000,Mitchel,"418 OPAL CIR, AMES, USA",41.994200404761905,-93.60641379761904
1006,907250050,305900,CollgCr,"517 SMILEY AVE, AMES, USA",42.01843341986025,-93.68788918120902
1007,909425140,257500,Crawfor,"1033 GASKILL DR, AMES, USA",42.012967812373354,-93.64292029141716
1008,535301080,116000,NAmes,"1823 CLARK AVE, AMES, USA",42.04057529833007,-93.61727616494667
1009,534125120,143450,NWAmes,"2537 EISENHOWER AVE, AMES, USA",42.046475876124504,-93.63453451948165
1010,528186090,277500,NridgHt,"3044 BURNHAM DR, AMES, USA",42.05749057745997,-93.65221497316995
1011,533236070,200000,Somerst,"2506 BRISTOL DR, AMES, USA",42.04715826745573,-93.64177671006503
1012,903228060,105000,BrkSide,"1209 HARDING AVE, AMES, USA",42.033469265306124,-93.62156881632653
1013,528351010,755000,NoRidge,"3115 BALSAM CIR, AMES, USA",42.05198234419191,-93.65745014659079
1014,916403200,204000,Timber,"2306 RED OAK DR, AMES, USA",41.99886893356923,-93.64521998339231
1015,905401020,255000,ClearCr,"3517 OAKLAND ST, AMES, USA",42.02843489140655,-93.66520309028522
1016,535382100,156500,OldTown,"1302 KELLOGG AVE, AMES, USA",42.03469328571428,-93.61386404081634
1017,905476170,86000,Edwards,"216 FRANKLIN AVE, AMES, USA",42.024027757049986,-93.66468275786431
1018,527364030,240900,Somerst,"2723 SOMERSET DR, AMES, USA",42.04901822222222,-93.639552
1019,526355190,268000,NAmes,"2910 NORTHWOOD DR, AMES, USA",42.05032721169686,-93.61724350547
1020,916226090,244000,Timber,"2106 IRONWOOD CT, AMES, USA",42.00532228134959,-93.63972683596013
1021,533223020,155000,Somerst,"2510 EATON AVE, AMES, USA",42.046457110334835,-93.64544674443336
1022,908275300,144500,Edwards,"3330 MORNINGSIDE ST, AMES, USA",42.017729714285714,-93.66214257142856
1023,527451170,122500,BrDale,"1311 BARKLEY CT, AMES, USA",42.05184661753557,-93.62739947523752
1024,907425015,141000,CollgCr,"4714 TWAIN ST, AMES, USA",42.016108,-93.68297
1025,923276100,131000,Mitchel,"719 GARDEN RD, AMES, USA",41.98832197300109,-93.60264139470425
1026,909276010,230000,Crawfor,"400 PEARSON AVE, AMES, USA",42.018934,-93.642325
1027,528176070,320000,NridgHt,"3701 BRIDGEPORT DR, AMES, USA",42.057019,-93.655017
1028,907412080,185900,CollgCr,"4811 WALLER ST, AMES, USA",42.013667030303026,-93.68455740404039
1029,923400110,130000,Mitchel,"406 KEN MARIL RD, AMES, USA",41.98650174747475,-93.60646486868687
1030,923229100,188000,Mitchel,"603 GARNET DR, AMES, USA",41.98962778422582,-93.60444350418034
1031,903233180,127500,BrkSide,"1020 ROOSEVELT AVE, AMES, USA",42.03158218181819,-93.62236943434344
1032,528231030,188500,Gilbert,"3911 WELBECK DR, AMES, USA",42.060075151592784,-93.64407953314362
1033,909254070,200100,Crawfor,"611 ASH AVE, AMES, USA",42.0118554,-93.6456983
1034,527455060,148500,NPkVill,"1122 JOHNSON ST, AMES, USA",42.04998175832964,-93.62563247253073
1035,534478140,137000,NAmes,"803 13TH ST 805, AMES, USA",42.03465587755102,-93.6216515510204
1036,905108120,157000,Sawyer,"3827 PHOENIX ST, AMES, USA",42.03026815492553,-93.67067982634337
1037,905377130,82500,Edwards,"214 HICKORY DR, AMES, USA",42.02404937661948,-93.67240756707396
1038,905201090,168000,Sawyer,"3431 ROSS RD, AMES, USA",42.032304753713476,-93.6648772824148
1039,905480210,108000,Edwards,"3107 LINCOLN WAY, AMES, USA",42.022839469732666,-93.66007304628964
1040,534278070,177625,NAmes,"2102 FURMAN DR, AMES, USA",42.044865,-93.621618
1041,527368010,235000,Somerst,"2754 SOMERSET DR, AMES, USA",42.04927244444444,-93.639331
1042,528188090,155000,NridgHt,"3715 FARNHAM DR, AMES, USA",42.0574626,-93.6500111
1043,535180130,108000,NAmes,"223 20TH ST, AMES, USA",42.04210783827835,-93.61296405358212
1044,533210060,155000,Somerst,"2706 NORTHRIDGE PKWY, AMES, USA",42.04870900198112,-93.6451036585535
1045,527359010,175000,NWAmes,"2814 MONROE DR, AMES, USA",42.04946708384158,-93.63570856679404
1046,533130130,362500,NoRidge,"2406 RIDGETOP CIR, AMES, USA",42.04576801482544,-93.65265019942633
1047,531371050,184900,SawyerW,"5429 TENNESSEE ST, AMES, USA",42.03528752361049,-93.69198539448637
1048,535354050,135000,NAmes,"1415 CLARK AVE, AMES, USA",42.035913705822516,-93.61722920800686
1049,902106010,150000,OldTown,"622 11TH ST, AMES, USA",42.032047615808786,-93.6189605281827
1050,902106010,150000,OldTown,"622 11TH ST, AMES, USA",42.032047615808786,-93.6189605281827
1051,533213020,195000,Somerst,"2803 BRISTOL DR, AMES, USA",42.0474208778708,-93.64758041232045
1052,528456220,210000,Somerst,"2835 ASPEN RD, AMES, USA",42.051134293871904,-93.64708701903446
1053,907227290,133000,CollgCr,"301 ROCKWELL AVE, AMES, USA",42.020932,-93.683345
1054,528186010,286500,NridgHt,"3140 BURNHAM DR, AMES, USA",42.0570115625,-93.65441359375001
1055,905104240,119900,Sawyer,"803 YUMA AVE 805, AMES, USA",42.029681990232056,-93.678181195683
1056,906426090,190000,ClearCr,"4720 DOVER DR, AMES, USA",42.02829405776361,-93.68091120648329
1057,902301120,137000,OldTown,"820 WILSON AVE, AMES, USA",42.02921671428571,-93.61826257142856
1058,902101010,115000,OldTown,"518 13TH ST, AMES, USA",42.03438566183446,-93.61747530123144
1059,527450030,113500,BrDale,"1463 TRUMAN PL, AMES, USA",42.05258744001936,-93.62956220974218
1060,535175070,167500,NAmes,"2223 DUFF AVE, AMES, USA",42.04420197427004,-93.61344680244356
1061,528108070,335000,NridgHt,"3012 SEDWICK ST, AMES, USA",42.06298145483986,-93.65305565872593
1062,909281020,140000,Crawfor,"2010 KILDEE ST, AMES, USA",42.01748201059284,-93.63969278982539
1063,533213140,176000,Somerst,"2703 BRISTOL DR, AMES, USA",42.04711367213032,-93.64581029094607
1064,535302070,125000,NAmes,"1823 BURNETT AVE, AMES, USA",42.0456477,-93.6165081
1065,905480030,105000,Edwards,"3122 STORY ST, AMES, USA",42.02367542136731,-93.65978894256051
1066,907200110,130250,CollgCr,"5106 TODD DR, AMES, USA",42.02211963676932,-93.68579351117005
1067,907275030,210900,CollgCr,"4512 HEMINGWAY DR, AMES, USA",42.0187764,-93.6826174
1068,907203110,122000,CollgCr,"4923 SCHUBERT ST, AMES, USA",42.021250109225505,-93.68446798947812
1069,527127100,375000,StoneBr,"1801 WATERBURY CIR, AMES, USA",42.06313658641084,-93.63407101380041
1070,528431020,275000,Somerst,"3305 KENT AVE, AMES, USA",42.05505746261415,-93.64252197625024
1071,535379060,64500,OldTown,"1407 DOUGLAS AVE, AMES, USA",42.035887510204084,-93.61245140816327
1072,903205085,144000,BrkSide,"1010 BROOKRIDGE AVE, AMES, USA",42.03215358773583,-93.62723363218142
1073,531450120,171500,SawyerW,"1505 KENTUCKY AVE, AMES, USA",42.03653084545842,-93.68788355559666
1074,902205130,108500,OldTown,"1128 STAFFORD AVE, AMES, USA",42.032410142857145,-93.60769442857142
1075,904100140,244400,ClearCr,"2833 ROSS RD, AMES, USA",42.0334826686892,-93.6563841302438
