PID,SalePrice,Neighborhood,Prop_Addr,Latitude,Longitude,Street_name,Neighborhood_st,Street_type
909176150,126000,SWISU,"436 HAYWARD AVE, AMES, USA",42.0178137,-93.65142759999999,HAYWARD_AVE,SWISU_HAYWARD_AVE,AVE
905476230,139500,Edwards,"3416 WEST ST, AMES, USA",42.0247087,-93.6641683,WEST_ST,Edwards_WEST_ST,ST
911128020,124900,IDOTRR,"320 S 2ND ST, AMES, USA",42.0214065,-93.614914,S_2ND_ST,IDOTRR_S_2ND_ST,ST
535377150,114000,OldTown,"1524 DOUGLAS AVE, AMES, USA",42.0380884,-93.6120847,DOUGLAS_AVE,OldTown_DOUGLAS_AVE,AVE
534177230,227000,NWAmes,"2304 FILLMORE AVE, AMES, USA",42.0449,-93.6318933,FILLMORE_AVE,NWAmes_FILLMORE_AVE,AVE
908128060,198500,Edwards,"4003 MARIGOLD DR, AMES, USA",42.0191276,-93.67163300000001,MARIGOLD_DR,Edwards_MARIGOLD_DR,DR
902135020,93000,OldTown,"212 10TH ST, AMES, USA",42.0310516,-93.6128959,10TH_ST,OldTown_10TH_ST,ST
528228540,187687,Blmngtn,"2431 LAKESIDE DR, AMES, USA",42.0633944,-93.6427614,LAKESIDE_DR,Blmngtn_LAKESIDE_DR,DR
923426010,137500,Mitchel,"602 KEN MARIL RD, AMES, USA",41.9863363,-93.6036175,KEN_MARIL_RD,Mitchel_KEN_MARIL_RD,RD
908186050,140000,Edwards,"3901 MARIGOLD DR, AMES, USA",42.0190808,-93.6704046,MARIGOLD_DR,Edwards_MARIGOLD_DR,DR
528186170,219500,NridgHt,"3629 CHILTON AVE, AMES, USA",42.057112,-93.6514196,CHILTON_AVE,NridgHt_CHILTON_AVE,AVE
923426070,136000,Mitchel,"700 KEN MARIL RD, AMES, USA",41.98636219999999,-93.6021734,KEN_MARIL_RD,Mitchel_KEN_MARIL_RD,RD
902204080,80000,OldTown,"1102 CARROLL AVE, AMES, USA",42.032241,-93.6086421,CARROLL_AVE,OldTown_CARROLL_AVE,AVE
535105100,159000,NAmes,"2519 KELLOGG AVE, AMES, USA",42.0472521,-93.61593359999999,KELLOGG_AVE,NAmes_KELLOGG_AVE,AVE
907405020,214000,CollgCr,"812 TENNYSON AVE, AMES, USA",42.0157588,-93.68756139999999,TENNYSON_AVE,CollgCr_TENNYSON_AVE,AVE
531382110,163000,SawyerW,"5220 MARYLAND ST, AMES, USA",42.035743,-93.6899481,MARYLAND_ST,SawyerW_MARYLAND_ST,ST
906380120,203000,CollgCr,"319 HARTFORD DR, AMES, USA",42.0251892,-93.689414,HARTFORD_DR,CollgCr_HARTFORD_DR,DR
909101060,67000,Edwards,"2910 WOOD ST, AMES, USA",42.0219435,-93.6578284,WOOD_ST,Edwards_WOOD_ST,ST
534152050,205000,NWAmes,"2102 PRAIRIE VIEW EAST, AMES, USA",42.0427279,-93.6364656,PRAIRIE_VIEW_EAST,NWAmes_PRAIRIE_VIEW_EAST,EAST
923252075,131250,Mitchel,"424 TEAGARDEN DR, AMES, USA",41.9874181,-93.60549669999999,TEAGARDEN_DR,Mitchel_TEAGARDEN_DR,DR
531376060,181000,SawyerW,"1514 CALIFORNIA AVE, AMES, USA",42.0373615,-93.6909696,CALIFORNIA_AVE,SawyerW_CALIFORNIA_AVE,AVE
902201120,115000,OldTown,"1216 CARROLL AVE, AMES, USA",42.0338407,-93.6087163,CARROLL_AVE,OldTown_CARROLL_AVE,AVE
923228080,98000,MeadowV,"626 MEADOW PL, AMES, USA",41.99235729999999,-93.6023632,MEADOW_PL,MeadowV_MEADOW_PL,PL
902326030,265979,OldTown,"829 DOUGLAS AVE, AMES, USA",42.0299362,-93.612577,DOUGLAS_AVE,OldTown_DOUGLAS_AVE,AVE
527451330,105500,BrDale,"1342 BARKLEY CT, AMES, USA",42.05142499999999,-93.62837379999999,BARKLEY_CT,BrDale_BARKLEY_CT,CT
528218100,168165,Gilbert,"4205 CRESTMOOR AVE, AMES, USA",42.0619931,-93.6457501,CRESTMOOR_AVE,Gilbert_CRESTMOOR_AVE,AVE
916386140,201000,Timber,"3028 COTTONTAIL LN, AMES, USA",41.9943624,-93.650251,COTTONTAIL_LN,Timber_COTTONTAIL_LN,LN
533221090,177500,Somerst,"2711 HAMPTON ST, AMES, USA",42.0461999,-93.6459407,HAMPTON_ST,Somerst_HAMPTON_ST,ST
534128010,200000,NWAmes,"1636 JOHNSON ST, AMES, USA",42.0489612,-93.63292249999999,JOHNSON_ST,NWAmes_JOHNSON_ST,ST
528106110,450000,NridgHt,"3331 WESTON DR, AMES, USA",42.0614353,-93.65784819999999,WESTON_DR,NridgHt_WESTON_DR,DR
902206260,91300,OldTown,"926 DUFF AVE, AMES, USA",42.0311722,-93.61028429999999,DUFF_AVE,OldTown_DUFF_AVE,AVE
528222090,173500,Gilbert,"4302 WELBECK DR, AMES, USA",42.0632601,-93.6441465,WELBECK_DR,Gilbert_WELBECK_DR,DR
528218150,199500,Gilbert,"4103 CRESTMOOR AVE, AMES, USA",42.061763,-93.6444831,CRESTMOOR_AVE,Gilbert_CRESTMOOR_AVE,AVE
903400180,207000,BrkSide,"816 BROOKRIDGE AVE, AMES, USA",42.0294103,-93.627195,BROOKRIDGE_AVE,BrkSide_BROOKRIDGE_AVE,AVE
535453210,155000,NAmes,"1522 MAXWELL AVE, AMES, USA",42.0376592,-93.6065371,MAXWELL_AVE,NAmes_MAXWELL_AVE,AVE
916386010,220000,Timber,"3005 CEDAR LN, AMES, USA",41.99515710000001,-93.6494563,CEDAR_LN,Timber_CEDAR_LN,LN
907181090,196000,CollgCr,"5408 CERVANTES DR, AMES, USA",42.0169302,-93.692,CERVANTES_DR,CollgCr_CERVANTES_DR,DR
902206020,61500,OldTown,"118 E 11TH ST, AMES, USA",42.0318476,-93.6096908,E_11TH_ST,OldTown_E_11TH_ST,ST
527327050,195000,NWAmes,"3323 BUCHANAN CT, AMES, USA",42.0549831,-93.63177460000001,BUCHANAN_CT,NWAmes_BUCHANAN_CT,CT
527455250,129250,NAmes,"1115 28TH ST, AMES, USA",42.0488372,-93.6258371,28TH_ST,NAmes_28TH_ST,ST
528326110,291000,NoRidge,"3013 ALMOND RD, AMES, USA",42.0559073,-93.65137310000001,ALMOND_RD,NoRidge_ALMOND_RD,RD
914452190,134000,Mitchel,"302 OPAL CIR, AMES, USA",41.99400960000001,-93.60735629999999,OPAL_CIR,Mitchel_OPAL_CIR,CIR
535425060,186000,NAmes,"1903 MEADOWLANE AVE, AMES, USA",42.041387,-93.6054374,MEADOWLANE_AVE,NAmes_MEADOWLANE_AVE,AVE
532376250,133500,Sawyer,"4015 TORONTO ST, AMES, USA",42.0360605,-93.6731014,TORONTO_ST,Sawyer_TORONTO_ST,ST
535379110,148000,OldTown,"1412 KELLOGG AVE, AMES, USA",42.0362061,-93.61365339999999,KELLOGG_AVE,OldTown_KELLOGG_AVE,AVE
528118010,325300,NridgHt,"3335 PRESTON CIR, AMES, USA",42.0605784,-93.65808589999999,PRESTON_CIR,NridgHt_PRESTON_CIR,CIR
528235160,215000,Gilbert,"3908 WELBECK DR, AMES, USA",42.060362,-93.64361199999999,WELBECK_DR,Gilbert_WELBECK_DR,DR
905478030,131000,Edwards,"3218 WEST ST, AMES, USA",42.0247339,-93.6609761,WEST_ST,Edwards_WEST_ST,ST
902106130,109500,OldTown,"1010 GRAND AVE, AMES, USA",42.0315967,-93.620085,GRAND_AVE,OldTown_GRAND_AVE,AVE
902102080,110000,OldTown,"1203 BURNETT AVE, AMES, USA",42.0334395,-93.61589339999999,BURNETT_AVE,OldTown_BURNETT_AVE,AVE
909176170,150000,SWISU,"426 HAYWARD AVE, AMES, USA",42.0181435,-93.65140629999999,HAYWARD_AVE,SWISU_HAYWARD_AVE,AVE
533206070,193800,Somerst,"2807 BRISTOL DR, AMES, USA",42.04740470000001,-93.647158,BRISTOL_DR,Somerst_BRISTOL_DR,DR
527302020,178000,NWAmes,"3414 EISENHOWER AVE, AMES, USA",42.0559751,-93.6376533,EISENHOWER_AVE,NWAmes_EISENHOWER_AVE,AVE
907414060,179600,CollgCr,"4824 WALLER ST, AMES, USA",42.0135799,-93.68540879999999,WALLER_ST,CollgCr_WALLER_ST,ST
904301060,179000,Edwards,"3012 OAKLAND ST, AMES, USA",42.0279523,-93.6587049,OAKLAND_ST,Edwards_OAKLAND_ST,ST
532479020,140000,Sawyer,"1306 SCOTT CIR, AMES, USA",42.0346903,-93.66032369999999,SCOTT_CIR,Sawyer_SCOTT_CIR,CIR
528110070,395000,NridgHt,"3207 STOCKBURY ST, AMES, USA",42.0624057,-93.6562829,STOCKBURY_ST,NridgHt_STOCKBURY_ST,ST
534429130,151500,NAmes,"808 NARLAND DR, AMES, USA",42.0400002,-93.62191879999999,NARLAND_DR,NAmes_NARLAND_DR,DR
528365060,341000,NoRidge,"2900 RIDGETOP RD, AMES, USA",42.0497012,-93.6558878,RIDGETOP_RD,NoRidge_RIDGETOP_RD,RD
533135020,235000,NoRidge,"2614 SOUTHRIDGE CIR, AMES, USA",42.0473148,-93.6501653,SOUTHRIDGE_CIR,NoRidge_SOUTHRIDGE_CIR,CIR
910203100,72000,IDOTRR,"301 S RUSSELL AVE, AMES, USA",42.020356,-93.62864739999999,S_RUSSELL_AVE,IDOTRR_S_RUSSELL_AVE,AVE
905451390,154000,Edwards,"310 WESTWOOD DR, AMES, USA",42.0249815,-93.66717159999999,WESTWOOD_DR,Edwards_WESTWOOD_DR,DR
533213010,222000,Somerst,"2805 BRISTOL DR, AMES, USA",42.04734080000001,-93.6470222,BRISTOL_DR,Somerst_BRISTOL_DR,DR
528118030,390000,NridgHt,"3317 PRESTON CIR, AMES, USA",42.060601,-93.65737299999999,PRESTON_CIR,NridgHt_PRESTON_CIR,CIR
907200340,128200,CollgCr,"5203 SCHUBERT ST, AMES, USA",42.0215207,-93.6880171,SCHUBERT_ST,CollgCr_SCHUBERT_ST,ST
528164060,615000,NridgHt,"3320 FOXLEY DR, AMES, USA",42.0582794,-93.6575314,FOXLEY_DR,NridgHt_FOXLEY_DR,DR
907202010,158000,CollgCr,"410 THACKERAY AVE, AMES, USA",42.0194027,-93.6865905,THACKERAY_AVE,CollgCr_THACKERAY_AVE,AVE
528186180,254000,NridgHt,"3623 CHILTON AVE, AMES, USA",42.056956,-93.6514172,CHILTON_AVE,NridgHt_CHILTON_AVE,AVE
909250060,169000,SWISU,"2320 KNAPP ST, AMES, USA",42.0188665,-93.6473482,KNAPP_ST,SWISU_KNAPP_ST,ST
528315060,284500,NoRidge,"3142 BAYBERRY RD, AMES, USA",42.0541845,-93.65576899999999,BAYBERRY_RD,NoRidge_BAYBERRY_RD,RD
528231020,184500,Gilbert,"3917 WELBECK DR, AMES, USA",42.0607343,-93.6440475,WELBECK_DR,Gilbert_WELBECK_DR,DR
528456230,210400,Somerst,"2841 ASPEN RD, AMES, USA",42.0514954,-93.6477508,ASPEN_RD,Somerst_ASPEN_RD,RD
907180120,214000,CollgCr,"5325 CERVANTES DR, AMES, USA",42.0175616,-93.69098939999999,CERVANTES_DR,CollgCr_CERVANTES_DR,DR
911370410,392500,Crawfor,"433 ASPEN RIDGE RD, AMES, USA",42.009536,-93.616112,ASPEN_RIDGE_RD,Crawfor_ASPEN_RIDGE_RD,RD
527108090,274725,Gilbert,"4316 HARRISON CIR, AMES, USA",42.0632242,-93.63612909999999,HARRISON_CIR,Gilbert_HARRISON_CIR,CIR
528222050,156932,Gilbert,"4210 WELBECK DR, AMES, USA",42.06250660000001,-93.6441663,WELBECK_DR,Gilbert_WELBECK_DR,DR
528429110,282922,Somerst,"2416 DALTON CIR, AMES, USA",42.0539704,-93.64182679999999,DALTON_CIR,Somerst_DALTON_CIR,CIR
902328100,144000,OldTown,"704 BURNETT AVE, AMES, USA",42.0281019,-93.61517119999999,BURNETT_AVE,OldTown_BURNETT_AVE,AVE
527451410,88000,BrDale,"1314 BARKLEY CT, AMES, USA",42.0515587,-93.6275139,BARKLEY_CT,BrDale_BARKLEY_CT,CT
531477050,67500,SawyerW,None,,,None,SawyerW_None,None
914476130,148000,Mitchel,"3007 DIAMOND ST, AMES, USA",41.9957922,-93.6013777,DIAMOND_ST,Mitchel_DIAMOND_ST,ST
535453020,159000,NAmes,"1523 GLENDALE AVE, AMES, USA",42.0377486,-93.6061567,GLENDALE_AVE,NAmes_GLENDALE_AVE,AVE
535379100,120000,OldTown,"1408 KELLOGG AVE, AMES, USA",42.03604869999999,-93.6136873,KELLOGG_AVE,OldTown_KELLOGG_AVE,AVE
905108190,134900,Sawyer,"934 MESA VERDE PL, AMES, USA",42.0309136,-93.6707607,MESA_VERDE_PL,Sawyer_MESA_VERDE_PL,PL
905201110,185000,Sawyer,"1124 SCHOLL RD, AMES, USA",42.0331459,-93.66515609999999,SCHOLL_RD,Sawyer_SCHOLL_RD,RD
903227090,132500,BrkSide,"1206 MARSTON AVE, AMES, USA",42.033576,-93.623368,MARSTON_AVE,BrkSide_MARSTON_AVE,AVE
905107300,160500,Sawyer,"3902 ARKANSAS DR, AMES, USA",42.0313011,-93.67212819999999,ARKANSAS_DR,Sawyer_ARKANSAS_DR,DR
903401070,165000,BrkSide,"611 RIDGEWOOD AVE, AMES, USA",42.0272871,-93.6257184,RIDGEWOOD_AVE,BrkSide_RIDGEWOOD_AVE,AVE
903230100,100000,BrkSide,"1015 CURTISS AVE, AMES, USA",42.0318708,-93.6249268,CURTISS_AVE,BrkSide_CURTISS_AVE,AVE
527105010,189900,Gilbert,"4025 BERKSHIRE AVE, AMES, USA",42.0612335,-93.63925669999999,BERKSHIRE_AVE,Gilbert_BERKSHIRE_AVE,AVE
528480020,227875,Somerst,"2616 KINGSTON DR, AMES, USA",42.0520027,-93.64420589999999,KINGSTON_DR,Somerst_KINGSTON_DR,DR
527402130,111900,NAmes,"1217 JEFFERSON ST, AMES, USA",42.05553039999999,-93.6271032,JEFFERSON_ST,NAmes_JEFFERSON_ST,ST
909251080,145000,Crawfor,"507 LYNN AVE, AMES, USA",42.0176227,-93.64666079999999,LYNN_AVE,Crawfor_LYNN_AVE,AVE
908201120,118000,Edwards,"3411 TRIPP ST, AMES, USA",42.0202874,-93.6653077,TRIPP_ST,Edwards_TRIPP_ST,ST
533221080,166000,Somerst,"2713 HAMPTON ST, AMES, USA",42.0461974,-93.6460199,HAMPTON_ST,Somerst_HAMPTON_ST,ST
535178100,148000,NAmes,"2004 BURNETT AVE, AMES, USA",42.0423026,-93.61564609999999,BURNETT_AVE,NAmes_BURNETT_AVE,AVE
535457050,99000,NAmes,"1302 MAXWELL AVE, AMES, USA",42.0347237,-93.60654319999999,MAXWELL_AVE,NAmes_MAXWELL_AVE,AVE
923226270,86000,MeadowV,"615 MEADOW PL, AMES, USA",41.9924315,-93.6030033,MEADOW_PL,MeadowV_MEADOW_PL,PL
535105090,165000,NAmes,"2527 KELLOGG AVE, AMES, USA",42.0474443,-93.6161012,KELLOGG_AVE,NAmes_KELLOGG_AVE,AVE
533253070,211500,Greens,"2024 PINEHURST DR, AMES, USA",42.0425381,-93.649091,PINEHURST_DR,Greens_PINEHURST_DR,DR
907280170,210000,CollgCr,"4619 CLEMENS BLVD, AMES, USA",42.0181653,-93.6817957,CLEMENS_BLVD,CollgCr_CLEMENS_BLVD,BLVD
914476450,228500,Mitchel,"703 ONYX ST, AMES, USA",41.996198,-93.6025151,ONYX_ST,Mitchel_ONYX_ST,ST
535327200,132000,NAmes,"1624 DOUGLAS AVE, AMES, USA",42.0392609,-93.6120116,DOUGLAS_AVE,NAmes_DOUGLAS_AVE,AVE
528441090,468000,Somerst,"2426 YORKSHIRE CIR, AMES, USA",42.05290790000001,-93.64184,YORKSHIRE_CIR,Somerst_YORKSHIRE_CIR,CIR
906426195,240000,ClearCr,"601 CHELSEA CT, AMES, USA",42.0273795,-93.6793984,CHELSEA_CT,ClearCr_CHELSEA_CT,CT
534275170,151500,NAmes,"2009 ROOSEVELT CIR, AMES, USA",42.0425162,-93.62391699999999,ROOSEVELT_CIR,NAmes_ROOSEVELT_CIR,CIR
923226180,73000,MeadowV,"633 MEADOW PL, AMES, USA",41.9926804,-93.6021997,MEADOW_PL,MeadowV_MEADOW_PL,PL
923226320,75500,MeadowV,"605 MEADOW PL, AMES, USA",41.9923091,-93.60337310000001,MEADOW_PL,MeadowV_MEADOW_PL,PL
528118050,500067,NridgHt,"3305 PRESTON CIR, AMES, USA",42.0603523,-93.65662499999999,PRESTON_CIR,NridgHt_PRESTON_CIR,CIR
916253320,330000,GrnHill,None,,,None,GrnHill_None,None
904300150,107500,ClearCr,"3021 OAKLAND ST, AMES, USA",42.0283927,-93.65913549999999,OAKLAND_ST,ClearCr_OAKLAND_ST,ST
533236050,172500,Somerst,"2510 BRISTOL DR, AMES, USA",42.0469551,-93.6428598,BRISTOL_DR,Somerst_BRISTOL_DR,DR
527354160,185000,NWAmes,"2009 STEVENSON DR, AMES, USA",42.0526856,-93.63605,STEVENSON_DR,NWAmes_STEVENSON_DR,DR
528435040,311872,Somerst,"2604 DALTON ST, AMES, USA",42.0540009,-93.643729,DALTON_ST,Somerst_DALTON_ST,ST
534129230,165150,NWAmes,"2705 HOOVER AVE, AMES, USA",42.0481679,-93.6305276,HOOVER_AVE,NWAmes_HOOVER_AVE,AVE
535325350,125000,NAmes,"225 16TH ST, AMES, USA",42.0385094,-93.6137121,16TH_ST,NAmes_16TH_ST,ST
902408080,159500,OldTown,"508 CARROLL AVE, AMES, USA",42.0263664,-93.60830589999999,CARROLL_AVE,OldTown_CARROLL_AVE,AVE
916455050,180500,Timber,"2829 WHITE OAK DR, AMES, USA",41.9965599,-93.6470592,WHITE_OAK_DR,Timber_WHITE_OAK_DR,DR
909276200,160000,Crawfor,"418 PEARSON AVE, AMES, USA",42.0187317,-93.642147,PEARSON_AVE,Crawfor_PEARSON_AVE,AVE
534277060,109008,NAmes,"2125 FURMAN DR, AMES, USA",42.044356,-93.6215824,FURMAN_DR,NAmes_FURMAN_DR,DR
905107280,153000,Sawyer,"3914 ARKANSAS DR, AMES, USA",42.031094,-93.672564,ARKANSAS_DR,Sawyer_ARKANSAS_DR,DR
923204050,132250,Mitchel,"3309 SOUTHDALE DR, AMES, USA",41.9927622,-93.60583299999999,SOUTHDALE_DR,Mitchel_SOUTHDALE_DR,DR
531376050,184900,SawyerW,"1508 CALIFORNIA AVE, AMES, USA",42.037174,-93.6910534,CALIFORNIA_AVE,SawyerW_CALIFORNIA_AVE,AVE
903454010,127000,IDOTRR,"1218 N 3RD ST, AMES, USA",42.02501609999999,-93.62775979999999,N_3RD_ST,IDOTRR_N_3RD_ST,ST
906412010,475000,CollgCr,"532 WESTFIELD RD, AMES, USA",42.0278411,-93.6873038,WESTFIELD_RD,CollgCr_WESTFIELD_RD,RD
535301060,142000,NAmes,"1907 CLARK AVE, AMES, USA",42.041409,-93.6174788,CLARK_AVE,NAmes_CLARK_AVE,AVE
534453080,112000,BrkSide,"1430 RIDGEWOOD AVE, AMES, USA",42.0366226,-93.62869760000001,RIDGEWOOD_AVE,BrkSide_RIDGEWOOD_AVE,AVE
911102180,80900,IDOTRR,"202 S WALNUT AVE, AMES, USA",42.021469,-93.61661559999999,S_WALNUT_AVE,IDOTRR_S_WALNUT_AVE,AVE
535403210,135000,NAmes,"1604 CARROLL AVE, AMES, USA",42.0384383,-93.6087293,CARROLL_AVE,NAmes_CARROLL_AVE,AVE
531382120,193500,SawyerW,"5214 MARYLAND ST, AMES, USA",42.0356951,-93.6896866,MARYLAND_ST,SawyerW_MARYLAND_ST,ST
916455120,232500,Timber,"2311 SUNCREST DR, AMES, USA",41.9956317,-93.6474156,SUNCREST_DR,Timber_SUNCREST_DR,DR
905475510,114000,Edwards,"310 COLORADO CIR, AMES, USA",42.02560039999999,-93.66329069999999,COLORADO_CIR,Edwards_COLORADO_CIR,CIR
916326090,257000,Timber,"2320 TIMBERLAND RD, AMES, USA",42.0004328,-93.6494525,TIMBERLAND_RD,Timber_TIMBERLAND_RD,RD
909101140,117000,Edwards,"2812 WOOD ST, AMES, USA",42.02195280000001,-93.656182,WOOD_ST,Edwards_WOOD_ST,ST
907260050,213000,CollgCr,"5110 CLEMENS BLVD, AMES, USA",42.0168081,-93.6879775,CLEMENS_BLVD,CollgCr_CLEMENS_BLVD,BLVD
907131090,212000,CollgCr,"5300 NORRIS ST, AMES, USA",42.020642,-93.6901175,NORRIS_ST,CollgCr_NORRIS_ST,ST
903206160,202500,BrkSide,"910 BROOKRIDGE AVE, AMES, USA",42.0309099,-93.6272224,BROOKRIDGE_AVE,BrkSide_BROOKRIDGE_AVE,AVE
528222020,185101,Gilbert,"4116 WELBECK DR, AMES, USA",42.0619711,-93.64400789999999,WELBECK_DR,Gilbert_WELBECK_DR,DR
526352090,167000,NAmes,"3010 KELLOGG AVE, AMES, USA",42.05193420000001,-93.6182382,KELLOGG_AVE,NAmes_KELLOGG_AVE,AVE
534201280,138500,NAmes,"1237 24TH ST, AMES, USA",42.0458471,-93.62752239999999,24TH_ST,NAmes_24TH_ST,ST
908102330,102000,Edwards,"301 ABRAHAM DR, AMES, USA",42.0197609,-93.67660509999999,ABRAHAM_DR,Edwards_ABRAHAM_DR,DR
906385010,198900,CollgCr,"5505 DURANT ST, AMES, USA",42.024786,-93.692218,DURANT_ST,CollgCr_DURANT_ST,ST
534276230,145000,NAmes,"2002 MELROSE AVE, AMES, USA",42.0422738,-93.62201739999999,MELROSE_AVE,NAmes_MELROSE_AVE,AVE
906420020,220000,SawyerW,"923 VERMONT CIR, AMES, USA",42.0301319,-93.68215599999999,VERMONT_CIR,SawyerW_VERMONT_CIR,CIR
527404120,126000,NAmes,"3203 GARNER AVE, AMES, USA",42.05353969999999,-93.62734119999999,GARNER_AVE,NAmes_GARNER_AVE,AVE
907192010,200000,CollgCr,"5301 CLEMENS BLVD, AMES, USA",42.01698529999999,-93.6896816,CLEMENS_BLVD,CollgCr_CLEMENS_BLVD,BLVD
527131030,278000,StoneBr,"4239 STONE BROOKE RD, AMES, USA",42.06215660000001,-93.6344654,STONE_BROOKE_RD,StoneBr_STONE_BROOKE_RD,RD
527452290,145000,NAmes,"1401 JOHNSON ST, AMES, USA",42.0490763,-93.629258,JOHNSON_ST,NAmes_JOHNSON_ST,ST
907250030,318000,CollgCr,"509 SMILEY AVE, AMES, USA",42.0181286,-93.6881011,SMILEY_AVE,CollgCr_SMILEY_AVE,AVE
909251040,146500,Crawfor,"2322 BAKER ST, AMES, USA",42.01775079999999,-93.64749259999999,BAKER_ST,Crawfor_BAKER_ST,ST
535377100,86900,OldTown,"1502 DOUGLAS AVE, AMES, USA",42.0372199,-93.6120649,DOUGLAS_AVE,OldTown_DOUGLAS_AVE,AVE
528174050,213000,NridgHt,"2910 HARRISON RD, AMES, USA",42.0589574,-93.65018409999999,HARRISON_RD,NridgHt_HARRISON_RD,RD
533128090,262000,NoRidge,"2700 NORTHRIDGE CIR, AMES, USA",42.0480897,-93.6500861,NORTHRIDGE_CIR,NoRidge_NORTHRIDGE_CIR,CIR
533250110,217500,Veenker,"2869 GREENSBORO CIR, AMES, USA",42.0451331,-93.6490399,GREENSBORO_CIR,Veenker_GREENSBORO_CIR,CIR
908186040,148000,Edwards,"3905 MARIGOLD DR, AMES, USA",42.0190809,-93.67050719999999,MARIGOLD_DR,Edwards_MARIGOLD_DR,DR
903231050,113000,BrkSide,"1113 MARSTON AVE, AMES, USA",42.0325624,-93.6238185,MARSTON_AVE,BrkSide_MARSTON_AVE,AVE
908152110,160500,Edwards,"414 WELLONS DR, AMES, USA",42.0188084,-93.6749895,WELLONS_DR,Edwards_WELLONS_DR,DR
535476110,145000,NAmes,"1603 MEADOWLANE AVE, AMES, USA",42.0383204,-93.6041266,MEADOWLANE_AVE,NAmes_MEADOWLANE_AVE,AVE
533250050,245500,Veenker,"2845 GREENSBORO CIR, AMES, USA",42.0448224,-93.64784329999999,GREENSBORO_CIR,Veenker_GREENSBORO_CIR,CIR
535325340,133500,NAmes,"221 16TH ST, AMES, USA",42.0385117,-93.6135097,16TH_ST,NAmes_16TH_ST,ST
909475050,198000,Crawfor,"2152 ASHMORE DR, AMES, USA",42.0106706,-93.6437876,ASHMORE_DR,Crawfor_ASHMORE_DR,DR
907196020,205000,CollgCr,"5216 CLEMENS BLVD, AMES, USA",42.0167228,-93.6888295,CLEMENS_BLVD,CollgCr_CLEMENS_BLVD,BLVD
533130160,285000,NoRidge,"2424 RIDGETOP CIR, AMES, USA",42.0461746,-93.6514127,RIDGETOP_CIR,NoRidge_RIDGETOP_CIR,CIR
535102010,175000,NAmes,"2729 NORTHWOOD DR, AMES, USA",42.0493199,-93.61763210000001,NORTHWOOD_DR,NAmes_NORTHWOOD_DR,DR
531475220,160000,SawyerW,"1404 IDAHO AVE, AMES, USA",42.0355174,-93.68372219999999,IDAHO_AVE,SawyerW_IDAHO_AVE,AVE
527325070,272000,NWAmes,"1904 BUCHANAN DR, AMES, USA",42.0544907,-93.6351394,BUCHANAN_DR,NWAmes_BUCHANAN_DR,DR
911175440,115000,IDOTRR,"315 S 4TH ST, AMES, USA",42.0191874,-93.61439519999999,S_4TH_ST,IDOTRR_S_4TH_ST,ST
903226160,134000,BrkSide,"1222 CURTISS AVE, AMES, USA",42.0340841,-93.6244337,CURTISS_AVE,BrkSide_CURTISS_AVE,AVE
902134100,78000,OldTown,"321 9TH ST, AMES, USA",42.0303663,-93.6150327,9TH_ST,OldTown_9TH_ST,ST
902111010,111500,OldTown,"412 10TH ST, AMES, USA",42.0310955,-93.6164178,10TH_ST,OldTown_10TH_ST,ST
535381040,142900,OldTown,"1311 KELLOGG AVE, AMES, USA",42.03506429999999,-93.6142809,KELLOGG_AVE,OldTown_KELLOGG_AVE,AVE
910202060,125500,IDOTRR,"109 S MAPLE AVE, AMES, USA",42.0223878,-93.6254809,S_MAPLE_AVE,IDOTRR_S_MAPLE_AVE,AVE
535477180,125500,NAmes,"1308 MEADOWLANE AVE, AMES, USA",42.034977,-93.6035186,MEADOWLANE_AVE,NAmes_MEADOWLANE_AVE,AVE
528429120,423000,Somerst,"2422 DALTON CIR, AMES, USA",42.0539988,-93.64153329999999,DALTON_CIR,Somerst_DALTON_CIR,CIR
908127050,119900,Edwards,"211 DOTSON DR, AMES, USA",42.0206676,-93.6716896,DOTSON_DR,Edwards_DOTSON_DR,DR
528439010,247000,Somerst,"2625 YORKSHIRE ST, AMES, USA",42.0533457,-93.6445622,YORKSHIRE_ST,Somerst_YORKSHIRE_ST,ST
906223110,226500,SawyerW,"1018 VERMONT CT, AMES, USA",42.0314731,-93.68185509999999,VERMONT_CT,SawyerW_VERMONT_CT,CT
528358010,260400,NoRidge,"3127 ASPEN RD, AMES, USA",42.0515811,-93.6551659,ASPEN_RD,NoRidge_ASPEN_RD,RD
532378160,135000,Sawyer,"3815 ONTARIO ST, AMES, USA",42.0347535,-93.67046429999999,ONTARIO_ST,Sawyer_ONTARIO_ST,ST
531450040,175900,SawyerW,"1309 KENTUCKY AVE, AMES, USA",42.0348862,-93.68805669999999,KENTUCKY_AVE,SawyerW_KENTUCKY_AVE,AVE
527326040,82500,NWAmes,"3412 TAFT AVE, AMES, USA",42.05543429999999,-93.63494,TAFT_AVE,NWAmes_TAFT_AVE,AVE
903204095,79500,BrkSide,"1209 NORTHWESTERN AVE, AMES, USA",42.03369259999999,-93.6259558,NORTHWESTERN_AVE,BrkSide_NORTHWESTERN_AVE,AVE
527182170,207500,StoneBr,"3908 STONE BROOKE CIR, AMES, USA",42.0595273,-93.63269509999999,STONE_BROOKE_CIR,StoneBr_STONE_BROOKE_CIR,CIR
905105040,115000,Sawyer,"1001 ARIZONA AVE, AMES, USA",42.0313766,-93.67581270000001,ARIZONA_AVE,Sawyer_ARIZONA_AVE,AVE
528477020,249700,Somerst,"2617 KINGSTON DR, AMES, USA",42.052378,-93.6442218,KINGSTON_DR,Somerst_KINGSTON_DR,DR
905202210,164000,ClearCr,"3616 ROSS RD, AMES, USA",42.0320284,-93.6674932,ROSS_RD,ClearCr_ROSS_RD,RD
903425190,220000,OldTown,"609 NORTHWESTERN AVE, AMES, USA",42.0272473,-93.62330399999999,NORTHWESTERN_AVE,OldTown_NORTHWESTERN_AVE,AVE
535150210,135000,NAmes,"2013 CLARK AVE, AMES, USA",42.0424967,-93.6175252,CLARK_AVE,NAmes_CLARK_AVE,AVE
535453160,133700,NAmes,"1426 MAXWELL AVE, AMES, USA",42.0366881,-93.6066015,MAXWELL_AVE,NAmes_MAXWELL_AVE,AVE
535353130,112500,OldTown,"625 13TH ST, AMES, USA",42.0347383,-93.6197423,13TH_ST,OldTown_13TH_ST,ST
535456070,150000,NAmes,"1308 STAFFORD AVE, AMES, USA",42.0348992,-93.60763589999999,STAFFORD_AVE,NAmes_STAFFORD_AVE,AVE
908250090,99000,Edwards,"3505 COY ST, AMES, USA",42.0180638,-93.66656929999999,COY_ST,Edwards_COY_ST,ST
527452070,146300,NPkVill,"2951 NORTHWESTERN AVE, AMES, USA",42.0505533,-93.6274511,NORTHWESTERN_AVE,NPkVill_NORTHWESTERN_AVE,AVE
902325100,155000,OldTown,"802 BURNETT AVE, AMES, USA",42.029109,-93.6150933,BURNETT_AVE,OldTown_BURNETT_AVE,AVE
921126030,298751,Timber,"3217 RED FOX RD, AMES, USA",41.9927551,-93.65356360000001,RED_FOX_RD,Timber_RED_FOX_RD,RD
905401060,256000,ClearCr,"519 OLIVER CIR, AMES, USA",42.029697,-93.6667329,OLIVER_CIR,ClearCr_OLIVER_CIR,CIR
916402125,176000,Timber,"2513 WHITE OAK DR, AMES, USA",41.9996225,-93.6463962,WHITE_OAK_DR,Timber_WHITE_OAK_DR,DR
531452010,120000,SawyerW,"1302 INDIANA AVE, AMES, USA",42.0348184,-93.6859782,INDIANA_AVE,SawyerW_INDIANA_AVE,AVE
528363070,321000,NoRidge,"3202 ASPEN RD, AMES, USA",42.0508698,-93.655571,ASPEN_RD,NoRidge_ASPEN_RD,RD
533208090,190000,Somerst,"2732 NORTHRIDGE LN, AMES, USA",42.0475891,-93.6462626,NORTHRIDGE_LN,Somerst_NORTHRIDGE_LN,LN
534401130,174900,NAmes,"1317 COOLIDGE DR, AMES, USA",42.0392363,-93.62777659999999,COOLIDGE_DR,NAmes_COOLIDGE_DR,DR
910203230,85000,IDOTRR,"304 S RIVERSIDE DR, AMES, USA",42.0202179,-93.6292165,S_RIVERSIDE_DR,IDOTRR_S_RIVERSIDE_DR,DR
907420090,164990,CollgCr,"922 POE AVE, AMES, USA",42.0140059,-93.6837769,POE_AVE,CollgCr_POE_AVE,AVE
902303100,144100,OldTown,"609 7TH ST, AMES, USA",42.0280648,-93.61881199999999,7TH_ST,OldTown_7TH_ST,ST
906392120,294900,CollgCr,"125 HARTFORD DR, AMES, USA",42.0237346,-93.6894636,HARTFORD_DR,CollgCr_HARTFORD_DR,DR
903484080,50000,IDOTRR,"1003 LINCOLN WAY, AMES, USA",42.0230933,-93.6239373,LINCOLN_WAY,IDOTRR_LINCOLN_WAY,WAY
527301320,260000,NWAmes,"3217 EISENHOWER AVE, AMES, USA",42.0541281,-93.637478,EISENHOWER_AVE,NWAmes_EISENHOWER_AVE,AVE
527140090,180000,StoneBr,"4029 FLETCHER BLVD, AMES, USA",42.0609321,-93.6341808,FLETCHER_BLVD,StoneBr_FLETCHER_BLVD,BLVD
909428170,236500,Crawfor,"2117 GREENBRIAR CIR, AMES, USA",42.0127932,-93.641751,GREENBRIAR_CIR,Crawfor_GREENBRIAR_CIR,CIR
905228050,63900,Sawyer,"1101 IOWA AVE, AMES, USA",42.0327686,-93.6597433,IOWA_AVE,Sawyer_IOWA_AVE,AVE
533234020,223000,Somerst,"2517 SHERWOOD AVE, AMES, USA",42.0468442,-93.6436912,SHERWOOD_AVE,Somerst_SHERWOOD_AVE,AVE
533212100,151000,Somerst,"2611 STANGE RD, AMES, USA",42.0474829,-93.64517149999999,STANGE_RD,Somerst_STANGE_RD,RD
534475185,149500,NAmes,"1306 NORTHWESTERN AVE, AMES, USA",42.0350409,-93.6254611,NORTHWESTERN_AVE,NAmes_NORTHWESTERN_AVE,AVE
905452150,149900,Edwards,"318 CRANE AVE, AMES, USA",42.0254914,-93.66592849999999,CRANE_AVE,Edwards_CRANE_AVE,AVE
528176010,500000,NridgHt,"3807 BRIDGEPORT DR, AMES, USA",42.0580082,-93.65634320000001,BRIDGEPORT_DR,NridgHt_BRIDGEPORT_DR,DR
535450160,92900,NAmes,"1401 CARROLL AVE, AMES, USA",42.0358724,-93.6092838,CARROLL_AVE,NAmes_CARROLL_AVE,AVE
533215040,290000,Somerst,"2505 BRADFORD DR, AMES, USA",42.0465373,-93.6470914,BRADFORD_DR,Somerst_BRADFORD_DR,DR
528104010,345474,NridgHt,"3131 SEDWICK ST, AMES, USA",42.0632732,-93.65557570000001,SEDWICK_ST,NridgHt_SEDWICK_ST,ST
535325090,127000,NAmes,"1719 DOUGLAS AVE, AMES, USA",42.0400141,-93.61265709999999,DOUGLAS_AVE,NAmes_DOUGLAS_AVE,AVE
909250210,102000,SWISU,"424 STANTON AVE, AMES, USA",42.0182619,-93.6482954,STANTON_AVE,SWISU_STANTON_AVE,AVE
527325110,190000,NWAmes,"1802 BUCHANAN DR, AMES, USA",42.0549343,-93.633932,BUCHANAN_DR,NWAmes_BUCHANAN_DR,DR
910202030,75200,IDOTRR,"1108 LINCOLN WAY, AMES, USA",42.0226906,-93.6255968,LINCOLN_WAY,IDOTRR_LINCOLN_WAY,WAY
535175180,108538,NAmes,"2304 KELLOGG AVE, AMES, USA",42.045041,-93.6151515,KELLOGG_AVE,NAmes_KELLOGG_AVE,AVE
534202160,142250,NAmes,"1217 25TH ST, AMES, USA",42.0466913,-93.6267633,25TH_ST,NAmes_25TH_ST,ST
916403020,180000,Timber,"2722 WHITE OAK CIR, AMES, USA",41.9976078,-93.64612609999999,WHITE_OAK_CIR,Timber_WHITE_OAK_CIR,CIR
535354100,132000,NAmes,"1323 CLARK AVE, AMES, USA",42.0354207,-93.6174289,CLARK_AVE,NAmes_CLARK_AVE,AVE
905227050,152400,Sawyer,"1202 SCOTT AVE, AMES, USA",42.0336499,-93.6603592,SCOTT_AVE,Sawyer_SCOTT_AVE,AVE
534451020,64000,BrkSide,"1423 RIDGEWOOD AVE, AMES, USA",42.0364391,-93.6291591,RIDGEWOOD_AVE,BrkSide_RIDGEWOOD_AVE,AVE
533120030,302000,NoRidge,"3118 MAPLEWOOD RD, AMES, USA",42.0475031,-93.653967,MAPLEWOOD_RD,NoRidge_MAPLEWOOD_RD,RD
905352010,182000,ClearCr,"200 TRAIL RIDGE RD, AMES, USA",42.0238627,-93.67399019999999,TRAIL_RIDGE_RD,ClearCr_TRAIL_RIDGE_RD,RD
905108220,137000,Sawyer,"1008 MESA VERDE PL, AMES, USA",42.0314064,-93.67107200000001,MESA_VERDE_PL,Sawyer_MESA_VERDE_PL,PL
527165170,168000,Gilbert,"3715 COLUMBINE CIR, AMES, USA",42.05754719999999,-93.6361687,COLUMBINE_CIR,Gilbert_COLUMBINE_CIR,CIR
535353190,97500,NAmes,"1404 GRAND AVE, AMES, USA",42.0358017,-93.62008999999999,GRAND_AVE,NAmes_GRAND_AVE,AVE
528315070,286000,NoRidge,"3136 BAYBERRY RD, AMES, USA",42.0540202,-93.65547199999999,BAYBERRY_RD,NoRidge_BAYBERRY_RD,RD
903232060,115000,BrkSide,"1109 ROOSEVELT AVE, AMES, USA",42.0324403,-93.6227895,ROOSEVELT_AVE,BrkSide_ROOSEVELT_AVE,AVE
906204180,209000,SawyerW,"1124 IDAHO AVE, AMES, USA",42.0326712,-93.6830438,IDAHO_AVE,SawyerW_IDAHO_AVE,AVE
906475110,187500,ClearCr,"215 PARKRIDGE CIR, AMES, USA",42.0247475,-93.6824146,PARKRIDGE_CIR,ClearCr_PARKRIDGE_CIR,CIR
906223040,220000,SawyerW,"1017 FLORIDA AVE, AMES, USA",42.0314136,-93.6813004,FLORIDA_AVE,SawyerW_FLORIDA_AVE,AVE
909253190,91000,SWISU,"612 STANTON AVE, AMES, USA",42.016574,-93.64822889999999,STANTON_AVE,SWISU_STANTON_AVE,AVE
923400150,93500,Mitchel,"428 KEN MARIL RD, AMES, USA",41.9863741,-93.60549669999999,KEN_MARIL_RD,Mitchel_KEN_MARIL_RD,RD
923226290,79400,MeadowV,"611 MEADOW PL, AMES, USA",41.9923115,-93.60329399999999,MEADOW_PL,MeadowV_MEADOW_PL,PL
909282020,259500,Crawfor,"2124 COUNTRY CLUB BLVD, AMES, USA",42.01563,-93.64280169999999,COUNTRY_CLUB_BLVD,Crawfor_COUNTRY_CLUB_BLVD,BLVD
528110110,417500,NridgHt,"3323 STOCKBURY ST, AMES, USA",42.0623645,-93.657769,STOCKBURY_ST,NridgHt_STOCKBURY_ST,ST
534479320,132000,NAmes,"1526 HARDING AVE, AMES, USA",42.0379283,-93.6212391,HARDING_AVE,NAmes_HARDING_AVE,AVE
528150110,342000,NridgHt,"3215 HARRISON RD, AMES, USA",42.0597096,-93.656264,HARRISON_RD,NridgHt_HARRISON_RD,RD
906380160,194000,CollgCr,"5321 DURANT ST, AMES, USA",42.02479599999999,-93.6900977,DURANT_ST,CollgCr_DURANT_ST,ST
911370460,235000,Crawfor,"415 ASPEN RIDGE RD, AMES, USA",42.009569,-93.61520999999999,ASPEN_RIDGE_RD,Crawfor_ASPEN_RIDGE_RD,RD
535477090,136870,NAmes,"1434 MEADOWLANE AVE, AMES, USA",42.0366047,-93.60349099999999,MEADOWLANE_AVE,NAmes_MEADOWLANE_AVE,AVE
534478230,147000,NAmes,"1428 ROOSEVELT AVE, AMES, USA",42.0367817,-93.6223145,ROOSEVELT_AVE,NAmes_ROOSEVELT_AVE,AVE
906426060,277000,ClearCr,"4813 DOVER DR, AMES, USA",42.0278708,-93.6833609,DOVER_DR,ClearCr_DOVER_DR,DR
528235190,201490,Gilbert,"4004 WELBECK DR, AMES, USA",42.0609063,-93.6434932,WELBECK_DR,Gilbert_WELBECK_DR,DR
923225440,85000,MeadowV,"535 MEADOW CT, AMES, USA",41.9920025,-93.604478,MEADOW_CT,MeadowV_MEADOW_CT,CT
923276030,149900,Mitchel,"615 GARDEN RD, AMES, USA",41.9889426,-93.6035431,GARDEN_RD,Mitchel_GARDEN_RD,RD
909425060,174500,Crawfor,"915 GASKILL DR, AMES, USA",42.0143732,-93.6431563,GASKILL_DR,Crawfor_GASKILL_DR,DR
902332030,133900,OldTown,"621 DOUGLAS AVE, AMES, USA",42.0277858,-93.6124583,DOUGLAS_AVE,OldTown_DOUGLAS_AVE,AVE
528188060,173000,NridgHt,"3716 ASHTON DR, AMES, USA",42.0574435,-93.6501686,ASHTON_DR,NridgHt_ASHTON_DR,DR
527105140,225000,Gilbert,"4012 HYDE AVE, AMES, USA",42.0612881,-93.6399694,HYDE_AVE,Gilbert_HYDE_AVE,AVE
535477150,109500,NAmes,"1402 MEADOWLANE AVE, AMES, USA",42.0354997,-93.60352569999999,MEADOWLANE_AVE,NAmes_MEADOWLANE_AVE,AVE
535327210,159000,NAmes,"1704 DOUGLAS AVE, AMES, USA",42.039464,-93.61194619999999,DOUGLAS_AVE,NAmes_DOUGLAS_AVE,AVE
533213070,179400,Somerst,"2717 BRISTOL DR, AMES, USA",42.0471465,-93.64641329999999,BRISTOL_DR,Somerst_BRISTOL_DR,DR
904100100,219000,Sawyer,"1215 HYLAND AVE, AMES, USA",42.034016,-93.6560071,HYLAND_AVE,Sawyer_HYLAND_AVE,AVE
528188120,175500,NridgHt,"3702 CHILTON AVE, AMES, USA",42.0570917,-93.65086219999999,CHILTON_AVE,NridgHt_CHILTON_AVE,AVE
528480180,261329,Somerst,"2625 CLAYTON DR, AMES, USA",42.05150039999999,-93.64455509999999,CLAYTON_DR,Somerst_CLAYTON_DR,DR
528114040,383000,NridgHt,"3310 WESTON DR, AMES, USA",42.0609956,-93.6569663,WESTON_DR,NridgHt_WESTON_DR,DR
528235020,179000,Gilbert,"4005 BRICKMAN AVE, AMES, USA",42.06113810000001,-93.64287949999999,BRICKMAN_AVE,Gilbert_BRICKMAN_AVE,AVE
908275110,103500,Edwards,"246 S FRANKLIN AVE, AMES, USA",42.0193549,-93.66450250000001,S_FRANKLIN_AVE,Edwards_S_FRANKLIN_AVE,AVE
905103140,164500,Sawyer,"4107 ROSS RD, AMES, USA",42.0323857,-93.6747886,ROSS_RD,Sawyer_ROSS_RD,RD
902402260,55000,OldTown,"822 CARROLL AVE, AMES, USA",42.029713,-93.60838199999999,CARROLL_AVE,OldTown_CARROLL_AVE,AVE
528235200,170000,Gilbert,"4010 WELBECK DR, AMES, USA",42.0610981,-93.6435328,WELBECK_DR,Gilbert_WELBECK_DR,DR
528181060,209500,NridgHt,"2908 ROXBORO DR, AMES, USA",42.0580228,-93.6498969,ROXBORO_DR,NridgHt_ROXBORO_DR,DR
923275200,124500,Mitchel,"3827 MINNETONKA AVE, AMES, USA",41.9877585,-93.6051209,MINNETONKA_AVE,Mitchel_MINNETONKA_AVE,AVE
903451110,139400,IDOTRR,"318 N RUSSELL AVE, AMES, USA",42.0258624,-93.6280961,N_RUSSELL_AVE,IDOTRR_N_RUSSELL_AVE,AVE
528181040,202665,NridgHt,"2914 ROXBORO DR, AMES, USA",42.058037,-93.6502301,ROXBORO_DR,NridgHt_ROXBORO_DR,DR
908102110,155891,Edwards,"4404 TODD DR, AMES, USA",42.0210379,-93.6777541,TODD_DR,Edwards_TODD_DR,DR
533217050,160000,Somerst,"2710 BRISTOL DR, AMES, USA",42.04688590000001,-93.6461368,BRISTOL_DR,Somerst_BRISTOL_DR,DR
533350090,150000,Veenker,"1712 AMHERST DR, AMES, USA",42.0375175,-93.6570561,AMHERST_DR,Veenker_AMHERST_DR,DR
528445070,221300,Somerst,"2518 YORKSHIRE ST, AMES, USA",42.052944,-93.6429483,YORKSHIRE_ST,Somerst_YORKSHIRE_ST,ST
527212040,361919,StoneBr,"4020 EDGEWATER DR, AMES, USA",42.06087489999999,-93.6286078,EDGEWATER_DR,StoneBr_EDGEWATER_DR,DR
907200270,134900,CollgCr,"112 SANDBURG CT, AMES, USA",42.0222688,-93.6873663,SANDBURG_CT,CollgCr_SANDBURG_CT,CT
908201040,118000,Edwards,"117 S FRANKLIN AVE, AMES, USA",42.0221335,-93.6650598,S_FRANKLIN_AVE,Edwards_S_FRANKLIN_AVE,AVE
907410100,195800,CollgCr,"809 POE AVE, AMES, USA",42.0157932,-93.68407409999999,POE_AVE,CollgCr_POE_AVE,AVE
903481120,135000,IDOTRR,"1027 N 2ND ST, AMES, USA",42.0242614,-93.6250558,N_2ND_ST,IDOTRR_N_2ND_ST,ST
535453180,152000,NAmes,"1506 MAXWELL AVE, AMES, USA",42.037094,-93.6066149,MAXWELL_AVE,NAmes_MAXWELL_AVE,AVE
907227110,133900,CollgCr,"212 ROCKWELL AVE, AMES, USA",42.02132690000001,-93.68296819999999,ROCKWELL_AVE,CollgCr_ROCKWELL_AVE,AVE
531453010,152000,SawyerW,"1304 ILLINOIS AVE, AMES, USA",42.0347705,-93.68484760000001,ILLINOIS_AVE,SawyerW_ILLINOIS_AVE,AVE
531478010,107000,SawyerW,"4712 TORONTO ST, AMES, USA",42.035599,-93.68231109999999,TORONTO_ST,SawyerW_TORONTO_ST,ST
535403200,120000,NAmes,"211 E 16TH ST, AMES, USA",42.0384468,-93.6084166,E_16TH_ST,NAmes_E_16TH_ST,ST
527254020,372500,StoneBr,"1214 ADAMS ST, AMES, USA",42.0596555,-93.62870679999999,ADAMS_ST,StoneBr_ADAMS_ST,ST
527366030,220000,Somerst,"2818 SOMERSET DR, AMES, USA",42.0503643,-93.6392369,SOMERSET_DR,Somerst_SOMERSET_DR,DR
535325460,167000,NAmes,"1704 BURNETT AVE, AMES, USA",42.0396113,-93.6152504,BURNETT_AVE,NAmes_BURNETT_AVE,AVE
528110040,479069,NridgHt,"3308 SEDWICK ST, AMES, USA",42.0628095,-93.65705530000001,SEDWICK_ST,NridgHt_SEDWICK_ST,ST
906392090,233555,CollgCr,"215 HARTFORD DR, AMES, USA",42.0243442,-93.68945289999999,HARTFORD_DR,CollgCr_HARTFORD_DR,DR
535452140,118900,NAmes,"1402 STAFFORD AVE, AMES, USA",42.0358898,-93.6076729,STAFFORD_AVE,NAmes_STAFFORD_AVE,AVE
535151160,140000,NAmes,"2204 BARR DR, AMES, USA",42.0440557,-93.61946499999999,BARR_DR,NAmes_BARR_DR,DR
535456050,130000,NAmes,"313 E 13TH ST, AMES, USA",42.0347409,-93.6071121,E_13TH_ST,NAmes_E_13TH_ST,ST
903429110,179900,OldTown,"716 HODGE AVE, AMES, USA",42.0284487,-93.6213449,HODGE_AVE,OldTown_HODGE_AVE,AVE
916455150,282000,Timber,"2329 SUNCREST DR, AMES, USA",41.9956088,-93.64827419999999,SUNCREST_DR,Timber_SUNCREST_DR,DR
909425180,217500,Crawfor,"1036 ASH AVE, AMES, USA",42.012437,-93.6439676,ASH_AVE,Crawfor_ASH_AVE,AVE
528175050,212500,NridgHt,"2907 ROXBORO DR, AMES, USA",42.0585305,-93.6498456,ROXBORO_DR,NridgHt_ROXBORO_DR,DR
910205010,126000,IDOTRR,"1110 S 2ND ST, AMES, USA",42.02140929999999,-93.62587669999999,S_2ND_ST,IDOTRR_S_2ND_ST,ST
533206020,280750,Somerst,"2819 BRISTOL DR, AMES, USA",42.0477902,-93.64763529999999,BRISTOL_DR,Somerst_BRISTOL_DR,DR
902427040,87000,OldTown,"418 E 6TH ST, AMES, USA",42.0268162,-93.6047703,E_6TH_ST,OldTown_E_6TH_ST,ST
528427020,244600,Somerst,"3211 CULLEN DR, AMES, USA",42.0546078,-93.6443778,CULLEN_DR,Somerst_CULLEN_DR,DR
528458070,215200,Somerst,"2816 ASPEN RD, AMES, USA",42.0507831,-93.6470291,ASPEN_RD,Somerst_ASPEN_RD,RD
903401030,162500,BrkSide,"701 RIDGEWOOD AVE, AMES, USA",42.0279173,-93.62577050000002,RIDGEWOOD_AVE,BrkSide_RIDGEWOOD_AVE,AVE
909275040,138000,Crawfor,"311 PEARSON AVE, AMES, USA",42.0198811,-93.64294860000001,PEARSON_AVE,Crawfor_PEARSON_AVE,AVE
527163130,181316,Gilbert,"3828 EISENHOWER AVE, AMES, USA",42.0592771,-93.63763349999999,EISENHOWER_AVE,Gilbert_EISENHOWER_AVE,AVE
905200350,148000,Sawyer,"3605 ROSS RD, AMES, USA",42.03247349999999,-93.66685939999999,ROSS_RD,Sawyer_ROSS_RD,RD
528363050,315000,NoRidge,"3212 SUMAC CIR, AMES, USA",42.05046249999999,-93.65563039999999,SUMAC_CIR,NoRidge_SUMAC_CIR,CIR
908154205,184750,Edwards,"4302 COCHRANE PKWY, AMES, USA",42.0167158,-93.6767079,COCHRANE_PKWY,Edwards_COCHRANE_PKWY,PKWY
903233140,132000,BrkSide,"1004 ROOSEVELT AVE, AMES, USA",42.0314521,-93.622275,ROOSEVELT_AVE,BrkSide_ROOSEVELT_AVE,AVE
905107070,149500,Sawyer,"3910 ROSS RD, AMES, USA",42.0320787,-93.67196969999999,ROSS_RD,Sawyer_ROSS_RD,RD
528240020,183500,Gilbert,"4011 WESTLAWN DR, AMES, USA",42.0613102,-93.6417115,WESTLAWN_DR,Gilbert_WESTLAWN_DR,DR
906225180,224500,SawyerW,"1005 DELAWARE AVE, AMES, USA",42.03151889999999,-93.68017689999999,DELAWARE_AVE,SawyerW_DELAWARE_AVE,AVE
528114010,415000,NridgHt,"3334 WESTON DR, AMES, USA",42.0609669,-93.65806219999999,WESTON_DR,NridgHt_WESTON_DR,DR
907126030,155000,CollgCr,"5416 NORRIS ST, AMES, USA",42.0210642,-93.6926143,NORRIS_ST,CollgCr_NORRIS_ST,ST
904100160,135000,Sawyer,"2913 ROSS RD, AMES, USA",42.0334773,-93.65838289999999,ROSS_RD,Sawyer_ROSS_RD,RD
909254130,164000,Crawfor,"2227 STORM ST, AMES, USA",42.0163229,-93.6456364,STORM_ST,Crawfor_STORM_ST,ST
535403030,128500,NAmes,"114 E O NEIL DR, AMES, USA",42.03994549999999,-93.60989520000001,E_O_NEIL_DR,NAmes_E_O_NEIL_DR,DR
907412010,196500,CollgCr,"4919 WALLER ST, AMES, USA",42.0143098,-93.6863527,WALLER_ST,CollgCr_WALLER_ST,ST
903228080,131000,BrkSide,"807 12TH ST, AMES, USA",42.0335052,-93.62189579999999,12TH_ST,BrkSide_12TH_ST,ST
531452100,151000,SawyerW,"1420 INDIANA AVE, AMES, USA",42.03599,-93.6861277,INDIANA_AVE,SawyerW_INDIANA_AVE,AVE
526302030,149900,NAmes,"3115 NORTHWOOD DR, AMES, USA",42.053473,-93.6184182,NORTHWOOD_DR,NAmes_NORTHWOOD_DR,DR
902106090,139900,OldTown,"619 10TH ST, AMES, USA",42.0314085,-93.6195529,10TH_ST,OldTown_10TH_ST,ST
527161090,180000,Gilbert,"3842 HYDE AVE, AMES, USA",42.0593165,-93.6400486,HYDE_AVE,Gilbert_HYDE_AVE,AVE
532353120,120750,Sawyer,"1306 WOODSTOCK AVE, AMES, USA",42.0349673,-93.6768232,WOODSTOCK_AVE,Sawyer_WOODSTOCK_AVE,AVE
535453070,154000,NAmes,"1429 GLENDALE AVE, AMES, USA",42.0367015,-93.606151,GLENDALE_AVE,NAmes_GLENDALE_AVE,AVE
534252110,139900,NAmes,"2115 HUNZIKER DR, AMES, USA",42.0434951,-93.62500589999999,HUNZIKER_DR,NAmes_HUNZIKER_DR,DR
535327230,100000,NAmes,"1714 DOUGLAS AVE, AMES, USA",42.0398652,-93.6120847,DOUGLAS_AVE,NAmes_DOUGLAS_AVE,AVE
905425125,240000,ClearCr,"3421 OAKLAND ST, AMES, USA",42.0286553,-93.663631,OAKLAND_ST,ClearCr_OAKLAND_ST,ST
908103280,135000,Edwards,"4125 APLIN RD, AMES, USA",42.020115,-93.67470349999999,APLIN_RD,Edwards_APLIN_RD,RD
528221060,174000,Gilbert,"4110 CRESTMOOR AVE, AMES, USA",42.0621328,-93.6449978,CRESTMOOR_AVE,Gilbert_CRESTMOOR_AVE,AVE
921128020,378500,Timber,"2716 COTTONWOOD RD, AMES, USA",41.9928375,-93.65254019999999,COTTONWOOD_RD,Timber_COTTONWOOD_RD,RD
528174040,207000,NridgHt,"2914 HARRISON RD, AMES, USA",42.0589755,-93.65041149999999,HARRISON_RD,NridgHt_HARRISON_RD,RD
909256010,131000,SWISU,"714 STANTON AVE, AMES, USA",42.015632,-93.6482588,STANTON_AVE,SWISU_STANTON_AVE,AVE
533212060,152000,Somerst,"2621 STANGE RD, AMES, USA",42.04787959999999,-93.64522269999999,STANGE_RD,Somerst_STANGE_RD,RD
908204180,61500,Edwards,"3412 TRIPP ST, AMES, USA",42.0199898,-93.6653659,TRIPP_ST,Edwards_TRIPP_ST,ST
533223100,147110,Somerst,"2412 EATON AVE, AMES, USA",42.0460522,-93.64524809999999,EATON_AVE,Somerst_EATON_AVE,AVE
909176180,137000,SWISU,"422 HAYWARD AVE, AMES, USA",42.0183179,-93.65146879999999,HAYWARD_AVE,SWISU_HAYWARD_AVE,AVE
903475040,128500,OldTown,"914 6TH ST, AMES, USA",42.0265892,-93.6233436,6TH_ST,OldTown_6TH_ST,ST
535426195,207500,NAmes,"1630 CRESTWOOD CIR, AMES, USA",42.0398121,-93.60537099999999,CRESTWOOD_CIR,NAmes_CRESTWOOD_CIR,CIR
905103040,172500,Sawyer,"3913 ROSS RD, AMES, USA",42.0325024,-93.6720093,ROSS_RD,Sawyer_ROSS_RD,RD
528110100,380000,NridgHt,"3313 STOCKBURY ST, AMES, USA",42.0623745,-93.6574522,STOCKBURY_ST,NridgHt_STOCKBURY_ST,ST
534431030,137000,NAmes,"806 MURRAY DR, AMES, USA",42.0390333,-93.6219583,MURRAY_DR,NAmes_MURRAY_DR,DR
905300010,130000,Sawyer,"4418 PHOENIX ST, AMES, USA",42.02932029999999,-93.6785069,PHOENIX_ST,Sawyer_PHOENIX_ST,ST
914474070,215000,Mitchel,"3012 SAPPHIRE CIR, AMES, USA",41.9952118,-93.60358049999999,SAPPHIRE_CIR,Mitchel_SAPPHIRE_CIR,CIR
534428100,153000,NAmes,"821 NARLAND DR, AMES, USA",42.0404272,-93.62255139999999,NARLAND_DR,NAmes_NARLAND_DR,DR
533350050,385000,Veenker,"3110 KINGMAN RD, AMES, USA",42.0368737,-93.6578928,KINGMAN_RD,Veenker_KINGMAN_RD,RD
908188130,130000,Edwards,"3830 MARIGOLD DR, AMES, USA",42.0186523,-93.67007140000001,MARIGOLD_DR,Edwards_MARIGOLD_DR,DR
534453150,127000,BrkSide,"1402 RIDGEWOOD AVE, AMES, USA",42.0357511,-93.6280537,RIDGEWOOD_AVE,BrkSide_RIDGEWOOD_AVE,AVE
528458120,270000,Somerst,"2719 CAMBRIDGE DR, AMES, USA",42.0502443,-93.6473151,CAMBRIDGE_DR,Somerst_CAMBRIDGE_DR,DR
535179050,141000,NAmes,"208 22ND ST, AMES, USA",42.043744,-93.6134103,22ND_ST,NAmes_22ND_ST,ST
527302185,235000,NWAmes,"3416 CLINTON CT, AMES, USA",42.0558709,-93.6362149,CLINTON_CT,NWAmes_CLINTON_CT,CT
534128190,256900,NWAmes,"2531 PIERCE AVE, AMES, USA",42.0468858,-93.6326059,PIERCE_AVE,NWAmes_PIERCE_AVE,AVE
528180110,336860,NridgHt,"3015 BURNHAM DR, AMES, USA",42.0579411,-93.6519367,BURNHAM_DR,NridgHt_BURNHAM_DR,DR
916176125,375000,Timber,"2227 TIMBERLAND RD, AMES, USA",42.00138,-93.652119,TIMBERLAND_RD,Timber_TIMBERLAND_RD,RD
903454090,141000,IDOTRR,"1211 N 2ND ST, AMES, USA",42.024256,-93.6274995,N_2ND_ST,IDOTRR_N_2ND_ST,ST
535457010,160000,NAmes,"1321 GLENDALE AVE, AMES, USA",42.035416,-93.6061496,GLENDALE_AVE,NAmes_GLENDALE_AVE,AVE
528462040,182000,Somerst,"2806 YORK DR, AMES, USA",42.0500958,-93.6483239,YORK_DR,Somerst_YORK_DR,DR
909428120,217000,Crawfor,"2003 GREENBRIAR CIR, AMES, USA",42.0127998,-93.63971199999999,GREENBRIAR_CIR,Crawfor_GREENBRIAR_CIR,CIR
916460060,195000,Timber,"2902 WHITE OAK DR, AMES, USA",41.9964253,-93.6464225,WHITE_OAK_DR,Timber_WHITE_OAK_DR,DR
528431050,255000,Somerst,"2507 DALTON ST, AMES, USA",42.05442710000001,-93.6426419,DALTON_ST,Somerst_DALTON_ST,ST
527110020,168500,Gilbert,"1909 WYNGATE DR, AMES, USA",42.0607992,-93.63711889999999,WYNGATE_DR,Gilbert_WYNGATE_DR,DR
535352080,118500,NAmes,"419 15TH ST, AMES, USA",42.0372364,-93.6164574,15TH_ST,NAmes_15TH_ST,ST
527402250,149900,NAmes,"1115 GARNER CIR, AMES, USA",42.0546391,-93.6260076,GARNER_CIR,NAmes_GARNER_CIR,CIR
535451040,119000,NAmes,"1517 STAFFORD AVE, AMES, USA",42.037496,-93.60818719999999,STAFFORD_AVE,NAmes_STAFFORD_AVE,AVE
905452050,113000,Edwards,"329 FRANKLIN AVE, AMES, USA",42.0259989,-93.6651337,FRANKLIN_AVE,Edwards_FRANKLIN_AVE,AVE
903225090,159000,BrkSide,"1202 NORTHWESTERN AVE, AMES, USA",42.0334021,-93.62540609999999,NORTHWESTERN_AVE,BrkSide_NORTHWESTERN_AVE,AVE
531363010,159000,SawyerW,"5406 KANSAS DR, AMES, USA",42.0375909,-93.69159119999999,KANSAS_DR,SawyerW_KANSAS_DR,DR
923205025,168000,Mitchel,"314 PATRICIA DR, AMES, USA",41.9910265,-93.6075542,PATRICIA_DR,Mitchel_PATRICIA_DR,DR
532377060,122000,Sawyer,"1327 ALABAMA LN, AMES, USA",42.0353407,-93.6726432,ALABAMA_LN,Sawyer_ALABAMA_LN,LN
902109160,122250,OldTown,"926 GRAND AVE, AMES, USA",42.0311181,-93.61999929999999,GRAND_AVE,OldTown_GRAND_AVE,AVE
902128075,120000,OldTown,"1107 KELLOGG AVE, AMES, USA",42.0324026,-93.6141622,KELLOGG_AVE,OldTown_KELLOGG_AVE,AVE
528178070,421250,NridgHt,"3728 BRIDGEPORT DR, AMES, USA",42.057717,-93.6557888,BRIDGEPORT_DR,NridgHt_BRIDGEPORT_DR,DR
903225160,106900,BrkSide,"1232 NORTHWESTERN AVE, AMES, USA",42.0344029,-93.6254809,NORTHWESTERN_AVE,BrkSide_NORTHWESTERN_AVE,AVE
906380170,194000,CollgCr,"5327 DURANT ST, AMES, USA",42.0247884,-93.69033549999999,DURANT_ST,CollgCr_DURANT_ST,ST
528174020,204000,NridgHt,"2920 HARRISON RD, AMES, USA",42.05903259999999,-93.6506874,HARRISON_RD,NridgHt_HARRISON_RD,RD
910201110,100000,IDOTRR,"125 S HAZEL AVE, AMES, USA",42.0219116,-93.62710369999999,S_HAZEL_AVE,IDOTRR_S_HAZEL_AVE,AVE
535325400,105000,NAmes,"1606 BURNETT AVE, AMES, USA",42.0385019,-93.615257,BURNETT_AVE,NAmes_BURNETT_AVE,AVE
535150070,104900,NAmes,"2201 BARR DR, AMES, USA",42.0439869,-93.6200585,BARR_DR,NAmes_BARR_DR,DR
533254100,187000,Veenker,"2106 TORREY PINES RD, AMES, USA",42.0425245,-93.64533440000001,TORREY_PINES_RD,Veenker_TORREY_PINES_RD,RD
533254130,181500,Veenker,"2124 TORREY PINES RD, AMES, USA",42.0431997,-93.6453542,TORREY_PINES_RD,Veenker_TORREY_PINES_RD,RD
907194110,187100,CollgCr,"5344 CLEMENS BLVD, AMES, USA",42.01589999999999,-93.691047,CLEMENS_BLVD,CollgCr_CLEMENS_BLVD,BLVD
531375100,158000,SawyerW,"5321 KANSAS DR, AMES, USA",42.0379247,-93.6908705,KANSAS_DR,SawyerW_KANSAS_DR,DR
532477030,192000,Veenker,"3326 KINGMAN RD, AMES, USA",42.0373562,-93.6621259,KINGMAN_RD,Veenker_KINGMAN_RD,RD
534102025,230000,Somerst,"2651 SOMERSET DR, AMES, USA",42.0487197,-93.6396919,SOMERSET_DR,Somerst_SOMERSET_DR,DR
905452160,128000,Edwards,"322 CRANE AVE, AMES, USA",42.0257232,-93.66592849999999,CRANE_AVE,Edwards_CRANE_AVE,AVE
533208050,197000,Somerst,"2808 NORTHRIDGE LN, AMES, USA",42.0476561,-93.6468744,NORTHRIDGE_LN,Somerst_NORTHRIDGE_LN,LN
905427030,415000,Edwards,"3226 OAKLAND ST, AMES, USA",42.0278812,-93.6618232,OAKLAND_ST,Edwards_OAKLAND_ST,ST
535301010,135960,NAmes,"520 20TH ST, AMES, USA",42.0418428,-93.61833329999999,20TH_ST,NAmes_20TH_ST,ST
909280030,250000,Crawfor,"623 AGG AVE, AMES, USA",42.01670499999999,-93.6414739,AGG_AVE,Crawfor_AGG_AVE,AVE
528116010,296000,NridgHt,"4115 WEMBLEY AVE, AMES, USA",42.06094179999999,-93.6587988,WEMBLEY_AVE,NridgHt_WEMBLEY_AVE,AVE
528228270,172500,Blmngtn,"2421 WESTWIND DR, AMES, USA",42.0625489,-93.643081,WESTWIND_DR,Blmngtn_WESTWIND_DR,DR
907252210,236500,CollgCr,"4707 HEMINGWAY DR, AMES, USA",42.0190043,-93.6830861,HEMINGWAY_DR,CollgCr_HEMINGWAY_DR,DR
909475020,223000,Crawfor,"2166 ASHMORE DR, AMES, USA",42.0114303,-93.6439089,ASHMORE_DR,Crawfor_ASHMORE_DR,DR
907253110,230500,CollgCr,"4812 HEMINGWAY DR, AMES, USA",42.018555,-93.6847081,HEMINGWAY_DR,CollgCr_HEMINGWAY_DR,DR
535325280,130000,NAmes,"1617 DOUGLAS AVE, AMES, USA",42.0389768,-93.612698,DOUGLAS_AVE,NAmes_DOUGLAS_AVE,AVE
532378240,125500,Sawyer,"1322 ALABAMA LN, AMES, USA",42.0352837,-93.6720093,ALABAMA_LN,Sawyer_ALABAMA_LN,LN
908102260,147500,Edwards,"208 TODD CIR, AMES, USA",42.0208611,-93.677239,TODD_CIR,Edwards_TODD_CIR,CIR
908226180,79000,Edwards,"110 S WILMOTH AVE, AMES, USA",42.0222452,-93.66140299999999,S_WILMOTH_AVE,Edwards_S_WILMOTH_AVE,AVE
527425060,97000,NAmes,"902 TOP O HOLLOW RD, AMES, USA",42.0564397,-93.6235415,TOP_O_HOLLOW_RD,NAmes_TOP_O_HOLLOW_RD,RD
527451540,97000,BrDale,"1428 BRECKINRIDGE CT, AMES, USA",42.0515861,-93.62897489999999,BRECKINRIDGE_CT,BrDale_BRECKINRIDGE_CT,CT
902128170,119000,OldTown,"1126 BURNETT AVE, AMES, USA",42.0330581,-93.61526169999999,BURNETT_AVE,OldTown_BURNETT_AVE,AVE
903455090,125500,IDOTRR,"1103 N 2ND ST, AMES, USA",42.0242798,-93.6255205,N_2ND_ST,IDOTRR_N_2ND_ST,ST
535300120,176000,NAmes,None,,,None,NAmes_None,None
910203250,82000,IDOTRR,"228 S RIVERSIDE DR, AMES, USA",42.02052500000001,-93.6293007,S_RIVERSIDE_DR,IDOTRR_S_RIVERSIDE_DR,DR
903228070,93000,BrkSide,"803 12TH ST, AMES, USA",42.033517,-93.6217209,12TH_ST,BrkSide_12TH_ST,ST
527214060,535000,StoneBr,"4008 FRANCES E DAVIS CT, AMES, USA",42.0604129,-93.62734119999999,FRANCES_E_DAVIS_CT,StoneBr_FRANCES_E_DAVIS_CT,CT
528427010,235128,Somerst,"3205 CULLEN DR, AMES, USA",42.0544578,-93.64437699999999,CULLEN_DR,Somerst_CULLEN_DR,DR
535451250,138000,NAmes,"1518 CARROLL AVE, AMES, USA",42.0375173,-93.6087412,CARROLL_AVE,NAmes_CARROLL_AVE,AVE
908152270,176000,Edwards,"415 BEEDLE DR, AMES, USA",42.01853879999999,-93.67349440000001,BEEDLE_DR,Edwards_BEEDLE_DR,DR
909452050,208000,Crawfor,"1312 BIG BLUESTEM CT, AMES, USA",42.0105014,-93.6445622,BIG_BLUESTEM_CT,Crawfor_BIG_BLUESTEM_CT,CT
532354160,141000,Sawyer,"4133 ONTARIO ST, AMES, USA",42.034755,-93.675258,ONTARIO_ST,Sawyer_ONTARIO_ST,ST
531453100,162000,SawyerW,"1510 ILLINOIS AVE, AMES, USA",42.03649679999999,-93.6848072,ILLINOIS_AVE,SawyerW_ILLINOIS_AVE,AVE
527328050,151500,NWAmes,"1606 TOP O HOLLOW RD, AMES, USA",42.0562947,-93.6318141,TOP_O_HOLLOW_RD,NWAmes_TOP_O_HOLLOW_RD,RD
907418010,218836,CollgCr,"804 POE AVE, AMES, USA",42.0159656,-93.6835194,POE_AVE,CollgCr_POE_AVE,AVE
528344020,322500,NoRidge,"3040 BAYBERRY RD, AMES, USA",42.0533181,-93.653868,BAYBERRY_RD,NoRidge_BAYBERRY_RD,RD
532353180,151000,Sawyer,"1330 WOODSTOCK AVE, AMES, USA",42.03605630000001,-93.6768428,WOODSTOCK_AVE,Sawyer_WOODSTOCK_AVE,AVE
902106070,127500,OldTown,"611 10TH ST, AMES, USA",42.0314757,-93.61906929999999,10TH_ST,OldTown_10TH_ST,ST
528221050,203000,Gilbert,"4102 CRESTMOOR AVE, AMES, USA",42.0621827,-93.6446414,CRESTMOOR_AVE,Gilbert_CRESTMOOR_AVE,AVE
534479300,121000,NAmes,"1512 HARDING AVE, AMES, USA",42.0374016,-93.6212596,HARDING_AVE,NAmes_HARDING_AVE,AVE
906223060,213000,SawyerW,"1005 FLORIDA AVE, AMES, USA",42.03100860000001,-93.6812805,FLORIDA_AVE,SawyerW_FLORIDA_AVE,AVE
535105060,174000,NAmes,"428 26TH ST, AMES, USA",42.0470945,-93.61699279999999,26TH_ST,NAmes_26TH_ST,ST
528108040,398800,NridgHt,"3106 SEDWICK ST, AMES, USA",42.0628475,-93.6545762,SEDWICK_ST,NridgHt_SEDWICK_ST,ST
909279010,205000,Crawfor,"2159 COUNTRY CLUB BLVD, AMES, USA",42.0158528,-93.64398729999999,COUNTRY_CLUB_BLVD,Crawfor_COUNTRY_CLUB_BLVD,BLVD
527183030,189000,StoneBr,"1527 STONE BROOKE RD, AMES, USA",42.059518,-93.632013,STONE_BROOKE_RD,StoneBr_STONE_BROOKE_RD,RD
527276160,185000,Gilbert,"3616 CALHOUN AVE, AMES, USA",42.0572419,-93.6238185,CALHOUN_AVE,Gilbert_CALHOUN_AVE,AVE
902207130,12789,OldTown,"931 MAXWELL AVE, AMES, USA",42.031265,-93.607092,MAXWELL_AVE,OldTown_MAXWELL_AVE,AVE
903227020,128000,BrkSide,"1225 ROOSEVELT AVE, AMES, USA",42.034251,-93.62285209999999,ROOSEVELT_AVE,BrkSide_ROOSEVELT_AVE,AVE
908203100,90000,Edwards,"308 VILLAGE DR, AMES, USA",42.019586,-93.6663444,VILLAGE_DR,Edwards_VILLAGE_DR,DR
534152120,167900,NWAmes,"2204 PRAIRIE VIEW EAST, AMES, USA",42.0437693,-93.63773250000001,PRAIRIE_VIEW_EAST,NWAmes_PRAIRIE_VIEW_EAST,EAST
907290240,143000,CollgCr,"4715 TWAIN ST, AMES, USA",42.01642289999999,-93.6828802,TWAIN_ST,CollgCr_TWAIN_ST,ST
528478030,250000,Somerst,"2419 KINGSTON DR, AMES, USA",42.0524069,-93.6411967,KINGSTON_DR,Somerst_KINGSTON_DR,DR
910201180,150909,IDOTRR,"114 S RUSSELL AVE, AMES, USA",42.0223091,-93.62799559999999,S_RUSSELL_AVE,IDOTRR_S_RUSSELL_AVE,AVE
533208140,178000,Somerst,"2720 NORTHRIDGE LN, AMES, USA",42.047901,-93.64586539999999,NORTHRIDGE_LN,Somerst_NORTHRIDGE_LN,LN
528166150,350000,NridgHt,"3321 FOXLEY DR, AMES, USA",42.0587987,-93.6575908,FOXLEY_DR,NridgHt_FOXLEY_DR,DR
905107140,143500,Sawyer,"911 MESA VERDE PL, AMES, USA",42.0309173,-93.67204890000001,MESA_VERDE_PL,Sawyer_MESA_VERDE_PL,PL
527180100,180500,Gilbert,"3817 FLETCHER BLVD, AMES, USA",42.0588403,-93.6349613,FLETCHER_BLVD,Gilbert_FLETCHER_BLVD,BLVD
528458080,255000,Somerst,"2810 ASPEN RD, AMES, USA",42.0506808,-93.6467903,ASPEN_RD,Somerst_ASPEN_RD,RD
905101450,154500,Sawyer,"1208 ARIZONA AVE, AMES, USA",42.03354789999999,-93.67521839999999,ARIZONA_AVE,Sawyer_ARIZONA_AVE,AVE
914460110,245000,Mitchel,"303 RUBY CIR, AMES, USA",41.9961894,-93.6074948,RUBY_CIR,Mitchel_RUBY_CIR,CIR
534400290,153000,NAmes,"1413 16TH ST, AMES, USA",42.0384749,-93.62864739999999,16TH_ST,NAmes_16TH_ST,ST
907254020,230000,CollgCr,"519 POE CIR, AMES, USA",42.0176489,-93.68464870000001,POE_CIR,CollgCr_POE_CIR,CIR
528458030,212700,Somerst,"2840 ASPEN RD, AMES, USA",42.0511533,-93.6479129,ASPEN_RD,Somerst_ASPEN_RD,RD
528480060,339750,Somerst,"2518 KINGSTON DR, AMES, USA",42.0520522,-93.6430584,KINGSTON_DR,Somerst_KINGSTON_DR,DR
905226050,112000,Sawyer,"1203 SCOTT AVE, AMES, USA",42.0335262,-93.661096,SCOTT_AVE,Sawyer_SCOTT_AVE,AVE
528253010,207500,NridgHt,"2839 ROXBORO DR, AMES, USA",42.0585953,-93.6496278,ROXBORO_DR,NridgHt_ROXBORO_DR,DR
528228345,195000,Blmngtn,"2309 WESTWIND DR, AMES, USA",42.0628233,-93.6408725,WESTWIND_DR,Blmngtn_WESTWIND_DR,DR
527425140,120500,NAmes,"704 TOP O HOLLOW RD, AMES, USA",42.0564983,-93.62168129999999,TOP_O_HOLLOW_RD,NAmes_TOP_O_HOLLOW_RD,RD
907135020,144000,CollgCr,"5409 FROST DR, AMES, USA",42.0192775,-93.6917028,FROST_DR,CollgCr_FROST_DR,DR
533206040,176400,Somerst,"2815 BRISTOL DR, AMES, USA",42.0475835,-93.64751369999999,BRISTOL_DR,Somerst_BRISTOL_DR,DR
535181140,130000,NAmes,"2104 DOUGLAS AVE, AMES, USA",42.04318689999999,-93.6120847,DOUGLAS_AVE,NAmes_DOUGLAS_AVE,AVE
902427045,97000,OldTown,"422 E 6TH ST, AMES, USA",42.0268212,-93.6045659,E_6TH_ST,OldTown_E_6TH_ST,ST
527405130,76500,NAmes,"1202 WHEELER ST, AMES, USA",42.0531586,-93.6271829,WHEELER_ST,NAmes_WHEELER_ST,ST
528431040,419005,Somerst,"3217 KENT AVE, AMES, USA",42.0548082,-93.64280029999999,KENT_AVE,Somerst_KENT_AVE,AVE
527450210,83000,BrDale,"1333 TRUMAN PL, AMES, USA",42.0526837,-93.62791899999999,TRUMAN_PL,BrDale_TRUMAN_PL,PL
532378200,142000,Sawyer,"3905 ONTARIO ST, AMES, USA",42.0347196,-93.67144449999999,ONTARIO_ST,Sawyer_ONTARIO_ST,ST
909278020,154900,Crawfor,"602 ASH AVE, AMES, USA",42.0169237,-93.6439868,ASH_AVE,Crawfor_ASH_AVE,AVE
534225110,145000,NAmes,"2624 MELROSE AVE, AMES, USA",42.0482782,-93.62441009999999,MELROSE_AVE,NAmes_MELROSE_AVE,AVE
909451130,123900,Blueste,"1505 LITTLE BLUESTEM CT, AMES, USA",42.0095436,-93.64614279999999,LITTLE_BLUESTEM_CT,Blueste_LITTLE_BLUESTEM_CT,CT
528142020,250000,NridgHt,"3122 BECKLEY ST, AMES, USA",42.0602968,-93.65462439999999,BECKLEY_ST,NridgHt_BECKLEY_ST,ST
527404030,143000,NAmes,"1212 JEFFERSON ST, AMES, USA",42.0550975,-93.6269312,JEFFERSON_ST,NAmes_JEFFERSON_ST,ST
527162180,183000,Gilbert,"3840 BERKSHIRE AVE, AMES, USA",42.0596104,-93.6387303,BERKSHIRE_AVE,Gilbert_BERKSHIRE_AVE,AVE
534151180,255000,NWAmes,"2025 PRAIRIE VIEW EAST, AMES, USA",42.0425109,-93.63783149999999,PRAIRIE_VIEW_EAST,NWAmes_PRAIRIE_VIEW_EAST,EAST
908204090,131750,Edwards,"278 VILLAGE DR, AMES, USA",42.01868899999999,-93.66636350000002,VILLAGE_DR,Edwards_VILLAGE_DR,DR
532354070,132500,Sawyer,"4106 TORONTO ST, AMES, USA",42.0357588,-93.6740629,TORONTO_ST,Sawyer_TORONTO_ST,ST
527302070,181900,NWAmes,"3306 EISENHOWER AVE, AMES, USA",42.0548788,-93.6376543,EISENHOWER_AVE,NWAmes_EISENHOWER_AVE,AVE
527214030,387000,StoneBr,"4013 FRANCES E DAVIS CT, AMES, USA",42.0606794,-93.6280735,FRANCES_E_DAVIS_CT,StoneBr_FRANCES_E_DAVIS_CT,CT
533128030,268000,NoRidge,"2713 NORTHRIDGE CIR, AMES, USA",42.04851060000001,-93.6508187,NORTHRIDGE_CIR,NoRidge_NORTHRIDGE_CIR,CIR
902330010,122000,OldTown,"114 8TH ST, AMES, USA",42.0287671,-93.61121419999999,8TH_ST,OldTown_8TH_ST,ST
923228150,97000,MeadowV,"707 MEADOW PL, AMES, USA",41.9923452,-93.6017723,MEADOW_PL,MeadowV_MEADOW_PL,PL
527302080,229000,NWAmes,"3300 EISENHOWER AVE, AMES, USA",42.0546022,-93.63757489999999,EISENHOWER_AVE,NWAmes_EISENHOWER_AVE,AVE
528344040,340000,NoRidge,"3028 BAYBERRY RD, AMES, USA",42.05324359999999,-93.65317499999999,BAYBERRY_RD,NoRidge_BAYBERRY_RD,RD
535403040,115000,NAmes,"120 E O NEIL DR, AMES, USA",42.0398752,-93.6096795,E_O_NEIL_DR,NAmes_E_O_NEIL_DR,DR
535375050,135000,OldTown,"1517 KELLOGG AVE, AMES, USA",42.0376898,-93.6143204,KELLOGG_AVE,OldTown_KELLOGG_AVE,AVE
535376060,149000,OldTown,"1511 DOUGLAS AVE, AMES, USA",42.0375773,-93.61282639999999,DOUGLAS_AVE,OldTown_DOUGLAS_AVE,AVE
924151040,285000,Mitchel,"3616 JEWEL DR, AMES, USA",41.9894523,-93.59979980000001,JEWEL_DR,Mitchel_JEWEL_DR,DR
528186160,234250,NridgHt,"3703 CHILTON AVE, AMES, USA",42.0572465,-93.65143940000002,CHILTON_AVE,NridgHt_CHILTON_AVE,AVE
532351150,119500,Sawyer,"4307 TORONTO ST, AMES, USA",42.0365395,-93.67743709999999,TORONTO_ST,Sawyer_TORONTO_ST,ST
905105010,142500,Sawyer,"1019 ARIZONA AVE, AMES, USA",42.0319709,-93.6757683,ARIZONA_AVE,Sawyer_ARIZONA_AVE,AVE
527452310,123000,NAmes,"1413 JOHNSON ST, AMES, USA",42.0490425,-93.6297359,JOHNSON_ST,NAmes_JOHNSON_ST,ST
909250200,149000,SWISU,"428 STANTON AVE, AMES, USA",42.0181097,-93.6482831,STANTON_AVE,SWISU_STANTON_AVE,AVE
905101300,136000,Sawyer,"3901 QUEBEC ST, AMES, USA",42.0335232,-93.67149429999999,QUEBEC_ST,Sawyer_QUEBEC_ST,ST
902329080,119000,OldTown,"219 7TH ST, AMES, USA",42.0281092,-93.6130937,7TH_ST,OldTown_7TH_ST,ST
903225140,124000,BrkSide,"1222 NORTHWESTERN AVE, AMES, USA",42.03409509999999,-93.62544129999999,NORTHWESTERN_AVE,BrkSide_NORTHWESTERN_AVE,AVE
533215080,328900,Somerst,"2415 BRADFORD DR, AMES, USA",42.0461873,-93.6473116,BRADFORD_DR,Somerst_BRADFORD_DR,DR
534452060,118000,BrkSide,"1301 RIDGEWOOD AVE, AMES, USA",42.0347205,-93.6279035,RIDGEWOOD_AVE,BrkSide_RIDGEWOOD_AVE,AVE
532476050,260000,Veenker,"1601 AMHERST DR, AMES, USA",42.0374016,-93.6606999,AMHERST_DR,Veenker_AMHERST_DR,DR
909428110,157000,Crawfor,"2004 MCCARTHY RD, AMES, USA",42.0134137,-93.63969499999999,MCCARTHY_RD,Crawfor_MCCARTHY_RD,RD
528170040,437154,NridgHt,"3108 ROXBORO DR, AMES, USA",42.0585746,-93.6537096,ROXBORO_DR,NridgHt_ROXBORO_DR,DR
533110130,260000,NoRidge,"2503 RIDGETOP RD, AMES, USA",42.0456147,-93.6532344,RIDGETOP_RD,NoRidge_RIDGETOP_RD,RD
921205030,369900,Timber,"2406 COTTONWOOD RD, AMES, USA",41.993051,-93.6481854,COTTONWOOD_RD,Timber_COTTONWOOD_RD,RD
923203090,164000,Mitchel,"3318 EMERALD DR, AMES, USA",41.9924431,-93.60793919999999,EMERALD_DR,Mitchel_EMERALD_DR,DR
535104120,187500,NAmes,"510 LUTHER DR, AMES, USA",42.0481221,-93.617882,LUTHER_DR,NAmes_LUTHER_DR,DR
528366070,263000,NoRidge,"3108 SYCAMORE RD, AMES, USA",42.04935570000001,-93.65339279999999,SYCAMORE_RD,NoRidge_SYCAMORE_RD,RD
902205010,45000,OldTown,None,,,None,OldTown_None,None
923204040,173000,Mitchel,"428 JEWEL DR, AMES, USA",41.9930384,-93.60586219999999,JEWEL_DR,Mitchel_JEWEL_DR,DR
535378080,128500,OldTown,"1400 BURNETT AVE, AMES, USA",42.03588310000001,-93.6152702,BURNETT_AVE,OldTown_BURNETT_AVE,AVE
533251130,194000,Veenker,"2804 PINEHURST CIR, AMES, USA",42.0445091,-93.6454729,PINEHURST_CIR,Veenker_PINEHURST_CIR,CIR
528235130,178000,Gilbert,"3838 WELBECK DR, AMES, USA",42.0597804,-93.6436912,WELBECK_DR,Gilbert_WELBECK_DR,DR
903226130,128000,BrkSide,"1210 CURTISS AVE, AMES, USA",42.0337014,-93.6244518,CURTISS_AVE,BrkSide_CURTISS_AVE,AVE
903235020,89000,BrkSide,"1018 10TH ST, AMES, USA",42.0310757,-93.62441220000001,10TH_ST,BrkSide_10TH_ST,ST
527425110,130000,NAmes,"804 TOP O HOLLOW RD, AMES, USA",42.0564842,-93.62230459999999,TOP_O_HOLLOW_RD,NAmes_TOP_O_HOLLOW_RD,RD
902327070,160000,OldTown,"803 DUFF AVE, AMES, USA",42.0292194,-93.6109097,DUFF_AVE,OldTown_DUFF_AVE,AVE
903425270,90000,BrkSide,"616 RIDGEWOOD AVE, AMES, USA",42.0274591,-93.6251642,RIDGEWOOD_AVE,BrkSide_RIDGEWOOD_AVE,AVE
534127230,150000,NWAmes,"2729 CLEVELAND DR, AMES, USA",42.0491383,-93.6349836,CLEVELAND_DR,NWAmes_CLEVELAND_DR,DR
914478100,143000,Mitchel,"700 DIAMOND CT, AMES, USA",41.9941843,-93.6017778,DIAMOND_CT,Mitchel_DIAMOND_CT,CT
535301150,156000,NAmes,"1904 WILSON AVE, AMES, USA",42.0408291,-93.61825700000001,WILSON_AVE,NAmes_WILSON_AVE,AVE
903225150,87000,BrkSide,"1226 NORTHWESTERN AVE, AMES, USA",42.034211,-93.62544129999999,NORTHWESTERN_AVE,BrkSide_NORTHWESTERN_AVE,AVE
527402220,148500,NAmes,"3316 GARNER AVE, AMES, USA",42.0549312,-93.6261608,GARNER_AVE,NAmes_GARNER_AVE,AVE
904351240,63000,Edwards,"122 HOWARD AVE, AMES, USA",42.0235537,-93.65822449999999,HOWARD_AVE,Edwards_HOWARD_AVE,AVE
535452090,128000,NAmes,"1425 MAXWELL AVE, AMES, USA",42.0366873,-93.6071719,MAXWELL_AVE,NAmes_MAXWELL_AVE,AVE
528108020,253293,NridgHt,"3122 SEDWICK ST, AMES, USA",42.0628256,-93.6552184,SEDWICK_ST,NridgHt_SEDWICK_ST,ST
528427070,214000,Somerst,"3317 CULLEN DR, AMES, USA",42.05564469999999,-93.6444035,CULLEN_DR,Somerst_CULLEN_DR,DR
902125020,124000,OldTown,"1229 KELLOGG AVE, AMES, USA",42.03440639999999,-93.6143204,KELLOGG_AVE,OldTown_KELLOGG_AVE,AVE
910201050,129850,IDOTRR,"1212 LINCOLN WAY, AMES, USA",42.0226345,-93.62745989999999,LINCOLN_WAY,IDOTRR_LINCOLN_WAY,WAY
527425090,115000,NAmes,"808 TOP O HOLLOW RD, AMES, USA",42.0564811,-93.6227035,TOP_O_HOLLOW_RD,NAmes_TOP_O_HOLLOW_RD,RD
909277100,163500,Crawfor,"2011 KILDEE ST, AMES, USA",42.0177472,-93.6402861,KILDEE_ST,Crawfor_KILDEE_ST,ST
531452070,145000,SawyerW,"1408 INDIANA AVE, AMES, USA",42.0356192,-93.68595979999999,INDIANA_AVE,SawyerW_INDIANA_AVE,AVE
528387050,271000,NoRidge,"3015 VALLEY VIEW RD, AMES, USA",42.05072029999999,-93.6517691,VALLEY_VIEW_RD,NoRidge_VALLEY_VIEW_RD,RD
905480240,95000,Edwards,"3121 LINCOLN WAY, AMES, USA",42.0229632,-93.660997,LINCOLN_WAY,Edwards_LINCOLN_WAY,WAY
535476350,192000,NAmes,"1522 LINDEN DR, AMES, USA",42.0374399,-93.6046507,LINDEN_DR,NAmes_LINDEN_DR,DR
527258010,394432,StoneBr,"1316 KINYON CIR, AMES, USA",42.0587063,-93.6294193,KINYON_CIR,StoneBr_KINYON_CIR,CIR
906394060,181000,CollgCr,"112 HARTFORD DR, AMES, USA",42.0232913,-93.6888295,HARTFORD_DR,CollgCr_HARTFORD_DR,DR
909282030,381000,Crawfor,"2116 COUNTRY CLUB BLVD, AMES, USA",42.0156689,-93.6424799,COUNTRY_CLUB_BLVD,Crawfor_COUNTRY_CLUB_BLVD,BLVD
905225040,140000,Sawyer,"1239 WISCONSIN AVE, AMES, USA",42.0340067,-93.6623833,WISCONSIN_AVE,Sawyer_WISCONSIN_AVE,AVE
908275130,130500,Edwards,"234 S FRANKLIN AVE, AMES, USA",42.0198373,-93.6645223,S_FRANKLIN_AVE,Edwards_S_FRANKLIN_AVE,AVE
527226040,155000,Gilbert,"4014 DAWES DR, AMES, USA",42.0606671,-93.62294779999999,DAWES_DR,Gilbert_DAWES_DR,DR
903458110,89500,IDOTRR,"1107 LINCOLN WAY, AMES, USA",42.0230758,-93.6257184,LINCOLN_WAY,IDOTRR_LINCOLN_WAY,WAY
535425080,277500,NAmes,"415 PAULSON DR, AMES, USA",42.0410506,-93.60617549999999,PAULSON_DR,NAmes_PAULSON_DR,DR
907201220,140000,CollgCr,"5140 EMERSON DR, AMES, USA",42.0195952,-93.68781899999999,EMERSON_DR,CollgCr_EMERSON_DR,DR
903426160,160000,OldTown,"817 HODGE AVE, AMES, USA",42.0294531,-93.6219583,HODGE_AVE,OldTown_HODGE_AVE,AVE
905478140,125000,Edwards,"209 HOWARD AVE, AMES, USA",42.0240818,-93.6588108,HOWARD_AVE,Edwards_HOWARD_AVE,AVE
906475070,185000,ClearCr,"234 PARKRIDGE CIR, AMES, USA",42.0255009,-93.68256830000001,PARKRIDGE_CIR,ClearCr_PARKRIDGE_CIR,CIR
907414070,173500,CollgCr,"4818 WALLER ST, AMES, USA",42.01352730000001,-93.6851525,WALLER_ST,CollgCr_WALLER_ST,ST
914476050,135000,Mitchel,"702 CRYSTAL ST, AMES, USA",41.9967513,-93.6023719,CRYSTAL_ST,Mitchel_CRYSTAL_ST,ST
923251180,131000,Mitchel,"413 TEAGARDEN DR, AMES, USA",41.9878681,-93.60612809999999,TEAGARDEN_DR,Mitchel_TEAGARDEN_DR,DR
528235090,200000,Gilbert,"3827 BRICKMAN AVE, AMES, USA",42.0598789,-93.643018,BRICKMAN_AVE,Gilbert_BRICKMAN_AVE,AVE
527355150,278000,NWAmes,"1910 STEVENSON DR, AMES, USA",42.0529447,-93.633538,STEVENSON_DR,NWAmes_STEVENSON_DR,DR
527454130,137900,NPkVill,"1119 JOHNSON ST, AMES, USA",42.0497529,-93.62614839999999,JOHNSON_ST,NPkVill_JOHNSON_ST,ST
533215020,300000,Somerst,"2509 BRADFORD DR, AMES, USA",42.04673460000001,-93.64698000000001,BRADFORD_DR,Somerst_BRADFORD_DR,DR
526302120,169000,NAmes,"627 RIVER OAK DR, AMES, USA",42.0530977,-93.6193067,RIVER_OAK_DR,NAmes_RIVER_OAK_DR,DR
532378220,129200,Sawyer,"1310 ALABAMA LN, AMES, USA",42.0349449,-93.67173199999999,ALABAMA_LN,Sawyer_ALABAMA_LN,LN
907420110,167000,CollgCr,"908 POE AVE, AMES, USA",42.0143575,-93.683658,POE_AVE,CollgCr_POE_AVE,AVE
527354100,187500,NWAmes,"1915 STEVENSON DR, AMES, USA",42.0527409,-93.63418589999999,STEVENSON_DR,NWAmes_STEVENSON_DR,DR
535404080,129900,NAmes,"1603 CARROLL AVE, AMES, USA",42.0384537,-93.60928849999999,CARROLL_AVE,NAmes_CARROLL_AVE,AVE
906223090,236000,SawyerW,"1006 VERMONT CT, AMES, USA",42.0310095,-93.68185509999999,VERMONT_CT,SawyerW_VERMONT_CT,CT
527450080,125500,BrDale,"1437 TRUMAN PL, AMES, USA",42.0526323,-93.6292189,TRUMAN_PL,BrDale_TRUMAN_PL,PL
905352030,192000,ClearCr,"212 TRAIL RIDGE RD, AMES, USA",42.0243064,-93.67401,TRAIL_RIDGE_RD,ClearCr_TRAIL_RIDGE_RD,RD
923275040,165500,Mitchel,"521 ELY CIR, AMES, USA",41.9892295,-93.6047956,ELY_CIR,Mitchel_ELY_CIR,CIR
906477110,155000,ClearCr,"4804 WESTBEND DR, AMES, USA",42.0240935,-93.6822998,WESTBEND_DR,ClearCr_WESTBEND_DR,DR
908103310,127500,Edwards,"200 WELLONS DR, AMES, USA",42.0206184,-93.67534239999999,WELLONS_DR,Edwards_WELLONS_DR,DR
531477040,144000,SawyerW,"1505 NORTH DAKOTA AVE, AMES, USA",42.0362027,-93.6791173,NORTH_DAKOTA_AVE,SawyerW_NORTH_DAKOTA_AVE,AVE
534176230,171000,NWAmes,"2226 HAYES AVE, AMES, USA",42.0445585,-93.63292249999999,HAYES_AVE,NWAmes_HAYES_AVE,AVE
907187060,217000,CollgCr,"5200 CERVANTES DR, AMES, USA",42.0177911,-93.6886512,CERVANTES_DR,CollgCr_CERVANTES_DR,DR
528385050,260000,NoRidge,"3014 ASPEN RD, AMES, USA",42.0515,-93.6521453,ASPEN_RD,NoRidge_ASPEN_RD,RD
908204160,82500,Edwards,"238 VILLAGE DR, AMES, USA",42.019585,-93.6653857,VILLAGE_DR,Edwards_VILLAGE_DR,DR
924100020,172000,Mitchel,"3402 JEWEL DR, AMES, USA",41.9918382,-93.6001558,JEWEL_DR,Mitchel_JEWEL_DR,DR
902477120,34900,IDOTRR,None,,,None,IDOTRR_None,None
907401080,195000,CollgCr,"917 TENNYSON AVE, AMES, USA",42.0142153,-93.68809639999999,TENNYSON_AVE,CollgCr_TENNYSON_AVE,AVE
528108120,376162,NridgHt,"3033 STOCKBURY ST, AMES, USA",42.06242049999999,-93.6541848,STOCKBURY_ST,NridgHt_STOCKBURY_ST,ST
916403230,175000,Timber,"2609 GREEN HILLS DR, AMES, USA",41.9986532,-93.6446216,GREEN_HILLS_DR,Timber_GREEN_HILLS_DR,DR
903236040,126500,BrkSide,"720 10TH ST, AMES, USA",42.03109440000001,-93.6213647,10TH_ST,BrkSide_10TH_ST,ST
903475060,122000,OldTown,"519 NORTHWESTERN AVE, AMES, USA",42.0263666,-93.6227777,NORTHWESTERN_AVE,OldTown_NORTHWESTERN_AVE,AVE
527302090,213000,NWAmes,"2009 BUCHANAN DR, AMES, USA",42.054595,-93.6373366,BUCHANAN_DR,NWAmes_BUCHANAN_DR,DR
923230120,138000,Mitchel,"704 GARNET DR, AMES, USA",41.9910494,-93.6023661,GARNET_DR,Mitchel_GARNET_DR,DR
534403420,147000,NAmes,"1912 BEL AIR DR, AMES, USA",42.0414018,-93.62769740000002,BEL_AIR_DR,NAmes_BEL_AIR_DR,DR
902304060,130000,OldTown,"709 CLARK AVE, AMES, USA",42.028287,-93.617386,CLARK_AVE,OldTown_CLARK_AVE,AVE
1007100110,103000,IDOTRR,"2520 E LINCOLN WAY, AMES, USA",42.0223601,-93.57946989999999,E_LINCOLN_WAY,IDOTRR_E_LINCOLN_WAY,WAY
907290090,213000,CollgCr,"4614 WEBSTER ST, AMES, USA",42.0167967,-93.6816966,WEBSTER_ST,CollgCr_WEBSTER_ST,ST
907203090,110000,CollgCr,"4915 SCHUBERT ST, AMES, USA",42.0212898,-93.68426699999999,SCHUBERT_ST,CollgCr_SCHUBERT_ST,ST
905102060,131500,Sawyer,"4018 QUEBEC ST, AMES, USA",42.033109,-93.67338830000001,QUEBEC_ST,Sawyer_QUEBEC_ST,ST
907275150,275000,CollgCr,"4639 HEMINGWAY DR, AMES, USA",42.01902990000001,-93.6825485,HEMINGWAY_DR,CollgCr_HEMINGWAY_DR,DR
535152150,165500,NAmes,"2026 JENSEN AVE, AMES, USA",42.0431019,-93.6177025,JENSEN_AVE,NAmes_JENSEN_AVE,AVE
528365090,290000,NoRidge,"3133 SYCAMORE RD, AMES, USA",42.0497925,-93.6548383,SYCAMORE_RD,NoRidge_SYCAMORE_RD,RD
910200080,126000,IDOTRR,"121 S RUSSELL AVE, AMES, USA",42.0220175,-93.62864739999999,S_RUSSELL_AVE,IDOTRR_S_RUSSELL_AVE,AVE
923225080,124000,MeadowV,"3334 SOUTHDALE DR, AMES, USA",41.9920699,-93.6051011,SOUTHDALE_DR,MeadowV_SOUTHDALE_DR,DR
906402200,320000,SawyerW,"926 IDAHO AVE, AMES, USA",42.0303559,-93.68296459999999,IDAHO_AVE,SawyerW_IDAHO_AVE,AVE
921128050,425000,Timber,"2624 COTTONWOOD RD, AMES, USA",41.9927909,-93.6515117,COTTONWOOD_RD,Timber_COTTONWOOD_RD,RD
909250160,96500,Crawfor,"2321 BAKER ST, AMES, USA",42.0181373,-93.64749239999999,BAKER_ST,Crawfor_BAKER_ST,ST
908225170,91900,Edwards,"3319 TRIPP ST, AMES, USA",42.0202094,-93.6625418,TRIPP_ST,Edwards_TRIPP_ST,ST
906380060,272500,CollgCr,"5332 TABOR DR, AMES, USA",42.025348,-93.6903553,TABOR_DR,CollgCr_TABOR_DR,DR
527175130,154204,Gilbert,"1711 TOP O HOLLOW RD, AMES, USA",42.057022,-93.63332899999999,TOP_O_HOLLOW_RD,Gilbert_TOP_O_HOLLOW_RD,RD
528480110,200825,Somerst,"2517 CLAYTON DR, AMES, USA",42.0514608,-93.6428621,CLAYTON_DR,Somerst_CLAYTON_DR,DR
528150070,611657,NridgHt,"4101 VALLEY VIEW RD, AMES, USA",42.0604197,-93.6557888,VALLEY_VIEW_RD,NridgHt_VALLEY_VIEW_RD,RD
923400040,160000,Mitchel,"300 KEN MARIL RD, AMES, USA",41.9863334,-93.6080289,KEN_MARIL_RD,Mitchel_KEN_MARIL_RD,RD
910205020,78000,IDOTRR,"203 S MAPLE AVE, AMES, USA",42.0214605,-93.6254809,S_MAPLE_AVE,IDOTRR_S_MAPLE_AVE,AVE
535103050,201800,NAmes,"2702 NORTHWOOD DR, AMES, USA",42.0490141,-93.6165365,NORTHWOOD_DR,NAmes_NORTHWOOD_DR,DR
528240150,195500,Gilbert,"4010 BRICKMAN AVE, AMES, USA",42.06144339999999,-93.64238449999999,BRICKMAN_AVE,Gilbert_BRICKMAN_AVE,AVE
906226120,142953,SawyerW,"1001 NORTH DAKOTA AVE, AMES, USA",42.0314991,-93.6790839,NORTH_DAKOTA_AVE,SawyerW_NORTH_DAKOTA_AVE,AVE
535327140,107500,NAmes,"117 16TH ST, AMES, USA",42.0384684,-93.6116692,16TH_ST,NAmes_16TH_ST,ST
528427040,213133,Somerst,"3223 CULLEN DR, AMES, USA",42.0550661,-93.6443774,CULLEN_DR,Somerst_CULLEN_DR,DR
528435020,297900,Somerst,"2616 DALTON ST, AMES, USA",42.0539949,-93.6443,DALTON_ST,Somerst_DALTON_ST,ST
534431130,122000,NAmes,"803 16TH ST, AMES, USA",42.0385387,-93.6217209,16TH_ST,NAmes_16TH_ST,ST
923203110,162000,Mitchel,"3322 EMERALD DR, AMES, USA",41.9922564,-93.60794539999999,EMERALD_DR,Mitchel_EMERALD_DR,DR
527356020,250000,NWAmes,"2935 EISENHOWER AVE, AMES, USA",42.0510783,-93.6380294,EISENHOWER_AVE,NWAmes_EISENHOWER_AVE,AVE
527252090,318000,StoneBr,"3807 HOOVER AVE, AMES, USA",42.0585691,-93.63005489999999,HOOVER_AVE,StoneBr_HOOVER_AVE,AVE
527258020,260000,StoneBr,"3802 HOOVER AVE, AMES, USA",42.0584946,-93.62939949999999,HOOVER_AVE,StoneBr_HOOVER_AVE,AVE
533253060,155000,Greens,"2020 PINEHURST DR, AMES, USA",42.042308,-93.64894199999999,PINEHURST_DR,Greens_PINEHURST_DR,DR
905107380,120000,Sawyer,"1008 ARKANSAS AVE, AMES, USA",42.0316613,-93.6740042,ARKANSAS_AVE,Sawyer_ARKANSAS_AVE,AVE
531375040,159000,SawyerW,"5425 KANSAS DR, AMES, USA",42.0380734,-93.69225759999999,KANSAS_DR,SawyerW_KANSAS_DR,DR
535355100,112000,OldTown,"427 13TH ST, AMES, USA",42.034705,-93.61687309999999,13TH_ST,OldTown_13TH_ST,ST
907192120,226000,CollgCr,"5421 CLEMENS BLVD, AMES, USA",42.0163909,-93.69228249999999,CLEMENS_BLVD,CollgCr_CLEMENS_BLVD,BLVD
528138010,324000,NridgHt,"2908 WESTON DR, AMES, USA",42.0614678,-93.6522457,WESTON_DR,NridgHt_WESTON_DR,DR
908229020,99900,Edwards,"203 STATE AVE, AMES, USA",42.0213522,-93.65941269999999,STATE_AVE,Edwards_STATE_AVE,AVE
528480090,271500,Somerst,"2505 CLAYTON DR, AMES, USA",42.0515023,-93.6423252,CLAYTON_DR,Somerst_CLAYTON_DR,DR
527108070,377500,Gilbert,"4302 HARRISON CIR, AMES, USA",42.0630724,-93.63543630000001,HARRISON_CIR,Gilbert_HARRISON_CIR,CIR
906226060,131000,SawyerW,"1110 DELAWARE AVE, AMES, USA",42.0321074,-93.67953709999999,DELAWARE_AVE,SawyerW_DELAWARE_AVE,AVE
908275290,125000,Edwards,"3334 MORNINGSIDE ST, AMES, USA",42.01759029999999,-93.6634924,MORNINGSIDE_ST,Edwards_MORNINGSIDE_ST,ST
531375070,142500,SawyerW,"5409 KANSAS DR, AMES, USA",42.0379804,-93.69154429999999,KANSAS_DR,SawyerW_KANSAS_DR,DR
528480070,266000,Somerst,"2512 KINGSTON DR, AMES, USA",42.0520473,-93.6427482,KINGSTON_DR,Somerst_KINGSTON_DR,DR
905300080,142500,Sawyer,"733 ARIZONA AVE, AMES, USA",42.0291493,-93.67660509999999,ARIZONA_AVE,Sawyer_ARIZONA_AVE,AVE
907203040,149900,CollgCr,"201 ROCKWELL AVE, AMES, USA",42.0216574,-93.6835297,ROCKWELL_AVE,CollgCr_ROCKWELL_AVE,AVE
535450180,135000,NAmes,"115 E 14TH ST, AMES, USA",42.0359287,-93.60995419999999,E_14TH_ST,NAmes_E_14TH_ST,ST
531382070,257000,SawyerW,"1340 CALIFORNIA AVE, AMES, USA",42.0358313,-93.6911083,CALIFORNIA_AVE,SawyerW_CALIFORNIA_AVE,AVE
527216080,591587,StoneBr,"4120 LAURA CT, AMES, USA",42.0615737,-93.6266485,LAURA_CT,StoneBr_LAURA_CT,CT
906394050,176432,CollgCr,"118 HARTFORD DR, AMES, USA",42.0235231,-93.6888295,HARTFORD_DR,CollgCr_HARTFORD_DR,DR
527252070,392000,StoneBr,"3817 HOOVER AVE, AMES, USA",42.0588981,-93.63007309999999,HOOVER_AVE,StoneBr_HOOVER_AVE,AVE
534250010,135000,NWAmes,"1504 24TH ST, AMES, USA",42.04535569999999,-93.6304162,24TH_ST,NWAmes_24TH_ST,ST
904100090,150000,Sawyer,"2800 ONTARIO ST, AMES, USA",42.0342945,-93.6559059,ONTARIO_ST,Sawyer_ONTARIO_ST,ST
905453040,186000,Edwards,"218 CRANE AVE, AMES, USA",42.0247187,-93.66592849999999,CRANE_AVE,Edwards_CRANE_AVE,AVE
527326150,215000,NWAmes,"1709 BUCHANAN DR, AMES, USA",42.0555398,-93.63248709999999,BUCHANAN_DR,NWAmes_BUCHANAN_DR,DR
909101050,116000,Edwards,"2912 WOOD ST, AMES, USA",42.0219385,-93.6579869,WOOD_ST,Edwards_WOOD_ST,ST
923203140,160500,Mitchel,"3328 EMERALD DR, AMES, USA",41.991982,-93.607936,EMERALD_DR,Mitchel_EMERALD_DR,DR
906230020,269500,SawyerW,"907 NORTH DAKOTA AVE, AMES, USA",42.031097,-93.6791373,NORTH_DAKOTA_AVE,SawyerW_NORTH_DAKOTA_AVE,AVE
528218060,170440,Gilbert,"4221 CRESTMOOR AVE, AMES, USA",42.0625958,-93.6462253,CRESTMOOR_AVE,Gilbert_CRESTMOOR_AVE,AVE
906380040,246500,CollgCr,"5408 TABOR DR, AMES, USA",42.025157,-93.6908903,TABOR_DR,CollgCr_TABOR_DR,DR
528228360,246990,Blmngtn,"2304 WESTWIND DR, AMES, USA",42.0629492,-93.6403593,WESTWIND_DR,Blmngtn_WESTWIND_DR,DR
532377130,131400,Sawyer,"1304 ALBERTA AVE, AMES, USA",42.0347398,-93.6733167,ALBERTA_AVE,Sawyer_ALBERTA_AVE,AVE
527256040,455000,StoneBr,"1303 KINYON CIR, AMES, USA",42.0591897,-93.6287859,KINYON_CIR,StoneBr_KINYON_CIR,CIR
903400030,109000,BrkSide,"829 RIDGEWOOD AVE, AMES, USA",42.0299024,-93.6260964,RIDGEWOOD_AVE,BrkSide_RIDGEWOOD_AVE,AVE
535453200,132500,NAmes,"1516 MAXWELL AVE, AMES, USA",42.0374798,-93.6066061,MAXWELL_AVE,NAmes_MAXWELL_AVE,AVE
528240080,230500,Gilbert,"3903 WESTLAWN DR, AMES, USA",42.0603263,-93.6416917,WESTLAWN_DR,Gilbert_WESTLAWN_DR,DR
534476320,128900,NAmes,"1530 CURTISS AVE, AMES, USA",42.0378693,-93.6244388,CURTISS_AVE,NAmes_CURTISS_AVE,AVE
902125080,107400,OldTown,"1203 KELLOGG AVE, AMES, USA",42.0333951,-93.61422739999999,KELLOGG_AVE,OldTown_KELLOGG_AVE,AVE
528327010,405000,NoRidge,"3124 ALMOND RD, AMES, USA",42.0553884,-93.65372939999999,ALMOND_RD,NoRidge_ALMOND_RD,RD
916455070,220000,Timber,"2909 WHITE OAK DR, AMES, USA",41.9962536,-93.6470562,WHITE_OAK_DR,Timber_WHITE_OAK_DR,DR
535350030,144900,NAmes,"618 16TH ST, AMES, USA",42.03811229999999,-93.61952559999999,16TH_ST,NAmes_16TH_ST,ST
905226170,137000,Sawyer,"1248 WISCONSIN AVE, AMES, USA",42.0342481,-93.66176709999999,WISCONSIN_AVE,Sawyer_WISCONSIN_AVE,AVE
528488140,230348,Somerst,"2612 CLAYTON DR, AMES, USA",42.0511408,-93.6439881,CLAYTON_DR,Somerst_CLAYTON_DR,DR
528228580,246578,Blmngtn,"2420 LAKESIDE DR, AMES, USA",42.06302,-93.642068,LAKESIDE_DR,Blmngtn_LAKESIDE_DR,DR
527453130,149900,NPkVill,"1113 KENNEDY ST, AMES, USA",42.0508216,-93.62658909999999,KENNEDY_ST,NPkVill_KENNEDY_ST,ST
534127210,183000,NWAmes,"2741 CLEVELAND DR, AMES, USA",42.0493398,-93.6343873,CLEVELAND_DR,NWAmes_CLEVELAND_DR,DR
531452020,99500,SawyerW,"1308 INDIANA AVE, AMES, USA",42.0348401,-93.68613169999999,INDIANA_AVE,SawyerW_INDIANA_AVE,AVE
911175430,35311,IDOTRR,"313 S 4TH ST, AMES, USA",42.0192208,-93.6142726,S_4TH_ST,IDOTRR_S_4TH_ST,ST
531452180,194500,SawyerW,"1528 INDIANA AVE, AMES, USA",42.03730849999999,-93.68599599999999,INDIANA_AVE,SawyerW_INDIANA_AVE,AVE
902300110,139500,OldTown,"813 WILSON AVE, AMES, USA",42.0294506,-93.61866359999999,WILSON_AVE,OldTown_WILSON_AVE,AVE
924152030,231000,Mitchel,"3715 JEWEL DR, AMES, USA",41.98883499999999,-93.6003734,JEWEL_DR,Mitchel_JEWEL_DR,DR
902110120,111500,OldTown,"916 WILSON AVE, AMES, USA",42.030841,-93.6181419,WILSON_AVE,OldTown_WILSON_AVE,AVE
528439080,249000,Somerst,"2511 YORKSHIRE ST, AMES, USA",42.05337249999999,-93.6426695,YORKSHIRE_ST,Somerst_YORKSHIRE_ST,ST
908151040,147000,Edwards,"413 WELLONS CIR, AMES, USA",42.0187031,-93.6758523,WELLONS_CIR,Edwards_WELLONS_CIR,CIR
528390020,301500,NoRidge,"2948 CYPRESS CIR, AMES, USA",42.0495941,-93.6519671,CYPRESS_CIR,NoRidge_CYPRESS_CIR,CIR
531453140,144000,SawyerW,"1501 ILLINOIS AVE, AMES, USA",42.0363008,-93.68550069999999,ILLINOIS_AVE,SawyerW_ILLINOIS_AVE,AVE
905226110,145000,ClearCr,"3219 ROSS RD, AMES, USA",42.0327895,-93.6617892,ROSS_RD,ClearCr_ROSS_RD,RD
531363080,139500,SawyerW,"5510 KANSAS DR, AMES, USA",42.0377737,-93.6931692,KANSAS_DR,SawyerW_KANSAS_DR,DR
527450520,100500,BrDale,"1208 TRUMAN PL, AMES, USA",42.0514411,-93.6268789,TRUMAN_PL,BrDale_TRUMAN_PL,PL
534252040,144000,NAmes,"2303 MELROSE AVE, AMES, USA",42.044919,-93.6249946,MELROSE_AVE,NAmes_MELROSE_AVE,AVE
527453140,123000,NPkVill,"1115 KENNEDY ST, AMES, USA",42.0508191,-93.62666829999999,KENNEDY_ST,NPkVill_KENNEDY_ST,ST
531385020,189000,SawyerW,"1516 NEBRASKA AVE, AMES, USA",42.0371821,-93.6885587,NEBRASKA_AVE,SawyerW_NEBRASKA_AVE,AVE
534151175,243500,NWAmes,"2029 PRAIRIE VIEW EAST, AMES, USA",42.0425188,-93.63752989999999,PRAIRIE_VIEW_EAST,NWAmes_PRAIRIE_VIEW_EAST,EAST
914452060,145000,Mitchel,"411 OPAL CIR, AMES, USA",41.9945161,-93.6060947,OPAL_CIR,Mitchel_OPAL_CIR,CIR
535426130,135000,NAmes,"621 CARR DR, AMES, USA",42.0393808,-93.604745,CARR_DR,NAmes_CARR_DR,DR
905200220,139000,Sawyer,"3613 ANNEAR ST, AMES, USA",42.033561,-93.6672609,ANNEAR_ST,Sawyer_ANNEAR_ST,ST
903425280,153575,BrkSide,"622 RIDGEWOOD AVE, AMES, USA",42.0276137,-93.6251642,RIDGEWOOD_AVE,BrkSide_RIDGEWOOD_AVE,AVE
527326130,175000,NWAmes,"1717 BUCHANAN DR, AMES, USA",42.05540389999999,-93.63312049999999,BUCHANAN_DR,NWAmes_BUCHANAN_DR,DR
902105110,132000,OldTown,"1112 CLARK AVE, AMES, USA",42.0327467,-93.6167344,CLARK_AVE,OldTown_CLARK_AVE,AVE
528477050,310000,Somerst,"2525 KINGSTON DR, AMES, USA",42.0523972,-93.6433515,KINGSTON_DR,Somerst_KINGSTON_DR,DR
909282130,144800,Crawfor,"707 BEACH AVE, AMES, USA",42.015814,-93.63971199999999,BEACH_AVE,Crawfor_BEACH_AVE,AVE
534402170,177500,NAmes,"1405 ARTHUR DR, AMES, USA",42.0400324,-93.6282516,ARTHUR_DR,NAmes_ARTHUR_DR,DR
528228340,215000,Blmngtn,"2313 WESTWIND DR, AMES, USA",42.0626603,-93.6408644,WESTWIND_DR,Blmngtn_WESTWIND_DR,DR
911128180,68400,IDOTRR,"212 WASHINGTON AVE, AMES, USA",42.0212042,-93.615022,WASHINGTON_AVE,IDOTRR_WASHINGTON_AVE,AVE
527404020,128000,NAmes,"1218 JEFFERSON ST, AMES, USA",42.055063,-93.62718629999999,JEFFERSON_ST,NAmes_JEFFERSON_ST,ST
908103350,125200,Edwards,"215 WELLONS DR, AMES, USA",42.0199214,-93.6755032,WELLONS_DR,Edwards_WELLONS_DR,DR
527126030,251000,StoneBr,"4321 STONE BROOKE RD, AMES, USA",42.0631505,-93.6346389,STONE_BROOKE_RD,StoneBr_STONE_BROOKE_RD,RD
916475040,315000,Timber,"2320 SUNCREST DR, AMES, USA",41.9951486,-93.6478686,SUNCREST_DR,Timber_SUNCREST_DR,DR
905452110,127000,Edwards,"307 FRANKLIN AVE, AMES, USA",42.0251822,-93.6651232,FRANKLIN_AVE,Edwards_FRANKLIN_AVE,AVE
533208020,194000,Somerst,"2816 NORTHRIDGE LN, AMES, USA",42.0479279,-93.6472434,NORTHRIDGE_LN,Somerst_NORTHRIDGE_LN,LN
902103120,103500,OldTown,"621 11TH ST, AMES, USA",42.0323059,-93.619498,11TH_ST,OldTown_11TH_ST,ST
527359180,197500,NWAmes,"2985 MONROE DR, AMES, USA",42.0517067,-93.63403100000001,MONROE_DR,NWAmes_MONROE_DR,DR
535475020,140000,NAmes,"1531 LINDEN DR, AMES, USA",42.0377578,-93.6051864,LINDEN_DR,NAmes_LINDEN_DR,DR
909129100,159434,SWISU,None,,,None,SWISU_None,None
923227100,140000,Mitchel,"3330 JEWEL DR, AMES, USA",41.9924069,-93.60051179999999,JEWEL_DR,Mitchel_JEWEL_DR,DR
528150090,378000,NridgHt,"3203 HARRISON RD, AMES, USA",42.0598095,-93.65555119999999,HARRISON_RD,NridgHt_HARRISON_RD,RD
916252170,230000,GrnHill,None,,,None,GrnHill_None,None
914475030,173000,Mitchel,"627 CRYSTAL ST, AMES, USA",41.9971987,-93.6030438,CRYSTAL_ST,Mitchel_CRYSTAL_ST,ST
923225240,127000,MeadowV,"3472 SOUTHDALE DR, AMES, USA",41.99049429999999,-93.60359199999999,SOUTHDALE_DR,MeadowV_SOUTHDALE_DR,DR
527108060,309000,Gilbert,"4301 HARRISON CIR, AMES, USA",42.062822,-93.63541649999999,HARRISON_CIR,Gilbert_HARRISON_CIR,CIR
528482090,340000,Somerst,"2307 CLAYTON DR, AMES, USA",42.0511863,-93.6398471,CLAYTON_DR,Somerst_CLAYTON_DR,DR
527358060,175000,NWAmes,"2944 MONROE DR, AMES, USA",42.0505568,-93.63498109999999,MONROE_DR,NWAmes_MONROE_DR,DR
903235100,68500,BrkSide,"916 NORTHWESTERN AVE, AMES, USA",42.030802,-93.62443859999999,NORTHWESTERN_AVE,BrkSide_NORTHWESTERN_AVE,AVE
903225040,135000,BrkSide,"1217 CURTISS AVE, AMES, USA",42.0339506,-93.6249476,CURTISS_AVE,BrkSide_CURTISS_AVE,AVE
905453080,308030,Edwards,"3520 STORY ST, AMES, USA",42.0240024,-93.6658465,STORY_ST,Edwards_STORY_ST,ST
903227080,120000,BrkSide,"1204 MARSTON AVE, AMES, USA",42.0334204,-93.62331789999999,MARSTON_AVE,BrkSide_MARSTON_AVE,AVE
908102140,123000,Edwards,"221 TODD CIR, AMES, USA",42.0204888,-93.67773559999999,TODD_CIR,Edwards_TODD_CIR,CIR
534275060,141500,NAmes,"2103 MELROSE AVE, AMES, USA",42.04304459999999,-93.6233275,MELROSE_AVE,NAmes_MELROSE_AVE,AVE
907202080,136500,CollgCr,"5008 EMERSON DR, AMES, USA",42.0194535,-93.6850054,EMERSON_DR,CollgCr_EMERSON_DR,DR
532351090,125000,Sawyer,"4203 TORONTO ST, AMES, USA",42.0363674,-93.6759742,TORONTO_ST,Sawyer_TORONTO_ST,ST
923226300,85500,MeadowV,"609 MEADOW PL, AMES, USA",41.9923029,-93.6032731,MEADOW_PL,MeadowV_MEADOW_PL,PL
907180130,204000,CollgCr,"5333 CERVANTES DR, AMES, USA",42.017514,-93.6912668,CERVANTES_DR,CollgCr_CERVANTES_DR,DR
907412040,186500,CollgCr,"4901 WALLER ST, AMES, USA",42.0141781,-93.6856394,WALLER_ST,CollgCr_WALLER_ST,ST
535456100,109500,NAmes,"1322 STAFFORD AVE, AMES, USA",42.03536889999999,-93.6076531,STAFFORD_AVE,NAmes_STAFFORD_AVE,AVE
528172020,275000,NridgHt,"3038 HARRISON RD, AMES, USA",42.0594147,-93.652982,HARRISON_RD,NridgHt_HARRISON_RD,RD
907175080,226001,CollgCr,"5315 THACKERAY DR, AMES, USA",42.0184388,-93.69134609999999,THACKERAY_DR,CollgCr_THACKERAY_DR,DR
534427140,150750,NAmes,"1922 ROOSEVELT AVE, AMES, USA",42.0418444,-93.6232916,ROOSEVELT_AVE,NAmes_ROOSEVELT_AVE,AVE
905200010,129000,Sawyer,"3732 ONTARIO ST, AMES, USA",42.0342431,-93.6693663,ONTARIO_ST,Sawyer_ONTARIO_ST,ST
528228555,185485,Blmngtn,"2421 LAKESIDE DR, AMES, USA",42.0634,-93.6421668,LAKESIDE_DR,Blmngtn_LAKESIDE_DR,DR
905300020,144000,Sawyer,"4410 PHOENIX ST, AMES, USA",42.0293291,-93.6782296,PHOENIX_ST,Sawyer_PHOENIX_ST,ST
533253030,214000,Greens,"2008 PINEHURST DR, AMES, USA",42.0420775,-93.6490771,PINEHURST_DR,Greens_PINEHURST_DR,DR
923228250,75000,MeadowV,"723 GARNET DR, AMES, USA",41.9917689,-93.6019316,GARNET_DR,MeadowV_GARNET_DR,DR
534128100,162000,NWAmes,"1607 PIERCE CIR, AMES, USA",42.0480208,-93.6321308,PIERCE_CIR,NWAmes_PIERCE_CIR,CIR
908103090,110000,Edwards,"206 ABRAHAM DR, AMES, USA",42.0208553,-93.6759503,ABRAHAM_DR,Edwards_ABRAHAM_DR,DR
531369010,193000,SawyerW,"5404 MARYLAND ST, AMES, USA",42.0359268,-93.6917424,MARYLAND_ST,SawyerW_MARYLAND_ST,ST
535426350,148000,NAmes,"1810 GEORGE ALLEN AVE, AMES, USA",42.040282,-93.60680239999999,GEORGE_ALLEN_AVE,NAmes_GEORGE_ALLEN_AVE,AVE
527210050,356383,StoneBr,"1407 PANORAMIC CT, AMES, USA",42.0608063,-93.6295578,PANORAMIC_CT,StoneBr_PANORAMIC_CT,CT
923225190,104500,MeadowV,"3442 SOUTHDALE DR, AMES, USA",41.9909453,-93.6040676,SOUTHDALE_DR,MeadowV_SOUTHDALE_DR,DR
923228210,79500,MeadowV,"719 MEADOW PL, AMES, USA",41.9919187,-93.60148960000001,MEADOW_PL,MeadowV_MEADOW_PL,PL
902401090,93500,OldTown,"115 E 7TH ST, AMES, USA",42.0282513,-93.609644,E_7TH_ST,OldTown_E_7TH_ST,ST
528174080,185850,NridgHt,"2902 HARRISON RD, AMES, USA",42.0590078,-93.6497931,HARRISON_RD,NridgHt_HARRISON_RD,RD
910200040,115000,IDOTRR,"103 S RUSSELL AVE, AMES, USA",42.0226357,-93.62864739999999,S_RUSSELL_AVE,IDOTRR_S_RUSSELL_AVE,AVE
528294060,185900,Gilbert,"3816 HYDE AVE, AMES, USA",42.0584432,-93.6408008,HYDE_AVE,Gilbert_HYDE_AVE,AVE
902128150,155000,OldTown,"1116 BURNETT AVE, AMES, USA",42.0327354,-93.6152504,BURNETT_AVE,OldTown_BURNETT_AVE,AVE
535451010,116000,NAmes,"214 E 16TH ST, AMES, USA",42.03811280000001,-93.6082268,E_16TH_ST,NAmes_E_16TH_ST,ST
533221060,177000,Somerst,"2717 HAMPTON ST, AMES, USA",42.0461879,-93.6462914,HAMPTON_ST,Somerst_HAMPTON_ST,ST
535175050,155000,NAmes,"2315 DUFF AVE, AMES, USA",42.0452179,-93.61443919999999,DUFF_AVE,NAmes_DUFF_AVE,AVE
909451100,137000,Blueste,"1505 LITTLE BLUESTEM CT, AMES, USA",42.0095436,-93.64614279999999,LITTLE_BLUESTEM_CT,Blueste_LITTLE_BLUESTEM_CT,CT
905104210,125000,Sawyer,"823 YUMA AVE, AMES, USA",42.0302512,-93.67838809999999,YUMA_AVE,Sawyer_YUMA_AVE,AVE
907275080,228000,CollgCr,"4539 HEMINGWAY DR, AMES, USA",42.0190469,-93.6806309,HEMINGWAY_DR,CollgCr_HEMINGWAY_DR,DR
907285080,210000,CollgCr,"4532 CLEMENS BLVD, AMES, USA",42.0176874,-93.6804286,CLEMENS_BLVD,CollgCr_CLEMENS_BLVD,BLVD
907285050,191000,CollgCr,"4606 CLEMENS BLVD, AMES, USA",42.017682,-93.6812013,CLEMENS_BLVD,CollgCr_CLEMENS_BLVD,BLVD
528118040,418000,NridgHt,"3311 PRESTON CIR, AMES, USA",42.0605737,-93.65695989999999,PRESTON_CIR,NridgHt_PRESTON_CIR,CIR
907255050,275000,CollgCr,"503 BROWN CT, AMES, USA",42.0181581,-93.6856394,BROWN_CT,CollgCr_BROWN_CT,CT
905105190,130000,Sawyer,"822 YUMA AVE, AMES, USA",42.030202,-93.6777973,YUMA_AVE,Sawyer_YUMA_AVE,AVE
923201100,139500,Mitchel,"601 JEWEL DR, AMES, USA",41.9933188,-93.6042455,JEWEL_DR,Mitchel_JEWEL_DR,DR
528120030,335000,NridgHt,"3112 WESTON DR, AMES, USA",42.0610687,-93.6546793,WESTON_DR,NridgHt_WESTON_DR,DR
907135170,138000,CollgCr,"5449 FROST DR, AMES, USA",42.0197341,-93.6928769,FROST_DR,CollgCr_FROST_DR,DR
535478010,134500,NAmes,"510 E 14TH ST, AMES, USA",42.0351916,-93.6052989,E_14TH_ST,NAmes_E_14TH_ST,ST
535180120,133000,NAmes,"217 20TH ST, AMES, USA",42.04227280000001,-93.61339459999999,20TH_ST,NAmes_20TH_ST,ST
534426110,124500,NAmes,"1926 HUNZIKER DR, AMES, USA",42.0418128,-93.6243992,HUNZIKER_DR,NAmes_HUNZIKER_DR,DR
535403150,159500,NAmes,"313 E 16TH ST, AMES, USA",42.038472,-93.60725339999999,E_16TH_ST,NAmes_E_16TH_ST,ST
531376010,173000,SawyerW,"1410 CALIFORNIA AVE, AMES, USA",42.03644269999999,-93.6910532,CALIFORNIA_AVE,SawyerW_CALIFORNIA_AVE,AVE
911102170,40000,IDOTRR,"208 S WALNUT AVE, AMES, USA",42.0213132,-93.61665520000001,S_WALNUT_AVE,IDOTRR_S_WALNUT_AVE,AVE
905475520,80000,Edwards,"309 COLORADO CIR, AMES, USA",42.0256093,-93.6636415,COLORADO_CIR,Edwards_COLORADO_CIR,CIR
907175030,235000,CollgCr,"5423 THACKERAY DR, AMES, USA",42.0183009,-93.6926342,THACKERAY_DR,CollgCr_THACKERAY_DR,DR
527212050,325000,StoneBr,"4014 EDGEWATER DR, AMES, USA",42.0606407,-93.628687,EDGEWATER_DR,StoneBr_EDGEWATER_DR,DR
902201110,129500,OldTown,"1212 CARROLL AVE, AMES, USA",42.0336943,-93.60870159999999,CARROLL_AVE,OldTown_CARROLL_AVE,AVE
906201030,178000,SawyerW,"1149 OKLAHOMA DR, AMES, USA",42.0337405,-93.684985,OKLAHOMA_DR,SawyerW_OKLAHOMA_DR,DR
535325130,127000,NAmes,"209 17TH ST, AMES, USA",42.0395201,-93.6130627,17TH_ST,NAmes_17TH_ST,ST
533213040,172500,Somerst,"2723 BRISTOL DR, AMES, USA",42.0471776,-93.6466507,BRISTOL_DR,Somerst_BRISTOL_DR,DR
527352150,154000,NWAmes,"2108 STEVENSON DR, AMES, USA",42.0516438,-93.63825969999999,STEVENSON_DR,NWAmes_STEVENSON_DR,DR
903226060,164900,BrkSide,"1209 MARSTON AVE, AMES, USA",42.0336978,-93.6238737,MARSTON_AVE,BrkSide_MARSTON_AVE,AVE
923227080,160000,Mitchel,"3318 JEWEL DR, AMES, USA",41.9927474,-93.6007492,JEWEL_DR,Mitchel_JEWEL_DR,DR
907252060,254750,CollgCr,"4923 HEMINGWAY DR, AMES, USA",42.0183294,-93.6869273,HEMINGWAY_DR,CollgCr_HEMINGWAY_DR,DR
528102010,315000,NridgHt,"4205 WEMBLEY AVE, AMES, USA",42.0614798,-93.658878,WEMBLEY_AVE,NridgHt_WEMBLEY_AVE,AVE
533208040,199900,Somerst,"2810 NORTHRIDGE LN, AMES, USA",42.0477161,-93.64706729999999,NORTHRIDGE_LN,Somerst_NORTHRIDGE_LN,LN
534128090,185000,NWAmes,"2703 PIERCE AVE, AMES, USA",42.0478742,-93.6317141,PIERCE_AVE,NWAmes_PIERCE_AVE,AVE
908103260,165000,Edwards,"4117 APLIN RD, AMES, USA",42.0201073,-93.67422789999999,APLIN_RD,Edwards_APLIN_RD,RD
903231180,132000,BrkSide,"1018 CURTISS AVE, AMES, USA",42.0319655,-93.6243726,CURTISS_AVE,BrkSide_CURTISS_AVE,AVE
533206050,196000,Somerst,"2813 BRISTOL DR, AMES, USA",42.0475004,-93.6474872,BRISTOL_DR,Somerst_BRISTOL_DR,DR
535403280,153000,NAmes,"1640 CARROLL AVE, AMES, USA",42.0395251,-93.6099139,CARROLL_AVE,NAmes_CARROLL_AVE,AVE
907192030,195000,CollgCr,"5313 CLEMENS BLVD, AMES, USA",42.0168541,-93.6901571,CLEMENS_BLVD,CollgCr_CLEMENS_BLVD,BLVD
914465060,271000,Mitchel,"305 TOPAZ CT, AMES, USA",41.9970068,-93.6071817,TOPAZ_CT,Mitchel_TOPAZ_CT,CT
903228120,119000,BrkSide,"1214 ROOSEVELT AVE, AMES, USA",42.0338493,-93.622295,ROOSEVELT_AVE,BrkSide_ROOSEVELT_AVE,AVE
903229040,119900,OldTown,"1209 GRAND AVE, AMES, USA",42.033765,-93.6207689,GRAND_AVE,OldTown_GRAND_AVE,AVE
535101120,124000,NAmes,"2718 LUTHER DR, AMES, USA",42.0487159,-93.6194052,LUTHER_DR,NAmes_LUTHER_DR,DR
527180040,171500,Gilbert,"3629 FLETCHER BLVD, AMES, USA",42.0574303,-93.63498109999999,FLETCHER_BLVD,Gilbert_FLETCHER_BLVD,BLVD
902110080,135000,OldTown,"509 9TH ST, AMES, USA",42.0303603,-93.61768409999999,9TH_ST,OldTown_9TH_ST,ST
902405120,119000,OldTown,"618 CARROLL AVE, AMES, USA",42.0276339,-93.6085433,CARROLL_AVE,OldTown_CARROLL_AVE,AVE
924100070,170000,Mitchel,"3508 JEWEL DR, AMES, USA",41.9908628,-93.5998195,JEWEL_DR,Mitchel_JEWEL_DR,DR
903454020,72000,IDOTRR,"1214 N 3RD ST, AMES, USA",42.0249821,-93.6275678,N_3RD_ST,IDOTRR_N_3RD_ST,ST
527110120,169000,Gilbert,"2036 WYNGATE DR, AMES, USA",42.0613808,-93.6370397,WYNGATE_DR,Gilbert_WYNGATE_DR,DR
902136110,95000,OldTown,"111 9TH ST, AMES, USA",42.0303616,-93.6113036,9TH_ST,OldTown_9TH_ST,ST
907130060,177500,CollgCr,"5250 SCHUBERT ST, AMES, USA",42.0218347,-93.690276,SCHUBERT_ST,CollgCr_SCHUBERT_ST,ST
526350040,105000,NAmes,"3109 GROVE AVE, AMES, USA",42.0528847,-93.61993989999999,GROVE_AVE,NAmes_GROVE_AVE,AVE
535352090,113000,NAmes,"425 15TH ST, AMES, USA",42.0372254,-93.6167633,15TH_ST,NAmes_15TH_ST,ST
907295100,185000,CollgCr,"4551 TWAIN CIR, AMES, USA",42.01643869999999,-93.6805653,TWAIN_CIR,CollgCr_TWAIN_CIR,CIR
528431060,245000,Somerst,"2515 DALTON ST, AMES, USA",42.0544241,-93.6429138,DALTON_ST,Somerst_DALTON_ST,ST
535126040,190000,NAmes,"2613 DUFF AVE, AMES, USA",42.0478217,-93.61453809999999,DUFF_AVE,NAmes_DUFF_AVE,AVE
534477110,140000,NAmes,"1411 ROOSEVELT AVE, AMES, USA",42.03610279999999,-93.6228543,ROOSEVELT_AVE,NAmes_ROOSEVELT_AVE,AVE
528222010,258000,Gilbert,"4106 WELBECK DR, AMES, USA",42.0617806,-93.6439287,WELBECK_DR,Gilbert_WELBECK_DR,DR
923203010,140000,Mitchel,"3302 EMERALD DR, AMES, USA",41.9931221,-93.6079997,EMERALD_DR,Mitchel_EMERALD_DR,DR
535154060,176000,NAmes,"2215 KELLOGG AVE, AMES, USA",42.0444194,-93.6152702,KELLOGG_AVE,NAmes_KELLOGG_AVE,AVE
533125120,334000,NoRidge,"3130 GREENWOOD RD, AMES, USA",42.048431,-93.65454129999999,GREENWOOD_RD,NoRidge_GREENWOOD_RD,RD
902301150,114000,OldTown,"830 WILSON AVE, AMES, USA",42.0300375,-93.61811949999999,WILSON_AVE,OldTown_WILSON_AVE,AVE
533250160,324000,Veenker,"2878 GREENSBORO CIR, AMES, USA",42.0444849,-93.6490042,GREENSBORO_CIR,Veenker_GREENSBORO_CIR,CIR
528106010,342643,NridgHt,"3332 STOCKBURY ST, AMES, USA",42.0619658,-93.65816509999999,STOCKBURY_ST,NridgHt_STOCKBURY_ST,ST
532376040,129000,Sawyer,"1304 GARFIELD AVE, AMES, USA",42.0347038,-93.6693784,GARFIELD_AVE,Sawyer_GARFIELD_AVE,AVE
535151130,132500,NAmes,"2110 BARR DR, AMES, USA",42.0434628,-93.6194294,BARR_DR,NAmes_BARR_DR,DR
528240070,216500,Gilbert,"3907 WESTLAWN DR, AMES, USA",42.0604807,-93.6416917,WESTLAWN_DR,Gilbert_WESTLAWN_DR,DR
527184020,182000,StoneBr,"1530 STONE BROOKE RD, AMES, USA",42.05899700000001,-93.63202299999999,STONE_BROOKE_RD,StoneBr_STONE_BROOKE_RD,RD
907135230,156000,CollgCr,"5430 FROST DR, AMES, USA",42.0187009,-93.6928125,FROST_DR,CollgCr_FROST_DR,DR
527402150,143250,NAmes,"3323 JEFFERSON CIR, AMES, USA",42.0553849,-93.6264695,JEFFERSON_CIR,NAmes_JEFFERSON_CIR,CIR
532378070,137000,Sawyer,"3828 WINDSOR CT, AMES, USA",42.0351329,-93.670666,WINDSOR_CT,Sawyer_WINDSOR_CT,CT
910201020,87000,IDOTRR,"1224 LINCOLN WAY, AMES, USA",42.0226175,-93.62798110000001,LINCOLN_WAY,IDOTRR_LINCOLN_WAY,WAY
905103060,121500,Sawyer,"3925 ROSS RD, AMES, USA",42.0324847,-93.672564,ROSS_RD,Sawyer_ROSS_RD,RD
923228110,80000,MeadowV,"632 MEADOW PL, AMES, USA",41.9923946,-93.6021617,MEADOW_PL,MeadowV_MEADOW_PL,PL
904100170,131000,Sawyer,"2925 ROSS RD, AMES, USA",42.0331582,-93.6586998,ROSS_RD,Sawyer_ROSS_RD,RD
533242090,301000,Somerst,"2311 CAMDEN DR, AMES, USA",42.04625559999999,-93.64032569999999,CAMDEN_DR,Somerst_CAMDEN_DR,DR
528456180,252678,Somerst,"2811 ASPEN RD, AMES, USA",42.0509833,-93.6465138,ASPEN_RD,Somerst_ASPEN_RD,RD
907285100,237000,CollgCr,"4520 CLEMENS BLVD, AMES, USA",42.0177051,-93.67987389999999,CLEMENS_BLVD,CollgCr_CLEMENS_BLVD,BLVD
535104020,163000,NAmes,"2619 KELLOGG AVE, AMES, USA",42.0478644,-93.6172718,KELLOGG_AVE,NAmes_KELLOGG_AVE,AVE
528439040,260000,Somerst,"2607 YORKSHIRE ST, AMES, USA",42.05338649999999,-93.6437287,YORKSHIRE_ST,Somerst_YORKSHIRE_ST,ST
908225320,113000,Edwards,"148 S FRANKLIN AVE, AMES, USA",42.0209911,-93.66447699999999,S_FRANKLIN_AVE,Edwards_S_FRANKLIN_AVE,AVE
527216070,538000,StoneBr,"4126 LAURA CT, AMES, USA",42.0614292,-93.6269454,LAURA_CT,StoneBr_LAURA_CT,CT
527451290,85400,BrDale,"1358 BARKLEY CT, AMES, USA",42.0516575,-93.6282252,BARKLEY_CT,BrDale_BARKLEY_CT,CT
907410050,213500,CollgCr,"839 POE AVE, AMES, USA",42.0148459,-93.6840939,POE_AVE,CollgCr_POE_AVE,AVE
909254050,231000,Crawfor,"603 ASH AVE, AMES, USA",42.0168714,-93.6447602,ASH_AVE,Crawfor_ASH_AVE,AVE
531373060,192500,SawyerW,"5426 TENNESSEE ST, AMES, USA",42.0350092,-93.69265399999999,TENNESSEE_ST,SawyerW_TENNESSEE_ST,ST
534451130,79900,BrkSide,"1414 SUMMIT AVE, AMES, USA",42.0357882,-93.62921800000001,SUMMIT_AVE,BrkSide_SUMMIT_AVE,AVE
902206220,129000,OldTown,"916 DUFF AVE, AMES, USA",42.0307086,-93.61028429999999,DUFF_AVE,OldTown_DUFF_AVE,AVE
527164020,166000,Gilbert,"3823 COLUMBINE AVE, AMES, USA",42.0587866,-93.63605,COLUMBINE_AVE,Gilbert_COLUMBINE_AVE,AVE
527107130,189000,Gilbert,"1952 WYNGATE DR, AMES, USA",42.0614284,-93.6355353,WYNGATE_DR,Gilbert_WYNGATE_DR,DR
923225200,129500,MeadowV,"3448 SOUTHDALE DR, AMES, USA",41.9908741,-93.6039072,SOUTHDALE_DR,MeadowV_SOUTHDALE_DR,DR
909251030,136500,Crawfor,"2328 BAKER ST, AMES, USA",42.0177246,-93.64771019999999,BAKER_ST,Crawfor_BAKER_ST,ST
907194130,192500,CollgCr,"5408 CLEMENS BLVD, AMES, USA",42.015832,-93.691549,CLEMENS_BLVD,CollgCr_CLEMENS_BLVD,BLVD
907250070,250000,CollgCr,"5115 CLEMENS BLVD, AMES, USA",42.0172667,-93.68813600000001,CLEMENS_BLVD,CollgCr_CLEMENS_BLVD,BLVD
903454080,119500,IDOTRR,"1207 N 2ND ST, AMES, USA",42.024261,-93.62734119999999,N_2ND_ST,IDOTRR_N_2ND_ST,ST
534250335,170000,NWAmes,"2313 MCKINLEY CIR, AMES, USA",42.0443532,-93.629637,MCKINLEY_CIR,NWAmes_MCKINLEY_CIR,CIR
528108130,404000,NridgHt,"3107 STOCKBURY ST, AMES, USA",42.0624677,-93.6545215,STOCKBURY_ST,NridgHt_STOCKBURY_ST,ST
923230010,157000,Mitchel,"601 GARDEN RD, AMES, USA",41.989432,-93.6041516,GARDEN_RD,Mitchel_GARDEN_RD,RD
909281030,104000,Crawfor,"2006 KILDEE ST, AMES, USA",42.0173426,-93.6397298,KILDEE_ST,Crawfor_KILDEE_ST,ST
527451320,112000,BrDale,"1346 BARKLEY CT, AMES, USA",42.0514736,-93.6283639,BARKLEY_CT,BrDale_BARKLEY_CT,CT
535303110,131000,NAmes,"608 DURRELL CIR, AMES, USA",42.03949009999999,-93.6189518,DURRELL_CIR,NAmes_DURRELL_CIR,CIR
528456200,198600,Somerst,"2823 ASPEN RD, AMES, USA",42.0511778,-93.64700130000001,ASPEN_RD,Somerst_ASPEN_RD,RD
528120010,260116,NridgHt,"4120 VALLEY VIEW RD, AMES, USA",42.0611273,-93.6553927,VALLEY_VIEW_RD,NridgHt_VALLEY_VIEW_RD,RD
902207170,99500,OldTown,"911 MAXWELL AVE, AMES, USA",42.0305985,-93.60701999999999,MAXWELL_AVE,OldTown_MAXWELL_AVE,AVE
923204140,143000,Mitchel,"3310 OPAL DR, AMES, USA",41.9927242,-93.60725599999999,OPAL_DR,Mitchel_OPAL_DR,DR
906223080,239900,SawyerW,"1002 VERMONT CT, AMES, USA",42.0307777,-93.68185509999999,VERMONT_CT,SawyerW_VERMONT_CT,CT
532378050,120875,Sawyer,"3900 WINDSOR CT, AMES, USA",42.0350784,-93.67117739999999,WINDSOR_CT,Sawyer_WINDSOR_CT,CT
906204140,228500,SawyerW,"1102 IDAHO AVE, AMES, USA",42.0316668,-93.6830438,IDAHO_AVE,SawyerW_IDAHO_AVE,AVE
923202137,146000,Mitchel,"107 GARDEN RD, AMES, USA",41.9901427,-93.60984900000001,GARDEN_RD,Mitchel_GARDEN_RD,RD
907280040,240000,CollgCr,"4616 HEMINGWAY DR, AMES, USA",42.0185979,-93.6815579,HEMINGWAY_DR,CollgCr_HEMINGWAY_DR,DR
528170070,284000,NridgHt,"3026 ROXBORO DR, AMES, USA",42.0584192,-93.65252149999999,ROXBORO_DR,NridgHt_ROXBORO_DR,DR
909451020,116500,Blueste,"1505 LITTLE BLUESTEM CT, AMES, USA",42.0095436,-93.64614279999999,LITTLE_BLUESTEM_CT,Blueste_LITTLE_BLUESTEM_CT,CT
902300260,132000,OldTown,"832 GRAND AVE, AMES, USA",42.0300477,-93.620049,GRAND_AVE,OldTown_GRAND_AVE,AVE
911226010,81000,IDOTRR,"130 CHERRY AVE, AMES, USA",42.0217466,-93.60407239999999,CHERRY_AVE,IDOTRR_CHERRY_AVE,AVE
535375160,114000,OldTown,"1532 BURNETT AVE, AMES, USA",42.0381621,-93.6152702,BURNETT_AVE,OldTown_BURNETT_AVE,AVE
527405160,120500,NAmes,"1122 WHEELER ST, AMES, USA",42.053135,-93.6264935,WHEELER_ST,NAmes_WHEELER_ST,ST
534200030,130000,NAmes,"1406 JOHNSON ST, AMES, USA",42.0486378,-93.62948109999999,JOHNSON_ST,NAmes_JOHNSON_ST,ST
528186110,310090,NridgHt,"3032 BURNHAM DR, AMES, USA",42.0573059,-93.652222,BURNHAM_DR,NridgHt_BURNHAM_DR,DR
527450110,103400,BrDale,"1425 TRUMAN PL, AMES, USA",42.05270669999999,-93.62902659999999,TRUMAN_PL,BrDale_TRUMAN_PL,PL
528292030,245000,Gilbert,"2417 GRANT CIR, AMES, USA",42.0570043,-93.641933,GRANT_CIR,Gilbert_GRANT_CIR,CIR
535177020,120000,NAmes,"126 24TH ST, AMES, USA",42.0455279,-93.61194619999999,24TH_ST,NAmes_24TH_ST,ST
535478110,124000,NAmes,"515 E 13TH ST, AMES, USA",42.0346975,-93.6050351,E_13TH_ST,NAmes_E_13TH_ST,ST
528142070,329900,NridgHt,"3016 BECKLEY ST, AMES, USA",42.0603683,-93.6531552,BECKLEY_ST,NridgHt_BECKLEY_ST,ST
527276040,133000,Gilbert,"3805 DAWES DR, AMES, USA",42.0586706,-93.62259159999999,DAWES_DR,Gilbert_DAWES_DR,DR
908127070,110000,Edwards,"227 DOTSON DR, AMES, USA",42.0202714,-93.67167889999999,DOTSON_DR,Edwards_DOTSON_DR,DR
908186090,142500,Edwards,"3821 MARIGOLD DR, AMES, USA",42.0190777,-93.6698425,MARIGOLD_DR,Edwards_MARIGOLD_DR,DR
916403290,187500,Timber,"2721 BURR OAK CIR, AMES, USA",41.9976505,-93.6451562,BURR_OAK_CIR,Timber_BURR_OAK_CIR,CIR
528327070,327000,NoRidge,"3016 ALMOND RD, AMES, USA",42.0554376,-93.6515711,ALMOND_RD,NoRidge_ALMOND_RD,RD
535453040,125900,NAmes,"1511 GLENDALE AVE, AMES, USA",42.0373275,-93.6061694,GLENDALE_AVE,NAmes_GLENDALE_AVE,AVE
923276180,139000,Mitchel,"636 GARDEN RD, AMES, USA",41.9881941,-93.6031237,GARDEN_RD,Mitchel_GARDEN_RD,RD
534430110,137000,NAmes,"1605 ROOSEVELT AVE, AMES, USA",42.0385399,-93.6229082,ROOSEVELT_AVE,NAmes_ROOSEVELT_AVE,AVE
907187030,188000,CollgCr,"5213 CERVANTES DR, AMES, USA",42.0180825,-93.689206,CERVANTES_DR,CollgCr_CERVANTES_DR,DR
535383120,78500,OldTown,"1326 DOUGLAS AVE, AMES, USA",42.0355625,-93.6120617,DOUGLAS_AVE,OldTown_DOUGLAS_AVE,AVE
902205070,46500,OldTown,"1101 MAXWELL AVE, AMES, USA",42.0321986,-93.60711889999999,MAXWELL_AVE,OldTown_MAXWELL_AVE,AVE
535453100,138000,NAmes,"1411 GLENDALE AVE, AMES, USA",42.0360987,-93.6061496,GLENDALE_AVE,NAmes_GLENDALE_AVE,AVE
528488100,185000,Somerst,"2520 CLAYTON DR, AMES, USA",42.0511089,-93.64305139999999,CLAYTON_DR,Somerst_CLAYTON_DR,DR
534403370,158000,NAmes,"1902 BEL AIR CIR, AMES, USA",42.040952,-93.6266485,BEL_AIR_CIR,NAmes_BEL_AIR_CIR,CIR
535455080,105500,NAmes,"201 E 13TH ST, AMES, USA",42.0348183,-93.6087227,E_13TH_ST,NAmes_E_13TH_ST,ST
532479120,171000,Sawyer,"1318 WISCONSIN CIR, AMES, USA",42.0351249,-93.661683,WISCONSIN_CIR,Sawyer_WISCONSIN_CIR,CIR
531452260,184000,SawyerW,"5103 KANSAS DR, AMES, USA",42.0377406,-93.68792479999999,KANSAS_DR,SawyerW_KANSAS_DR,DR
528488130,187750,Somerst,"2606 CLAYTON DR, AMES, USA",42.0510917,-93.6437728,CLAYTON_DR,Somerst_CLAYTON_DR,DR
923229010,146800,Mitchel,"3401 SOUTHDALE DR, AMES, USA",41.9914187,-93.60510029999999,SOUTHDALE_DR,Mitchel_SOUTHDALE_DR,DR
528382020,290000,NoRidge,"2913 ARROWWOOD CIR, AMES, USA",42.0528049,-93.6506818,ARROWWOOD_CIR,NoRidge_ARROWWOOD_CIR,CIR
914478045,169900,Mitchel,"3100 DIAMOND ST, AMES, USA",41.994774,-93.6008481,DIAMOND_ST,Mitchel_DIAMOND_ST,ST
535478040,130000,NAmes,"608 E 14TH ST, AMES, USA",42.0350606,-93.6045472,E_14TH_ST,NAmes_E_14TH_ST,ST
907227080,123000,CollgCr,"306 ROCKWELL AVE, AMES, USA",42.0208405,-93.6829855,ROCKWELL_AVE,CollgCr_ROCKWELL_AVE,AVE
532376090,143900,Sawyer,"1328 GARFIELD AVE, AMES, USA",42.0356329,-93.6693014,GARFIELD_AVE,Sawyer_GARFIELD_AVE,AVE
907196050,223500,CollgCr,"718 WILDER BLVD, AMES, USA",42.0159338,-93.6887304,WILDER_BLVD,CollgCr_WILDER_BLVD,BLVD
907265100,207000,CollgCr,"619 POE AVE, AMES, USA",42.0167393,-93.6840939,POE_AVE,CollgCr_POE_AVE,AVE
528114050,440000,NridgHt,"3218 WESTON DR, AMES, USA",42.06103220000001,-93.65656109999999,WESTON_DR,NridgHt_WESTON_DR,DR
907260030,198500,CollgCr,"5014 CLEMENS BLVD, AMES, USA",42.01681689999999,-93.68745,CLEMENS_BLVD,CollgCr_CLEMENS_BLVD,BLVD
905200510,149350,Sawyer,"1219 GARFIELD CIR, AMES, USA",42.0339453,-93.6691568,GARFIELD_CIR,Sawyer_GARFIELD_CIR,CIR
527106050,165000,Gilbert,"4009 EISENHOWER AVE, AMES, USA",42.0607343,-93.63795019999999,EISENHOWER_AVE,Gilbert_EISENHOWER_AVE,AVE
527325160,235000,NWAmes,"1624 BUCHANAN DR, AMES, USA",42.0544287,-93.6328236,BUCHANAN_DR,NWAmes_BUCHANAN_DR,DR
535403190,143500,NAmes,"217 E 16TH ST, AMES, USA",42.0384557,-93.60822,E_16TH_ST,NAmes_E_16TH_ST,ST
907410040,203160,CollgCr,"903 POE AVE, AMES, USA",42.0146391,-93.6840852,POE_AVE,CollgCr_POE_AVE,AVE
531384070,191750,SawyerW,"1311 NEBRASKA AVE, AMES, USA",42.0352578,-93.6897212,NEBRASKA_AVE,SawyerW_NEBRASKA_AVE,AVE
528290170,187000,Gilbert,"2420 WELBECK DR, AMES, USA",42.05773920000001,-93.6423054,WELBECK_DR,Gilbert_WELBECK_DR,DR
903457130,99500,IDOTRR,"108 N RUSSELL AVE, AMES, USA",42.023328,-93.6281242,N_RUSSELL_AVE,IDOTRR_N_RUSSELL_AVE,AVE
